ML Catalog Number,Format,Common Name,Scientific Name,Background Species,Recordist,Date,Year,Month,Day,Time,Country,Country-State-County,State,County,Locality,Latitude,Longitude,Age/Sex,Behaviors,Playback,Captive,Collected,Specimen ID,Home Archive Catalog Number,Recorder,Microphone,Accessory,Partner Institution,eBird Checklist ID,Unconfirmed,Air Temp(°C),Water Temp(°C),Media notes,Observation Details,Parent Species,eBird Species Code,Taxon Category,Taxonomic Sort,Recordist 2,Average Community Rating,Number of Ratings,Asset Tags,Original Image Height,Original Image Width
269969201,Photo,American Crow,Corvus brachyrhynchos,,Gord Gadsden,2020-10-10,2020,10,10,1355,Canada,CA-BC-FV,British Columbia,Fraser Valley,Sardis Park,49.1278561,-121.9533062,"","",Unspecified,"","",,,,,,,S74674356,"",,,,,Corvus brachyrhynchos,amecro,Species,21333,,4.90,452,Aberrant individual,924,1250
286868001,Photo,American Crow,Corvus brachyrhynchos,,Ian Routley,2020-12-06,2020,12,6,1342,Canada,CA-BC-SL,British Columbia,Squamish-Lillooet,Lillooet--Pineridge Road,50.6844157,-121.9146319,Adult – 1,,Unspecified,"","",,,,,,,S77166113,"",,,,,Corvus brachyrhynchos,amecro,Species,21333,,4.81,161,,2122,3786
620797529,Photo,American Crow,Corvus brachyrhynchos,,James Tornetta,2024-06-18,2024,6,18,1438,United States,US-ME-009,Maine,Hancock,Bar Harbor--Shore Path,44.3900496,-68.2011509,Juvenile – 1,Carrying Food,Unspecified,"","",,,,,,,S182363124,"",,,,Two adults showing four juveniles how to forage for green crabs at low tide,Corvus brachyrhynchos,amecro,Species,21333,,4.91,64,"",1561,2347
290453231,Photo,American Crow,Corvus brachyrhynchos,,Gord Gadsden,2020-12-23,2020,12,23,1020,Canada,CA-BC-FV,British Columbia,Fraser Valley,Sardis Park,49.1278561,-121.9533062,"","",Unspecified,"","",,,,,,,S77890872,"",,,,,Corvus brachyrhynchos,amecro,Species,21333,,4.79,127,Aberrant individual,850,1250
362463361,Photo,American Crow,Corvus brachyrhynchos,,Elliott Bury,2021-07-09,2021,7,9,700,United States,US-OR-011,Oregon,Coos,Oregon Islands National Wildlife Refuge,43.1167582,-124.4384263,"",,Unspecified,"","",,,,,,,S93058927,"",,,,,Corvus brachyrhynchos,amecro,Species,21333,,4.76,87,,1463,2048
27327221,Photo,American Crow,Corvus brachyrhynchos,,Ian Davies,2012-07-13,2012,7,13,1903,United States,US-AK-122,Alaska,Kenai Peninsula Borough,Seward--Iditarod Memorial,60.1014771,-149.4355201,Adult,,Unspecified,"","",,,,,,,S11149761,"",,,,,Corvus brachyrhynchos,amecro,Species,21333,,4.73,93,,3194,5183
267313391,Photo,American Crow,Corvus brachyrhynchos,,Brad Imhoff,2020-10-01,2020,10,1,728,United States,US-OH-089,Ohio,Licking,Granville Schools Land Lab,40.0889220,-82.5452640,"",Foraging or Eating,Unspecified,"","",,,,,,,S74276668,"",,,,,Corvus brachyrhynchos,amecro,Species,21333,,4.74,82,"",1463,2194
383244531,Photo,American Crow,Corvus brachyrhynchos,,Melissa Hafting,2021-10-27,2021,10,27,1526,Canada,CA-BC-GV,British Columbia,Metro Vancouver,Richmond--Garden City Park,49.1645847,-123.1230175,"",,Unspecified,"","",,,,,,,S96787761,"",,,,,Corvus brachyrhynchos,amecro,Species,21333,,4.71,90,,3648,5472
273606611,Photo,American Crow,Corvus brachyrhynchos,,Jim Merritt,2020-10-22,2020,10,22,729,United States,US-CO-041,Colorado,El Paso,Red Rock Canyon Open Space,38.8473432,-104.8811263,"",,Unspecified,"","",,,,,,,S75213297,"",,,,,Corvus brachyrhynchos,amecro,Species,21333,,4.84,49,,3039,3755
256800971,Photo,American Crow,Corvus brachyrhynchos,,"Alix d'Entremont",2013-07-06,2013,7,6,1000,Canada,CA-NS-SH,Nova Scotia,Shelburne,Cape Sable Island--Cape Sable,43.3957101,-65.6214607,Juvenile – 2,"",Unspecified,"","",,,,,,,S17795431,"",,,,,Corvus brachyrhynchos,amecro,Species,21333,,4.85,41,Nest,2583,3098
220452231,Photo,American Crow,Corvus brachyrhynchos,,Brian Henderson,2017-09-08,2017,9,8,1621,United States,US-CA-053,California,Monterey,Andrew Molera SP--Big Sur River mouth,36.2819875,-121.8595805,"",,Unspecified,"","",,,,,,,S39110467,"",,,,,Corvus brachyrhynchos,amecro,Species,21333,,4.73,77,,3340,5011
387481431,Photo,American Crow,Corvus brachyrhynchos,,Annie Lavoie,2021-11-10,2021,11,10,909,Canada,CA-QC-FS,Quebec,Le Fjord-du-Saguenay,"L'Anse - Anse St-Jean",48.2458540,-70.1949334,"",,Unspecified,"","",,,,,,,S97410337,"",,,,,Corvus brachyrhynchos,amecro,Species,21333,,4.81,53,,3332,5224
123445321,Photo,American Crow,Corvus brachyrhynchos,,Russ Morgan,2018-11-13,2018,11,13,1455,United States,US-OR-041,Oregon,Lincoln,Depoe Bay State Wayside/Depoe Bay Whale Watching Center,44.8123642,-124.0625927,"",,Unspecified,"","",,,,,,,S49923428,"",,,,,Corvus brachyrhynchos,amecro,Species,21333,,4.73,77,,2902,4355
315472571,Photo,American Crow,Corvus brachyrhynchos,,David Turgeon,2021-03-10,2021,3,10,1456,Canada,CA-QC-HC,Quebec,La Haute-Côte-Nord,Baie des Escoumins,48.3497186,-69.4018189,"",,Unspecified,"","",,,,,,,S83149000,"",,,,Arrivage printanier depuis 2 ou 3 jours.,Corvus brachyrhynchos,amecro,Species,21333,,4.83,46,,3029,4544
174367521,Photo,American Crow,Corvus brachyrhynchos,,Jonathan Eckerson,2019-08-19,2019,8,19,1152,United States,US-WA-009,Washington,Clallam,Neah Bay--town and bay only,48.3666101,-124.6215677,"",,Unspecified,"","",,,,,,,S59121028,"",,,,"Originally 80 American Crow and 25 Northwestern Crow; updated to 105 American Crow with eBird's 2021 taxonomic update.",Corvus brachyrhynchos,amecro,Species,21333,,4.93,30,,2919,4379
174367541,Photo,American Crow,Corvus brachyrhynchos,,Jonathan Eckerson,2019-08-19,2019,8,19,1152,United States,US-WA-009,Washington,Clallam,Neah Bay--town and bay only,48.3666101,-124.6215677,"",,Unspecified,"","",,,,,,,S59121028,"",,,,"Originally 80 American Crow and 25 Northwestern Crow; updated to 105 American Crow with eBird's 2021 taxonomic update.",Corvus brachyrhynchos,amecro,Species,21333,,4.82,40,,2891,4337
387804521,Photo,American Crow,Corvus brachyrhynchos,,Ronan Nicholson,2021-11-04,2021,11,4,1330,United States,US-NC-087,North Carolina,Haywood,Lake Junaluska,35.5278203,-82.9753536,Adult – 1,Vocalizing,Unspecified,"","",,,,,,,S97123197,"",,,,,Corvus brachyrhynchos,amecro,Species,21333,,4.74,54,"",3065,4597
188235001,Photo,American Crow,Corvus brachyrhynchos,,David Badke,2019-11-11,2019,11,11,1217,Canada,CA-BC-CP,British Columbia,Capital,Kitty Islet,48.4103315,-123.3069849,"",,Unspecified,"","",,,,,,,S61370622,"",,,,,Corvus brachyrhynchos,amecro,Species,21333,,4.92,26,,,
188179371,Photo,American Crow,Corvus brachyrhynchos,,Mason Maron,2018-12-22,2018,12,22,1002,United States,US-WA-009,Washington,Clallam,Neah Bay--town and bay only,48.3666101,-124.6215677,"",,Unspecified,"","",,,,,,,S50866652,"",,,,"Originally 12 American Crow and 6 Northwestern Crow; updated to 18 American Crow with eBird's 2021 taxonomic update.",Corvus brachyrhynchos,amecro,Species,21333,,4.65,77,,2567,4068
174367511,Photo,American Crow,Corvus brachyrhynchos,,Jonathan Eckerson,2019-08-19,2019,8,19,1152,United States,US-WA-009,Washington,Clallam,Neah Bay--town and bay only,48.3666101,-124.6215677,"",,Unspecified,"","",,,,,,,S59121028,"",,,,"Originally 80 American Crow and 25 Northwestern Crow; updated to 105 American Crow with eBird's 2021 taxonomic update.",Corvus brachyrhynchos,amecro,Species,21333,,4.89,27,,2932,4398
610042358,Photo,American Crow,Corvus brachyrhynchos,,Mason Maron,2023-10-14,2023,10,14,1226,United States,US-WA-033,Washington,King,Barbee Mill Spit,47.5277642,-122.2047760,Adult – 1,,Unspecified,"","",,,,,,,S152271065,"",,,,,Corvus brachyrhynchos,amecro,Species,21333,,4.87,30,,3055,4585
414056541,Photo,American Crow,Corvus brachyrhynchos,,Charles Fitzpatrick,2022-02-07,2022,2,7,1235,Canada,CA-NL-ON,Newfoundland and Labrador,"Avalon Peninsula-St. John's",NL--Blackhead,47.5225334,-52.6599813,"",,Unspecified,"","",,,,,,,S102218822,"",,,,,Corvus brachyrhynchos,amecro,Species,21333,,4.70,44,,1805,1497
174367531,Photo,American Crow,Corvus brachyrhynchos,,Jonathan Eckerson,2019-08-19,2019,8,19,1152,United States,US-WA-009,Washington,Clallam,Neah Bay--town and bay only,48.3666101,-124.6215677,"",,Unspecified,"","",,,,,,,S59121028,"",,,,"Originally 80 American Crow and 25 Northwestern Crow; updated to 105 American Crow with eBird's 2021 taxonomic update.",Corvus brachyrhynchos,amecro,Species,21333,,5.00,21,,3165,4747
73224711,Photo,American Crow,Corvus brachyrhynchos,,Mel Senac,2017-10-25,2017,10,25,1003,United States,US-CA-073,California,San Diego,Encinitas Viewpoint Park,33.0465465,-117.2905648,"","",Unspecified,"","",,,,,,,S40158256,"",,,,One leucistic,Corvus brachyrhynchos,amecro,Species,21333,,4.78,32,Aberrant individual,3576,4323
82831841,Photo,American Crow,Corvus brachyrhynchos,,Ryan Schain,2018-01-18,2018,1,18,900,United States,US-MA-001,Massachusetts,Barnstable,Monomoy NWR--Morris Island,41.6568485,-69.9582152,"",,Unspecified,"","",,,,,,,S42123124,"",,,,,Corvus brachyrhynchos,amecro,Species,21333,,4.88,25,,1674,2646
46495551,Photo,American Crow,Corvus brachyrhynchos,,Jeremiah Trimble,2013-02-10,2013,2,10,1153,United States,US-MA-009,Massachusetts,Essex,Niles Pond and Brace Cove,42.5903100,-70.6522179,"",,Unspecified,"","",,,,,,,S12920061,"",,,,,Corvus brachyrhynchos,amecro,Species,21333,,4.69,39,,1322,2048
622454941,Photo,American Crow,Corvus brachyrhynchos,,Aquiles Brinco,2024-08-06,2024,8,6,1646,United States,US-OR-039,Oregon,Lane,"Safeway Florence, OR",43.9729804,-124.1055718,Adult – 1,,Unspecified,"","",,,,,,,S191241030,"",,,,,Corvus brachyrhynchos,amecro,Species,21333,,4.85,26,,1067,1600
622607896,Photo,American Crow,Corvus brachyrhynchos,,Ryan Sanderson,2024-05-27,2024,5,27,636,United States,US-IN-097,Indiana,Marion,Eagle Creek Park,39.8751000,-86.3037000,Adult – 1,,Unspecified,"","",,,,,,,S177591178,"",,,,,Corvus brachyrhynchos,amecro,Species,21333,,4.95,20,,3051,3051
42315281,Photo,American Crow,Corvus brachyrhynchos,,Evan Lipton,2016-10-05,2016,10,5,641,United States,US-MA-021,Massachusetts,Norfolk,Squantum (please use more refined location),42.2935007,-71.0279846,"",,Unspecified,"","",,,,,,,S31902960,"",,,,,Corvus brachyrhynchos,amecro,Species,21333,,4.73,33,,2388,3582
119076171,Photo,American Crow,Corvus brachyrhynchos,,Paul Prappas,2018-10-15,2018,10,15,1430,Canada,CA-BC-CK,British Columbia,Central Kootenay,Nelson--waterfront,49.4989043,-117.2912407,"",,Unspecified,"","",,,,,,,S49221835,"",,,,,Corvus brachyrhynchos,amecro,Species,21333,,4.68,37,,1125,1500
448100221,Photo,American Crow,Corvus brachyrhynchos,,Alex Muench,2022-05-13,2022,5,13,1316,United States,US-IA-013,Iowa,Black Hawk,Washington Park,42.5321802,-92.4335146,Adult – 1,,Unspecified,"","",,,,,,,S109906563,"",,,,,Corvus brachyrhynchos,amecro,Species,21333,,4.74,34,,3316,4966
212139911,Photo,American Crow,Corvus brachyrhynchos,,Sheri L,2020-02-27,2020,2,27,1510,Canada,CA-BC-CX,British Columbia,Comox-Strathcona,Comox--Goose Spit Park,49.6620567,-124.9115611,"",,Unspecified,"","",,,,,,,S65226103,"",,,,,Corvus brachyrhynchos,amecro,Species,21333,,4.83,24,,2228,3328
518962201,Photo,American Crow,Corvus brachyrhynchos,,Cesar Ponce,2022-11-09,2022,11,9,1304,Canada,CA-ON-TO,Ontario,Toronto,Toronto--James Gardens,43.6710379,-79.5150518,"",,Unspecified,"","",,,,,,,S122156303,"",,,,,Corvus brachyrhynchos,amecro,Species,21333,,4.90,21,,2581,3872
168313411,Photo,American Crow,Corvus brachyrhynchos,,Theo Staengl,2019-07-04,2019,7,4,1212,United States,US-VA-650,Virginia,Hampton,Buckroe Beach,37.0375483,-76.2914861,"",,Unspecified,"","",,,,,,,S57956098,"",,,,,Corvus brachyrhynchos,amecro,Species,21333,,4.59,51,,3005,4370
323348211,Photo,American Crow,Corvus brachyrhynchos,,Derek Lecy,2021-04-05,2021,4,5,858,United States,US-CA-041,California,Marin,Five Brooks Pond,37.9985976,-122.7604043,Adult – 1,,Unspecified,"","",,,,,,,S84864185,"",,,,,Corvus brachyrhynchos,amecro,Species,21333,,5.00,18,,2524,3787
516838891,Photo,American Crow,Corvus brachyrhynchos,,Matthew Dolkart,2022-12-26,2022,12,26,647,United States,US-IL-031,Illinois,Cook,"Montrose Point Bird Sanctuary, Lincoln Park, Chicago",41.9633833,-87.6344204,"",,Unspecified,"","",,,,,,,S124663003,"",,,,Jon Snow,Corvus brachyrhynchos,amecro,Species,21333,,4.94,18,,2559,3839
613833649,Photo,American Crow,Corvus brachyrhynchos,,Gord Gadsden,2024-01-19,2024,1,19,0,Canada,CA-BC-FV,British Columbia,Fraser Valley,Sardis Park,49.1278561,-121.9533062,"",,Unspecified,"","",,,,,,,S159504640,"",,,,,Corvus brachyrhynchos,amecro,Species,21333,,4.89,19,,796,1200
250925331,Photo,American Crow,Corvus brachyrhynchos,,Matt Mason,2020-07-22,2020,7,22,810,United States,US-OH-041,Ohio,Delaware,Alum Creek SP--Beach and Alum Reservoir South,40.1907888,-82.9665642,"",,Unspecified,"","",,,,,,,S71726102,"",,,,,Corvus brachyrhynchos,amecro,Species,21333,,5.00,16,,2227,2740
39883961,Photo,American Crow,Corvus brachyrhynchos,,Kevin McGowan,2016-11-12,2016,11,12,1239,United States,US-NY-109,New York,Tompkins,Foothill Yellow Barn,42.4787994,-76.3429856,Adult,,Unspecified,"","",,,,,,,S32539952,"",,,,,Corvus brachyrhynchos,amecro,Species,21333,,4.78,23,,3456,5184
291139531,Photo,American Crow,Corvus brachyrhynchos,,Jamie G,2020-12-25,2020,12,25,1200,Canada,CA-BC-FV,British Columbia,Fraser Valley,Sardis Park,49.1278561,-121.9533062,"","",Unspecified,"","",,,,,,,S78009822,"",,,,,Corvus brachyrhynchos,amecro,Species,21333,,4.55,40,Aberrant individual,2060,2720
136660931,Photo,American Crow,Corvus brachyrhynchos,,Ian Davies,2013-05-21,2013,5,21,853,United States,US-AK-122,Alaska,Kenai Peninsula Borough,Anchor Point,59.7790573,-151.8633485,"",,Unspecified,"","",,,,,,,S14199555,"",,,,,Corvus brachyrhynchos,amecro,Species,21333,,4.89,18,,2566,4323
438777721,Photo,American Crow,Corvus brachyrhynchos,,Blair Dudeck,2022-04-19,2022,4,19,1625,Canada,CA-BC-FV,British Columbia,Fraser Valley,Sardis Park,49.1278561,-121.9533062,"",,Unspecified,"","",,,,,,,S107751141,"",,,,,Corvus brachyrhynchos,amecro,Species,21333,,4.85,20,,3142,5027
290576251,Photo,American Crow,Corvus brachyrhynchos,,Jason Chen,2020-12-18,2020,12,18,755,United States,US-FL-001,Florida,Alachua,Sweetwater Wetlands Park,29.6193055,-82.3285764,"",,Unspecified,"","",,,,,,,S77635691,"",,,,,Corvus brachyrhynchos,amecro,Species,21333,,4.84,19,,3493,5239
612648026,Photo,American Crow,Corvus brachyrhynchos,,Eva Bottelli,2023-12-23,2023,12,23,1400,Bermuda,BM-,Bermuda,,Devonshire,32.2946967,-64.7565094,"",,Unspecified,"","",,,,,,,S157119760,"",,,,,Corvus brachyrhynchos,amecro,Species,21333,,4.94,16,,2355,3839
357264471,Photo,American Crow,Corvus brachyrhynchos,,Lucas Eckert,2021-07-12,2021,7,12,1050,Canada,CA-BC-GV,British Columbia,Metro Vancouver,Stanley Park,49.3029688,-123.1432629,"",,Unspecified,"","",,,,,,,S91665998,"",,,,,Corvus brachyrhynchos,amecro,Species,21333,,4.67,27,,3758,5637
596348901,Photo,American Crow,Corvus brachyrhynchos,,Andrew Simon,2023-06-03,2023,6,3,815,United States,US-MN-075,Minnesota,Lake,Two Harbors--Lighthouse Point,47.0136620,-91.6639915,"",,Unspecified,"","",,,,,,,S140317101,"",,,,,Corvus brachyrhynchos,amecro,Species,21333,,4.79,19,,1713,2559
615207592,Photo,American Crow,Corvus brachyrhynchos,,Lesley Tullis,2024-02-22,2024,2,22,1607,United States,US-OR-041,Oregon,Lincoln,Lint Slough,44.4286047,-124.0573956,"",,Unspecified,"","",,,,,,,S162593206,"",,,,,Corvus brachyrhynchos,amecro,Species,21333,,5.00,14,,4002,6000
157806751,Photo,American Crow,Corvus brachyrhynchos,,Stefano Ianiro,2019-05-11,2019,5,11,1530,Canada,CA-NS-HL,Nova Scotia,Halifax,Sir Sandford Fleming Park--General,44.6281174,-63.5987277,"",,Unspecified,"","",,,,,,,S56138686,"",,,,,Corvus brachyrhynchos,amecro,Species,21333,,4.93,15,,3513,5105
416535321,Photo,American Crow,Corvus brachyrhynchos,,Anonymous,2022-02-15,2022,2,15,621,United States,US-CA-059,California,Orange,Newport Pier,33.6059343,-117.9312801,"",,Unspecified,"","",,,,,,,S102688034,"",,,,,Corvus brachyrhynchos,amecro,Species,21333,,4.41,66,,2164,3305
250925291,Photo,American Crow,Corvus brachyrhynchos,,Matt Mason,2020-07-22,2020,7,22,810,United States,US-OH-041,Ohio,Delaware,Alum Creek SP--Beach and Alum Reservoir South,40.1907888,-82.9665642,"",,Unspecified,"","",,,,,,,S71726102,"",,,,,Corvus brachyrhynchos,amecro,Species,21333,,5.00,13,,1612,2135
611262256,Photo,American Crow,Corvus brachyrhynchos,,Ryan Sanderson,2023-10-19,2023,10,19,1627,United States,US-CA-053,California,Monterey,"Pt. Pinos--general (sea & shore Coral to Jewell, Crespi Pond & cypresses)",36.6363201,-121.9339388,"",,Unspecified,"","",,,,,,,S152642981,"",,,,,Corvus brachyrhynchos,amecro,Species,21333,,4.79,19,,4559,6835
158845271,Photo,American Crow,Corvus brachyrhynchos,,Gord Gadsden,2019-05-14,2019,5,14,1800,Canada,CA-BC-FV,British Columbia,Fraser Valley,Sardis Park,49.1278561,-121.9533062,"",,Unspecified,"","",,,,,,,S56338038,"",,,,,Corvus brachyrhynchos,amecro,Species,21333,,4.87,15,,580,800
281920611,Photo,American Crow,Corvus brachyrhynchos,,Mason Maron,2020-11-20,2020,11,20,1211,United States,US-WA-075,Washington,Whitman,"Sunnyside Park, Pullman",46.7285658,-117.1923637,"",,Unspecified,"","",,,,,,,S76459135,"",,,,,Corvus brachyrhynchos,amecro,Species,21333,,4.57,28,,3261,4829
187878051,Photo,American Crow,Corvus brachyrhynchos,,Jim Merritt,2019-11-14,2019,11,14,739,United States,US-CO-041,Colorado,El Paso,Red Rock Canyon Open Space,38.8473432,-104.8811263,"",,Unspecified,"","",,,,,,,S61455139,"",,,,,Corvus brachyrhynchos,amecro,Species,21333,,5.00,12,,9032,10000
39883941,Photo,American Crow,Corvus brachyrhynchos,,Kevin McGowan,2016-11-12,2016,11,12,1239,United States,US-NY-109,New York,Tompkins,Foothill Yellow Barn,42.4787994,-76.3429856,Adult,,Unspecified,"","",,,,,,,S32539952,"",,,,,Corvus brachyrhynchos,amecro,Species,21333,,5.00,12,,3456,5184
610708629,Photo,American Crow,Corvus brachyrhynchos,,Eva Bottelli,2023-11-03,2023,11,3,1100,Bermuda,BM-,Bermuda,,Devonshire,32.2973975,-64.7528267,"",,Unspecified,"","",,,,,,,S153644318,"",,,,,Corvus brachyrhynchos,amecro,Species,21333,,4.70,20,,3011,4830
613133413,Photo,American Crow,Corvus brachyrhynchos,,Lory Cantin,2023-12-02,2023,12,2,1100,Canada,CA-QC-MR,Quebec,Montréal,Cimetières Mt-Royal & Notre-Dame-des-Neiges,45.5049279,-73.6039953,"",,Unspecified,"","",,,,,,,S158172288,"",,,,,Corvus brachyrhynchos,amecro,Species,21333,,4.92,13,,1963,2945
558884821,Photo,American Crow,Corvus brachyrhynchos,,Rain Saulnier,2023-04-07,2023,4,7,1434,Canada,CA-BC-AC,British Columbia,Alberni-Clayoquot,Ucluelet--Amphitrite Point,48.9210329,-125.5412757,"",,Unspecified,"","",,,,,,,S133001642,"",,,,,Corvus brachyrhynchos,amecro,Species,21333,,4.92,13,,1365,2048
412580631,Photo,American Crow,Corvus brachyrhynchos,,Vincent Giroux,2022-02-03,2022,2,3,1235,Canada,CA-QC-RM,Quebec,Rimouski-Neigette,Etang Parent,48.4336989,-68.5467648,"",,Unspecified,"","",,,,,,,S101958777,"",,,,,Corvus brachyrhynchos,amecro,Species,21333,,4.86,14,,2984,4088
615273818,Photo,American Crow,Corvus brachyrhynchos,,Barbara Wise,2024-02-24,2024,2,24,1057,United States,US-CA-073,California,San Diego,Private Residence,32.7508624,-117.0571512,"",,Unspecified,"","",,,,,,,S162812494,"",,,,,Corvus brachyrhynchos,amecro,Species,21333,,4.75,16,,2427,4176
245229981,Photo,American Crow,Corvus brachyrhynchos,,Mason Maron,2020-06-21,2020,6,21,652,United States,US-OR-007,Oregon,Clatsop,Cannon Beach,45.8881860,-123.9646626,"",,Unspecified,"","",,,,,,,S70674311,"",,,,,Corvus brachyrhynchos,amecro,Species,21333,,4.39,51,,3431,5416
614590875,Photo,American Crow,Corvus brachyrhynchos,,Ryan Merrill,2024-02-08,2024,2,8,1042,United States,US-WA-033,Washington,King,Carkeek Park,47.7126411,-122.3776470,"",,Unspecified,"","",,,,,,,S160958059,"",,,,,Corvus brachyrhynchos,amecro,Species,21333,,4.92,12,,3976,7068
526848081,Photo,American Crow,Corvus brachyrhynchos,,Annie Lavoie,2023-01-20,2023,1,20,657,Canada,CA-QC-SAG,Quebec,Saguenay,La Baie - La Maison,48.3236309,-70.8698886,"",,Unspecified,"","",,,,,,,S126540435,"",,,,,Corvus brachyrhynchos,amecro,Species,21333,,4.79,14,,3039,4605
65660391,Photo,American Crow,Corvus brachyrhynchos,,Gates Dupont,2017-08-07,2017,8,7,1550,United States,US-WA-031,Washington,Jefferson,Hoh Rain Forest--Spruce Nature Trail,47.8604967,-123.9292574,"",,Unspecified,"","",,,,,,,S38533859,"",,,,,Corvus brachyrhynchos,amecro,Species,21333,,4.48,23,,3078,5472
526847911,Photo,American Crow,Corvus brachyrhynchos,,Annie Lavoie,2023-01-20,2023,1,20,657,Canada,CA-QC-SAG,Quebec,Saguenay,La Baie - La Maison,48.3236309,-70.8698886,"",,Unspecified,"","",,,,,,,S126540435,"",,,,,Corvus brachyrhynchos,amecro,Species,21333,,4.79,14,,3086,4334
289418751,Photo,American Crow,Corvus brachyrhynchos,,Rodney Gast,2020-12-19,2020,12,19,1027,United States,US-CA-073,California,San Diego,Azalea Community Park,32.7325140,-117.1078190,"",,Unspecified,"","",,,,,,,S77709469,"",,,,,Corvus brachyrhynchos,amecro,Species,21333,,4.48,23,,2469,4670
119032951,Photo,American Crow,Corvus brachyrhynchos,,Ryan Sanderson,2018-10-14,2018,10,14,1751,United States,US-NC-173,North Carolina,Swain,Great Smoky Mountains NP--Charlies Bunion Trail,35.6108400,-83.4250900,Unknown,,Unspecified,"","",,,,,,,S49197371,"",,,,,Corvus brachyrhynchos,amecro,Species,21333,,4.79,14,,3360,5040
509413371,Photo,American Crow,Corvus brachyrhynchos,,Matt M.,2022-11-12,2022,11,12,1040,Canada,CA-ON-OT,Ontario,Ottawa,"Ottawa--Shirley's Bay",45.3646900,-75.8830500,"",,Unspecified,"","",,,,,,,S122439961,"",,,,,Corvus brachyrhynchos,amecro,Species,21333,,4.77,13,,1914,3645
548557801,Photo,American Crow,Corvus brachyrhynchos,,Natalie Cavalieri,2023-03-22,2023,3,22,1251,United States,US-VA-087,Virginia,Henrico,"My work feeder , Henrico US-VA (37.6138,-77.5959)",37.6138450,-77.5959260,"",,Unspecified,"","",,,,,,,S131577967,"",,,,,Corvus brachyrhynchos,amecro,Species,21333,,4.83,12,,3483,2721
537580951,Photo,American Crow,Corvus brachyrhynchos,,Cameron Johnson,2023-02-20,2023,2,20,1016,United States,US-NH-017,New Hampshire,Strafford,"22 Weeks Lane, Dover, New Hampshire, US (43.222, -70.887)",43.2218139,-70.8865415,"",,Unspecified,"","",,,,,,,S129119984,"",,,,,Corvus brachyrhynchos,amecro,Species,21333,,4.83,12,,1365,2048
186211231,Photo,American Crow,Corvus brachyrhynchos,,Robert Bochenek,2019-11-04,2019,11,4,1330,United States,US-MI-125,Michigan,Oakland,Robert H. Long Park,42.5271345,-83.4507015,"",,Unspecified,"","",,,,,,,S61179633,"",,,,,Corvus brachyrhynchos,amecro,Species,21333,,4.50,26,,2752,3806
39883831,Photo,American Crow,Corvus brachyrhynchos,,Kevin McGowan,2016-11-12,2016,11,12,1239,United States,US-NY-109,New York,Tompkins,Foothill Yellow Barn,42.4787994,-76.3429856,Immature,,Unspecified,"","",,,,,,,S32539952,"",,,Hatch-year,,Corvus brachyrhynchos,amecro,Species,21333,,4.91,11,,3456,5184
583410501,Photo,American Crow,Corvus brachyrhynchos,,Justin Flint,2023-06-10,2023,6,10,1554,Canada,CA-BC-FV,British Columbia,Fraser Valley,Sardis Park,49.1278561,-121.9533062,Adult – 1,"",Unspecified,"","",,,,,,,S141167089,"",,,,,Corvus brachyrhynchos,amecro,Species,21333,,4.71,14,Aberrant individual,1522,2030
387804421,Photo,American Crow,Corvus brachyrhynchos,,Ronan Nicholson,2021-11-04,2021,11,4,1330,United States,US-NC-087,North Carolina,Haywood,Lake Junaluska,35.5278203,-82.9753536,Adult – 1,,Unspecified,"","",,,,,,,S97123197,"",,,,,Corvus brachyrhynchos,amecro,Species,21333,,4.77,13,,2944,4416
293762211,Photo,American Crow,Corvus brachyrhynchos,,Bryan Calk,2020-11-29,2020,11,29,0,United States,US-NM-001,New Mexico,Bernalillo,Fairview Cemetery,35.0719510,-106.6189420,"",Foraging or Eating,Unspecified,"","",,,,,,,S78534636,"",,,,,Corvus brachyrhynchos,amecro,Species,21333,,4.83,12,"",2349,4176
425668561,Photo,American Crow,Corvus brachyrhynchos,,Sophie Cameron,2022-03-15,2022,3,15,1335,United States,US-CA-083,California,Santa Barbara,Andree Clark Bird Refuge,34.4215353,-119.6572856,"",,Unspecified,"","",,,,,,,S104913476,"",,,,,Corvus brachyrhynchos,amecro,Species,21333,,4.59,17,,3752,4690
65660371,Photo,American Crow,Corvus brachyrhynchos,,Gates Dupont,2017-08-07,2017,8,7,1550,United States,US-WA-031,Washington,Jefferson,Hoh Rain Forest--Spruce Nature Trail,47.8604967,-123.9292574,"",,Unspecified,"","",,,,,,,S38533859,"",,,,,Corvus brachyrhynchos,amecro,Species,21333,,4.43,21,,3078,5472
77991431,Photo,American Crow,Corvus brachyrhynchos,,Cheri & Rich Phillips,2017-12-12,2017,12,12,1033,United States,US-CO-005,Colorado,Arapahoe,Cherry Creek SP,39.6402646,-104.8538589,"",,Unspecified,"","",,,,,,,S41052114,"",,,,,Corvus brachyrhynchos,amecro,Species,21333,,4.12,68,,3888,5184
300824781,Photo,American Crow,Corvus brachyrhynchos,,🦅 ꙅɒᴎoɔiʜƆ ʏɔɒɿT 🦃,2021-01-22,2021,1,22,1315,United States,US-WI-079,Wisconsin,Milwaukee,McKinley Marina and Park,43.0495307,-87.8859314,"",,Unspecified,"","",,,,,,,S79814820,"",,,🇺🇸,,Corvus brachyrhynchos,amecro,Species,21333,,4.53,17,,1236,2051
347739761,Photo,American Crow,Corvus brachyrhynchos,,Jamie G,2021-06-13,2021,6,13,1015,Canada,CA-BC-FV,British Columbia,Fraser Valley,Sardis Park,49.1278561,-121.9533062,"",,Unspecified,"","",,,,,,,S90143081,"",,,,,Corvus brachyrhynchos,amecro,Species,21333,,4.32,31,,2515,2930
267313381,Photo,American Crow,Corvus brachyrhynchos,,Brad Imhoff,2020-10-01,2020,10,1,728,United States,US-OH-089,Ohio,Licking,Granville Schools Land Lab,40.0889220,-82.5452640,"",Foraging or Eating,Unspecified,"","",,,,,,,S74276668,"",,,,,Corvus brachyrhynchos,amecro,Species,21333,,4.82,11,"",1463,2194
39883811,Photo,American Crow,Corvus brachyrhynchos,,Kevin McGowan,2016-11-12,2016,11,12,1239,United States,US-NY-109,New York,Tompkins,Foothill Yellow Barn,42.4787994,-76.3429856,Immature,,Unspecified,"","",,,,,,,S32539952,"",,,Hatch-year,,Corvus brachyrhynchos,amecro,Species,21333,,4.82,11,,3456,5184
126085201,Photo,American Crow,Corvus brachyrhynchos,,David de Rivera Tønnessen,2017-11-11,2017,11,11,840,United States,US-CO-041,Colorado,El Paso,Memorial Park & Prospect Lake,38.8260514,-104.7973663,Adult,,Unspecified,"","",,,,,,,S40448133,"",,,,,Corvus brachyrhynchos,amecro,Species,21333,,4.26,46,,2973,4461
570652001,Photo,American Crow,Corvus brachyrhynchos,,Evan Pak,2023-05-11,2023,5,11,1904,United States,US-MN-131,Minnesota,Rice,Carleton College Cowling Arboretum--Lower Arb (Rice Co.),44.4673235,-93.1510109,Adult – 1,,Unspecified,"","",,,,,,,S137157744,"",,,,,Corvus brachyrhynchos,amecro,Species,21333,,4.60,15,,5464,8192
229537201,Photo,American Crow,Corvus brachyrhynchos,,Mason Maron,2020-04-17,2020,4,17,1633,United States,US-WA-033,Washington,King,Lewis Creek Park,47.5506266,-122.1250936,"","",Unspecified,"","",,,,,,,S67381195,"",,,Bill deformity,,Corvus brachyrhynchos,amecro,Species,21333,,4.60,15,Aberrant individual,2962,4443
425090481,Photo,American Crow,Corvus brachyrhynchos,,Ted Floyd,2022-03-12,2022,3,12,1536,United States,US-CO-117,Colorado,Summit,Copper Mountain--Alpine Lot area,39.5019546,-106.1411047,"",,Unspecified,"","",,,,,,,S104753908,"",,,"Media object 03. Close-up, showing the ""warm claret brown"" (per Ridgway) iris of the crow. Comment: If I'm not mistaken, an image like this technically isn't supposed to get 5 stars. But I think it should. Details for ID like eye color, ""nose hairs,"" and throat-feather shape/length are, in some instances, better shown in partial-bird images, as here, than in whole bird images.","Despite spending a full 90 minutes in the lot, birding the whole time, I could find only this one (n=1) species. See notes under main checklist comments for coverage and effort. The crows were continually in view (and within earshot) whilst I was ambling about, so it's not like the place was birdless. But I nevertheless succeeded (""succeeded"") in generating an eBird checklist with the lowest Shannon Diversity Index, Σ, possible: Σ=0. See comments below associated with each media object.",Corvus brachyrhynchos,amecro,Species,21333,,4.90,10,,3888,5184
196541631,Photo,American Crow,Corvus brachyrhynchos,,Garrett Hughes,2020-01-01,2020,1,1,1324,United States,US-WA-061,Washington,Snohomish,Lake Ballinger,47.7845834,-122.3263574,"",,Unspecified,"","",,,,,,,S62882530,"",,,,,Corvus brachyrhynchos,amecro,Species,21333,,4.40,20,,1333,2048
506903991,Photo,American Crow,Corvus brachyrhynchos,,Matthew Plante,2022-11-24,2022,11,24,1433,United States,US-OH-159,Ohio,Union,"Weldon Road, Plain City, Ohio, US",40.1168727,-83.1784476,"",,Unspecified,"","",,,,,,,S122946959,"",,,,,Corvus brachyrhynchos,amecro,Species,21333,,5.00,9,,3295,4943
483436451,Photo,American Crow,Corvus brachyrhynchos,,Steve Juhasz,2022-08-28,2022,8,28,1245,Canada,CA-BC-GV,British Columbia,Metro Vancouver,Blackie Spit (Incl. Dunsmuir Farm & Nicomekl estuary),49.0590000,-122.8790000,"",,Unspecified,"","",,,,,,,S117736749,"",,,,,Corvus brachyrhynchos,amecro,Species,21333,,5.00,9,,3331,4758
469610901,Photo,American Crow,Corvus brachyrhynchos,,Andrew Thomas 🦅🪶,2022-07-18,2022,7,18,0,United States,US-OR-007,Oregon,Clatsop,Cannon Beach,45.8881860,-123.9646626,"",,Unspecified,"","",,,,,,,S115643344,"",,,,,Corvus brachyrhynchos,amecro,Species,21333,,5.00,9,,2778,4075
421209111,Photo,American Crow,Corvus brachyrhynchos,,Nathan Wall,2022-03-01,2022,3,1,828,United States,US-WA-033,Washington,King,Discovery Park,47.6638680,-122.4215317,"",,Unspecified,"","",,,,,,,S103984245,"",,,,Photo:,Corvus brachyrhynchos,amecro,Species,21333,,5.00,9,,3731,5596
298926871,Photo,American Crow,Corvus brachyrhynchos,,Cat Zoroark,2018-12-05,2018,12,5,1032,United States,US-FL-087,Florida,Monroe,Everglades NP--Flamingo,25.1416000,-80.9255000,Adult – 1,,Unspecified,"","",,,,,,,S78107813,"",,,,,Corvus brachyrhynchos,amecro,Species,21333,,5.00,9,,3499,5248
205968551,Photo,American Crow,Corvus brachyrhynchos,,Lars Petersson | My World of Bird Photography,2014-01-12,2014,1,12,0,United States,US-FL,Florida,,Everglades NP (Please consider using more specific locations),25.2867611,-80.8986318,"",,Unspecified,"","",,IBC1320781,,,,,S65189945,"",,,"Close-up on American Crow. Go to www.larsfoto.se for more than 4200 species of Birds on photo from Florida and all over the World!. Elevation: 0 m. Date added to IBC: January 3, 2017.",,Corvus brachyrhynchos,amecro,Species,21333,,5.00,9,,766,1000
610272294,Photo,American Crow,Corvus brachyrhynchos,,Nick Swan,2023-10-21,2023,10,21,1000,Canada,CA-BC-CO,British Columbia,Central Okanagan,Kelowna--mouth of Mission Creek,49.8427849,-119.4930000,"",,Unspecified,"","",,,,,,,S152758471,"",,,,,Corvus brachyrhynchos,amecro,Species,21333,,4.82,11,,2836,3871
188203701,Photo,American Crow,Corvus brachyrhynchos,,Luis Gonzalez,2019-11-16,2019,11,16,1123,United States,US-FL-021,Florida,Collier,Big Cypress National Preserve--Kirby Storter Roadside Park & Boardwalk ,25.8675841,-81.1501694,Adult – 1,Foraging or Eating,Unspecified,"","",,,,,,,S61499846,"",,,,,Corvus brachyrhynchos,amecro,Species,21333,,4.38,21,"",3456,4608
44144161,Photo,American Crow,Corvus brachyrhynchos,,Robert Hamilton,2016-12-31,2016,12,31,1055,United States,US-CA-083,California,Santa Barbara,"Hope Ranch, southern central part",34.4189295,-119.7592431,"",,Unspecified,"","",,,,,,,S33339347,"",,,,One strikingly beautiful freak with mottled gray plumage on much of its body and flight feathers.,Corvus brachyrhynchos,amecro,Species,21333,,4.36,22,,800,1200
280848061,Photo,American Crow,Corvus brachyrhynchos,,Anonymous,2020-11-17,2020,11,17,647,United States,US-CA-053,California,Monterey,Pt. Pinos--seawatch only,36.6373821,-121.9357538,"",,Unspecified,"","",,,,,,,S76373893,"",,,,,Corvus brachyrhynchos,amecro,Species,21333,,4.69,13,,2179,3000
65660361,Photo,American Crow,Corvus brachyrhynchos,,Gates Dupont,2017-08-07,2017,8,7,1550,United States,US-WA-031,Washington,Jefferson,Hoh Rain Forest--Spruce Nature Trail,47.8604967,-123.9292574,"",,Unspecified,"","",,,,,,,S38533859,"",,,,,Corvus brachyrhynchos,amecro,Species,21333,,4.39,18,,3078,5472
514308601,Photo,American Crow,Corvus brachyrhynchos,,"Dan O'Brien",2022-12-18,2022,12,18,842,United States,US-MA-021,Massachusetts,Norfolk,Weymouth Back River Estuary,42.2240048,-70.9224987,Adult – 1,,Unspecified,"","",,,,,,,S124175732,"",,,,,Corvus brachyrhynchos,amecro,Species,21333,,4.89,9,,2176,3263
514120281,Photo,American Crow,Corvus brachyrhynchos,,Michael Stubblefield,2022-10-27,2022,10,27,712,United States,US-NJ-009,New Jersey,Cape May,Cape Island--Cape May Point SP (CMPSP),38.9338272,-74.9550854,Adult – 1,Flying,Unspecified,"","",,,,,,,S121386618,"",,,"American Crow (Corvus brachyrhynchos brachyrhynchos), adult in flight at Cape May Point State Park, Cape May, New Jersey.",,Corvus brachyrhynchos,amecro,Species,21333,,4.89,9,"",2352,3527
164905921,Photo,American Crow,Corvus brachyrhynchos,,Ezekiel Dobson,2018-06-09,2018,6,9,600,United States,US-NV-031,Nevada,Washoe,"Grandma's House",39.5166602,-119.8539172,Adult,,Unspecified,"","",,,,,,,S57514952,"",,,,,Corvus brachyrhynchos,amecro,Species,21333,,4.89,9,,3456,4608
282492591,Photo,American Crow,Corvus brachyrhynchos,,Cameron Carver,2020-11-24,2020,11,24,700,United States,US-CO-019,Colorado,Clear Creek,"The Goshawk (private, but open to public)",39.8195073,-105.6467570,"",,Unspecified,"","",,,,,,,S76635064,"",,,,,Corvus brachyrhynchos,amecro,Species,21333,,4.44,16,,3011,2409
562018691,Photo,American Crow,Corvus brachyrhynchos,,Andrew Thomas 🦅🪶,2023-04-05,2023,4,5,1642,United States,US-WA-027,Washington,Grays Harbor,"Ocean Shores -- Bill's Spit",46.9648907,-124.1339435,"",,Unspecified,"","",,,,,,,S133567239,"",,,,,Corvus brachyrhynchos,amecro,Species,21333,,4.80,10,,3107,4660
628646526,Photo,American Crow,Corvus brachyrhynchos,,Mike Cameron,2025-01-04,2025,1,4,1401,United States,US-TX-085,Texas,Collin,Russell Creek Park,33.0950650,-96.7513132,Adult – 1,,Unspecified,"","",,,,,,,S208019528,"",,,,,Corvus brachyrhynchos,amecro,Species,21333,,5.00,8,,2048,3072
625416297,Photo,American Crow,Corvus brachyrhynchos,,Demond McDonald,2024-10-25,2024,10,25,1332,United States,US-IL-031,Illinois,Cook,"Montrose Point Bird Sanctuary, Lincoln Park, Chicago",41.9633833,-87.6344204,"",,Unspecified,"","",,,,,,,S200251563,"",,,,,Corvus brachyrhynchos,amecro,Species,21333,,5.00,8,,3036,4558
624965521,Photo,American Crow,Corvus brachyrhynchos,,Neo Morpheus,2024-10-14,2024,10,14,725,United States,US-FL-086,Florida,Miami-Dade,L31W Canal,25.3978115,-80.5725288,"",,Unspecified,"","",,,,,,,S198924907,"",,,,,Corvus brachyrhynchos,amecro,Species,21333,,5.00,8,,2537,4511
622861308,Photo,American Crow,Corvus brachyrhynchos,,Kalin Ocaña,2024-07-30,2024,7,30,1650,Canada,CA-BC-AC,British Columbia,Alberni-Clayoquot,Tofino--MacKenzie Beach,49.1312399,-125.9034491,Unknown – 1,,Unspecified,"","",,,,,,,S189635152,"",,,,,Corvus brachyrhynchos,amecro,Species,21333,,5.00,8,,3004,4164
547884211,Photo,American Crow,Corvus brachyrhynchos,,Grigory Heaton,2023-03-20,2023,3,20,1037,United States,US-CA-037,California,Los Angeles,Playa del Rey/Ballona area,33.9634551,-118.4519934,Adult – 1,,Unspecified,"","",,,,,,,S131392039,"",,,,,Corvus brachyrhynchos,amecro,Species,21333,,5.00,8,,3221,4831
322319851,Photo,American Crow,Corvus brachyrhynchos,,Sunny Zhang,2021-04-02,2021,4,2,1400,Canada,CA-BC-GV,British Columbia,Metro Vancouver,Vancouver--Jericho Park,49.2715915,-123.1943769,"",,Unspecified,"","",,,,,,,S84643313,"",,,,,Corvus brachyrhynchos,amecro,Species,21333,,5.00,8,,3547,5162
440233231,Photo,American Crow,Corvus brachyrhynchos,,Andrew Newmark,2022-04-25,2022,4,25,1514,United States,US-CA-073,California,San Diego,Yard - Chula Vista West,32.6268948,-117.0833076,"",,Unspecified,"","",,,,,,,S108081156,"",,,,,Corvus brachyrhynchos,amecro,Species,21333,,4.73,11,,3718,5577
299939011,Photo,American Crow,Corvus brachyrhynchos,,David McCorquodale,2021-01-21,2021,1,21,1357,Canada,CA-NS-CB,Nova Scotia,Cape Breton,"Bras d'Or--MacNeil's Cove",46.2527211,-60.2994061,"",,Unspecified,"","",,,,,,,S79647128,"",,,,,Corvus brachyrhynchos,amecro,Species,21333,,4.44,16,,2567,3850
93410541,Photo,American Crow,Corvus brachyrhynchos,,Reinhard Vehring,2015-07-01,2015,7,1,1200,Canada,CA-AB-EL,Alberta,Edmonton,"Edmonton--Whitemud Creek, S of Snowvalley",53.4757873,-113.5533142,"",,Unspecified,"","",,,,,,,S24119298,"",,,,,Corvus brachyrhynchos,amecro,Species,21333,,4.04,52,,2089,3134
79844501,Photo,American Crow,Corvus brachyrhynchos,,Ryan Schain,2017-12-30,2017,12,30,811,United States,US-MA-025,Massachusetts,Suffolk,Carson Beach and Moakley Park,42.3264432,-71.0478115,"",,Unspecified,"","",,,,,,,S41455813,"",,,,,Corvus brachyrhynchos,amecro,Species,21333,,4.64,11,,2692,4560
72167041,Photo,American Crow,Corvus brachyrhynchos,,Joe Girgente,2017-10-12,2017,10,12,1522,United States,US-ME-009,Maine,Hancock,Acadia NP--Precipice Trail,44.3547872,-68.1897354,"",,Unspecified,"","",,,,,,,S39972539,"",,,,,Corvus brachyrhynchos,amecro,Species,21333,,4.20,25,,2526,3072
425668541,Photo,American Crow,Corvus brachyrhynchos,,Sophie Cameron,2022-03-15,2022,3,15,1335,United States,US-CA-083,California,Santa Barbara,Andree Clark Bird Refuge,34.4215353,-119.6572856,"",,Unspecified,"","",,,,,,,S104913476,"",,,,,Corvus brachyrhynchos,amecro,Species,21333,,4.41,17,,2935,2348
390018781,Photo,American Crow,Corvus brachyrhynchos,,Jing-Yi Lu,2021-11-21,2021,11,21,1347,United States,US-IL-031,Illinois,Cook,"Jackson Park, Chicago",41.7812010,-87.5813341,"",,Unspecified,"","",,,,,,,S97905843,"",,,,,Corvus brachyrhynchos,amecro,Species,21333,,4.64,11,,2907,4354
299586721,Photo,American Crow,Corvus brachyrhynchos,,Nora Papian,2021-01-18,2021,1,18,757,United States,US-CA-067,California,Sacramento,American River Parkway--Sailor Bar,38.6337613,-121.2358270,"",,Unspecified,"","",,,,,,,S79509590,"",,,,,Corvus brachyrhynchos,amecro,Species,21333,,4.40,15,,2169,2907
402134251,Photo,American Crow,Corvus brachyrhynchos,,Marc Sole,2022-01-03,2022,1,3,1308,Canada,CA-BC-FV,British Columbia,Fraser Valley,Sardis Park,49.1278561,-121.9533062,"",Foraging or Eating,Unspecified,"","",,,,,,,S100051603,"",,,,,Corvus brachyrhynchos,amecro,Species,21333,,4.54,13,"",2051,3076
234092091,Photo,American Crow,Corvus brachyrhynchos,,Steve Wickliffe,2020-05-12,2020,5,12,816,United States,US-MT-023,Montana,Deer Lodge,Warm Springs WMA--Warm Springs Crossing Slough,46.1872177,-112.7721933,"",,Unspecified,"","",,,,,,,S68923933,"",,,,,Corvus brachyrhynchos,amecro,Species,21333,,4.78,9,,2613,3484
39883761,Photo,American Crow,Corvus brachyrhynchos,,Kevin McGowan,2016-11-12,2016,11,12,1239,United States,US-NY-109,New York,Tompkins,Foothill Yellow Barn,42.4787994,-76.3429856,Adult,,Unspecified,"","",,,,,,,S32539952,"",,,Yearling. Hatched 2015.,,Corvus brachyrhynchos,amecro,Species,21333,,4.78,9,,3456,5184
387804441,Photo,American Crow,Corvus brachyrhynchos,,Ronan Nicholson,2021-11-04,2021,11,4,1330,United States,US-NC-087,North Carolina,Haywood,Lake Junaluska,35.5278203,-82.9753536,Adult – 1,,Unspecified,"","",,,,,,,S97123197,"",,,,,Corvus brachyrhynchos,amecro,Species,21333,,4.70,10,,2946,4419
387804401,Photo,American Crow,Corvus brachyrhynchos,,Ronan Nicholson,2021-11-04,2021,11,4,1330,United States,US-NC-087,North Carolina,Haywood,Lake Junaluska,35.5278203,-82.9753536,Adult – 1,,Unspecified,"","",,,,,,,S97123197,"",,,,,Corvus brachyrhynchos,amecro,Species,21333,,4.70,10,,3040,4560
617098877,Photo,American Crow,Corvus brachyrhynchos,,Cameron Hunter,2024-03-28,2024,3,28,1055,Canada,CA-BC-GV,British Columbia,Metro Vancouver,Burnaby--Confederation Park (Dog Off Leash Area),49.2903858,-122.9981404,"",,Unspecified,"","",,,,,,,S166270280,"",,,,,Corvus brachyrhynchos,amecro,Species,21333,,4.29,21,,3873,5821
284780241,Photo,American Crow,Corvus brachyrhynchos,,Sam Zhang,2020-11-28,2020,11,28,1240,United States,US-MA-009,Massachusetts,Essex,Salisbury Beach State Reservation,42.8268013,-70.8180008,"",,Unspecified,"","",,,,,,,S76819226,"",,,,,Corvus brachyrhynchos,amecro,Species,21333,,4.30,20,,2166,3249
328618041,Photo,American Crow,Corvus brachyrhynchos,,Frédérick Lelièvre,2021-04-20,2021,4,20,800,Canada,CA-QC-QU,Quebec,Québec,Domaine de Maizerets,46.8376522,-71.2121549,Adult – 1,,Unspecified,"","",,,,,,,S85954146,"",,,,,Corvus brachyrhynchos,amecro,Species,21333,,4.47,15,,2560,3840
216565461,Photo,American Crow,Corvus brachyrhynchos,,Daniel Jauvin,2020-03-19,2020,3,19,947,Canada,CA-QC-BC,Quebec,Bécancour,BÉCANCOUR. - Parc industriel - Av G. A. Boulet,46.3729630,-72.3780700,Adult – 1,,Unspecified,"","",,,,,,,S65970845,"",,,"Corneille d'Amérique",,Corvus brachyrhynchos,amecro,Species,21333,,4.43,14,,2720,4836
298793371,Photo,American Crow,Corvus brachyrhynchos,,Zachary Holderby,2021-01-17,2021,1,17,1430,United States,US-ME-009,Maine,Hancock,Prospect Harbor Point,44.4032522,-68.0127820,"",,Unspecified,"","",,,,,,,S79456010,"",,,,,Corvus brachyrhynchos,amecro,Species,21333,,4.50,14,,3423,5139
438777711,Photo,American Crow,Corvus brachyrhynchos,,Blair Dudeck,2022-04-19,2022,4,19,1625,Canada,CA-BC-FV,British Columbia,Fraser Valley,Sardis Park,49.1278561,-121.9533062,"",,Unspecified,"","",,,,,,,S107751141,"",,,,,Corvus brachyrhynchos,amecro,Species,21333,,4.58,12,,3142,5027
216227611,Photo,American Crow,Corvus brachyrhynchos,,Mason Maron,2020-03-16,2020,3,16,1256,United States,US-WA-061,Washington,Snohomish,Edmonds Waterfront,47.8119268,-122.3854144,"",,Unspecified,"","",,,,,,,S65875693,"",,,,,Corvus brachyrhynchos,amecro,Species,21333,,4.32,19,,3217,5022
78012601,Photo,American Crow,Corvus brachyrhynchos,,Donna Martin,2017-12-12,2017,12,12,1340,Canada,CA-PE-PR,Prince Edward Island,Prince,Summerside Boardwalk,46.3945472,-63.8187432,"",,Unspecified,"","",,,,,,,S41056672,"",,,,,Corvus brachyrhynchos,amecro,Species,21333,,4.78,9,,3456,5184
627731816,Photo,American Crow,Corvus brachyrhynchos,,Beau Cotter,2024-12-18,2024,12,18,905,United States,US-MI-047,Michigan,Emmet,"Zorn Park Beach, Harbor Springs, Michigan, US",45.4278159,-84.9906716,"",,Unspecified,"","",,,,,,,S205904301,"",,,,,Corvus brachyrhynchos,amecro,Species,21333,,4.88,8,,2752,4128
507345301,Photo,American Crow,Corvus brachyrhynchos,,Roy Chatburn,2022-11-24,2022,11,24,940,Canada,CA-ON-SC,Ontario,Simcoe,Collingwood Harbour,44.5109520,-80.2228546,Adult – 1,Foraging or Eating,Unspecified,"","",,,,,,,S123027943,"",,,,,Corvus brachyrhynchos,amecro,Species,21333,,4.88,8,"",4894,3263
62431521,Photo,American Crow,Corvus brachyrhynchos,,Pavel Parkhaev,2017-06-17,2017,6,17,800,Canada,CA-NL-ON,Newfoundland and Labrador,"Avalon Peninsula-St. John's","St. John's--Oxen Pond Trail (Long Pond to Botanical Garden)",47.5734502,-52.7463698,"",,Unspecified,"","",,,,,,,S37775471,"",,,,,Corvus brachyrhynchos,amecro,Species,21333,,4.46,13,,600,800
271236461,Photo,American Crow,Corvus brachyrhynchos,,Jamie G,2020-10-14,2020,10,14,1330,Canada,CA-BC-FV,British Columbia,Fraser Valley,Sardis Park,49.1278561,-121.9533062,"",,Unspecified,"","",,,,,,,S74853198,"",,,,,Corvus brachyrhynchos,amecro,Species,21333,,4.06,34,,2592,3888
173726911,Photo,American Crow,Corvus brachyrhynchos,,Garrett Hughes,2019-08-23,2019,8,23,814,United States,US-WA-061,Washington,Snohomish,Edmonds Waterfront,47.8119268,-122.3854144,"",,Unspecified,"","",,,,,,,S59199191,"",,,,"Odd feather patterns, posed for a great shot though!",Corvus brachyrhynchos,amecro,Species,21333,,4.33,18,,1280,1920
247892171,Photo,American Crow,Corvus brachyrhynchos,,Jason Vassallo,2020-07-06,2020,7,6,608,United States,US-WA-033,Washington,King,Discovery Park,47.6638680,-122.4215317,Juvenile – 1,,Unspecified,"","",,,,,,,S71200332,"",,,,,Corvus brachyrhynchos,amecro,Species,21333,,4.50,12,,3797,4945
626452528,Photo,American Crow,Corvus brachyrhynchos,,Andrew Whetten,2024-11-13,2024,11,13,809,United States,US-NY-109,New York,Tompkins,Stevenson Rd. Game Farm and Compost,42.4467995,-76.4406126,"",,Unspecified,"","",,,,,,,S202370330,"",,,,5s,Corvus brachyrhynchos,amecro,Species,21333,,5.00,7,,3456,4608
626234267,Photo,American Crow,Corvus brachyrhynchos,,Sean McCann,2024-11-13,2024,11,13,650,United States,US-IL-031,Illinois,Cook,"Northerly Island, Chicago",41.8596139,-87.6085684,"",,Unspecified,"","",,,,,,,S202372879,"",,,,,Corvus brachyrhynchos,amecro,Species,21333,,5.00,7,,3268,4896
617074091,Photo,American Crow,Corvus brachyrhynchos,,Darren Clark,2024-04-07,2024,4,7,1620,United States,US-ID-065,Idaho,Madison,"Brigham Young University - Idaho, Rexburg US-ID 43.82063, -111.78406",43.8206300,-111.7840610,"",,Unspecified,"","",,,,,,,S167654468,"",,,,,Corvus brachyrhynchos,amecro,Species,21333,,5.00,7,,2000,3000
520126471,Photo,American Crow,Corvus brachyrhynchos,,Justin Flint,2023-01-03,2023,1,3,1432,Canada,CA-BC-FV,British Columbia,Fraser Valley,Sardis Park,49.1278561,-121.9533062,"",Feeding Young,Unspecified,"","",,,,,,,S125357350,"",,,"All food found by this bird for about 10 minutes was fed to a begging crow, presumably young of last season",,Corvus brachyrhynchos,amecro,Species,21333,,5.00,7,"",1456,1941
420664211,Photo,American Crow,Corvus brachyrhynchos,,Rain Saulnier,2022-02-27,2022,2,27,1209,Canada,CA-AB-SI,Alberta,Calgary,"Calgary--Prince's Island Park",51.0547884,-114.0688370,"",,Unspecified,"","",,,,,,,S103854644,"",,,,,Corvus brachyrhynchos,amecro,Species,21333,,5.00,7,,720,1080
205566161,Photo,American Crow,Corvus brachyrhynchos,,Gordon Johnston,2016-05-28,2016,5,28,0,Canada,CA-ON-OT,Ontario,Ottawa,Ottawa--Remic Rapids Lookout,45.4099961,-75.7445142,"",,Unspecified,"","",,IBC1269083,,,,,S65112730,"",,,"American Crow. Elevation: 55 m. Date added to IBC: August 25, 2016.",IBC scientific name: Corvus brachyrhynchos brachyrhynchos.,Corvus brachyrhynchos,amecro,Species,21333,,5.00,7,,900,1600
135831211,Photo,American Crow,Corvus brachyrhynchos,,Oscar Thomas,2019-01-13,2019,1,13,1015,United States,US-CA-059,California,Orange,Disneyland & Disney California Adventure Park,33.8121070,-117.9197016,"",,Unspecified,"","",,,,,,,S51754159,"",,,,,Corvus brachyrhynchos,amecro,Species,21333,,5.00,7,,2772,4159
60860341,Photo,American Crow,Corvus brachyrhynchos,,Greg Cross,2017-06-11,2017,6,11,1610,United States,US-CA-065,California,Riverside,Murrieta--Calle Estancia Park,33.5540981,-117.2257941,"",,Unspecified,"","",,,,,,,S37541666,"",,,,,Corvus brachyrhynchos,amecro,Species,21333,,3.87,89,,2756,4518
562476761,Photo,American Crow,Corvus brachyrhynchos,,Dana Sudborough,2023-04-24,2023,4,24,826,United States,US-TX-085,Texas,Collin,Prairie Creek Park (Collin Co. portion),32.9872119,-96.7180109,"",,Unspecified,"","",,,,,,,S134859792,"",,,,,Corvus brachyrhynchos,amecro,Species,21333,,4.64,11,,3233,4041
87908371,Photo,American Crow,Corvus brachyrhynchos,,Joshua  Glant,2018-02-26,2018,2,26,1600,United States,US-WA-033,Washington,King,Seward Park,47.5538089,-122.2501301,"",,Unspecified,"","",,,,,,,S43224516,"",,,,,Corvus brachyrhynchos,amecro,Species,21333,,4.45,11,,3078,5472
139197781,Photo,American Crow,Corvus brachyrhynchos,,Tom Fangrow,2019-02-05,2019,2,5,1415,United States,US-CA-059,California,Orange,Sea Summit trails,33.4359837,-117.6329803,"",,Unspecified,"","",,,,,,,S52419116,"",,,,,Corvus brachyrhynchos,amecro,Species,21333,,4.67,9,,1985,2977
414551231,Photo,American Crow,Corvus brachyrhynchos,,Jamie G,2021-03-19,2021,3,19,1245,Canada,CA-BC-FV,British Columbia,Fraser Valley,Sardis Park,49.1278561,-121.9533062,"",,Unspecified,"","",,,,,,,S83690195,"",,,,,Corvus brachyrhynchos,amecro,Species,21333,,4.31,13,,2592,3888
130611891,Photo,American Crow,Corvus brachyrhynchos,,Mason Maron,2018-12-22,2018,12,22,1002,United States,US-WA-009,Washington,Clallam,Neah Bay--town and bay only,48.3666101,-124.6215677,"",,Unspecified,"","",,,,,,,S50866652,"",,,,"Originally 12 American Crow and 6 Northwestern Crow; updated to 18 American Crow with eBird's 2021 taxonomic update.",Corvus brachyrhynchos,amecro,Species,21333,,4.75,8,,2749,4151
322629741,Photo,American Crow,Corvus brachyrhynchos,,Nathan Wall,2021-04-03,2021,4,3,1440,United States,US-WA-033,Washington,King,Commodore Park,47.6656928,-122.4009646,"",,Unspecified,"","",,,,,,,S84709499,"",,,,"One leucistic crow, lacking melanin, among the flock.",Corvus brachyrhynchos,amecro,Species,21333,,4.75,8,,2293,3440
57834501,Photo,American Crow,Corvus brachyrhynchos,,Laura Mae,2017-05-13,2017,5,13,1009,United States,US-VA-550,Virginia,Chesapeake,Deep Creek Park,36.7222370,-76.3472772,"",,Unspecified,"","",,,,,,,S36791708,"",,,Photo was featured in Audubon magazine (2024): https://www.audubon.org/magazine/winter-perfect-time-take-crow-watching,Second photo was featured in Audubon magazine (Winter 2024): https://www.audubon.org/magazine/winter-perfect-time-take-crow-watching,Corvus brachyrhynchos,amecro,Species,21333,,4.75,8,,3456,4608
365730921,Photo,American Crow,Corvus brachyrhynchos,,Liam Ragan,2021-06-10,2021,6,10,2002,Canada,CA-BC-TN,British Columbia,Thompson-Nicola,Grandma’s Place,50.1132320,-120.7964080,Juvenile – 1,,Unspecified,"","",,,,,,,S89975178,"",,,,,Corvus brachyrhynchos,amecro,Species,21333,,4.19,21,,3172,4168
542001481,Photo,American Crow,Corvus brachyrhynchos,,Rhianna Truex,2022-10-17,2022,10,17,1313,Canada,CA-BC-FV,British Columbia,Fraser Valley,Sardis pond,49.1287440,-121.9525080,"","",Unspecified,"","",,,,,,,S126924854,"",,,leucistic,1 Leucistic,Corvus brachyrhynchos,amecro,Species,21333,,4.45,11,Aberrant individual,4912,3278
612805153,Photo,American Crow,Corvus brachyrhynchos,,Ruslan Balagansky,2023-12-29,2023,12,29,1000,United States,US-CA-073,California,San Diego,Our Yard,32.9054793,-117.1425857,"",,Unspecified,"","",,,,,,,S157435091,"",,,,,Corvus brachyrhynchos,amecro,Species,21333,,4.29,17,,1386,2464
614741818,Photo,American Crow,Corvus brachyrhynchos,,Michael Bowen,2024-02-12,2024,2,12,944,United States,US-MI-075,Michigan,Jackson,Mike Levine Lakelands Trail -- west of Dalton Rd.,42.3078840,-84.3593496,"",,Unspecified,"","",,,,,,,S161324921,"",,,,,Corvus brachyrhynchos,amecro,Species,21333,,4.75,8,,1920,2880
385993521,Photo,American Crow,Corvus brachyrhynchos,,Suzanne Labbé,2021-11-04,2021,11,4,830,Canada,CA-QC-RM,Quebec,Rimouski-Neigette,"Quai, Pointe-au-Père",48.5188557,-68.4732342,"",,Unspecified,"","",,,,,,,S97113281,"",,,,,Corvus brachyrhynchos,amecro,Species,21333,,4.75,8,,1724,2400
361752961,Photo,American Crow,Corvus brachyrhynchos,,George Brode,2021-07-10,2021,7,10,1031,United States,US-OR-041,Oregon,Lincoln,Mark Hatfield Marine Science Center and Estuary Trail,44.6231604,-124.0434766,"",,Unspecified,"","",,,,,,,S91679254,"",,,,,Corvus brachyrhynchos,amecro,Species,21333,,4.75,8,,3893,5840
504088071,Photo,American Crow,Corvus brachyrhynchos,,Matthew Plante,2022-11-15,2022,11,15,1155,United States,US-OH-159,Ohio,Union,"Weldon Road, Plain City, Ohio, US",40.1168727,-83.1784476,"",,Unspecified,"","",,,,,,,S122466996,"",,,,,Corvus brachyrhynchos,amecro,Species,21333,,4.45,11,,2315,3473
120359941,Photo,American Crow,Corvus brachyrhynchos,,Bryan Calk,2018-10-19,2018,10,19,811,Canada,CA-BC-GV,British Columbia,Metro Vancouver,West Vancouver--Ambleside Park,49.3239431,-123.1448348,"",,Unspecified,"","",,,,,,,S49299243,"",,,,,Corvus brachyrhynchos,amecro,Species,21333,,4.45,11,,2166,3249
60665571,Photo,American Crow,Corvus brachyrhynchos,,Darren Kirby,2017-05-26,2017,5,26,1530,Canada,CA-AB-EL,Alberta,Edmonton,Edmonton--Hermitage Park,53.5836653,-113.3737779,"","",Unspecified,"","",,,,,,,S37497354,"",,,,,Corvus brachyrhynchos,amecro,Species,21333,,3.94,34,Habitat,1600,1068
620328231,Photo,American Crow,Corvus brachyrhynchos,,Braxton Landsman,2024-06-11,2024,6,11,1635,United States,US-CA-059,California,Orange,"William R Mason Regional Park, Irvine",33.6561023,-117.8293562,Juvenile – 1,,Unspecified,"","",,,,,,,S180892251,"",,,,,Corvus brachyrhynchos,amecro,Species,21333,,4.86,7,,4562,6531
611775358,Photo,American Crow,Corvus brachyrhynchos,,David Mou,2023-12-01,2023,12,1,1110,Canada,CA-ON-OT,Ontario,Ottawa,Ottawa--Central Experimental Farm Arboretum,45.3913100,-75.7040800,"",,Unspecified,"","",,,,,,,S155540392,"",,,,,Corvus brachyrhynchos,amecro,Species,21333,,4.86,7,,1462,2193
562019331,Photo,American Crow,Corvus brachyrhynchos,,Andrew Thomas 🦅🪶,2023-04-05,2023,4,5,1642,United States,US-WA-027,Washington,Grays Harbor,"Ocean Shores -- Bill's Spit",46.9648907,-124.1339435,"",,Unspecified,"","",,,,,,,S133567239,"",,,,,Corvus brachyrhynchos,amecro,Species,21333,,4.86,7,,2585,3878
543771911,Photo,American Crow,Corvus brachyrhynchos,,Linus Blomqvist,2023-03-04,2023,3,4,1048,United States,US-CA-083,California,Santa Barbara,Santa Cruz Island--Scorpion Canyon Campgrounds,34.0484615,-119.5645389,"",,Unspecified,"","",,,,,,,S130521249,"",,,,Continuing individual near the ranch buildings.,Corvus brachyrhynchos,amecro,Species,21333,,4.86,7,,4251,6376
539277921,Photo,American Crow,Corvus brachyrhynchos,,Michael Stubblefield,2023-01-01,2023,1,1,428,United States,US-CA-041,California,Marin,Las Gallinas Valley Sanitary District,38.0274109,-122.5155830,Adult – 1,,Unspecified,"","",,,,,,,S125097797,"",,,"American Crow (Corvus brachyrhynchos hesperis), adult resting at the Las Gallinas Wildlife Ponds, Las Gallinas Valley Sanitary District, San Rafael, California.",,Corvus brachyrhynchos,amecro,Species,21333,,4.86,7,,2708,4060
469610931,Photo,American Crow,Corvus brachyrhynchos,,Andrew Thomas 🦅🪶,2022-07-18,2022,7,18,0,United States,US-OR-007,Oregon,Clatsop,Cannon Beach,45.8881860,-123.9646626,"",,Unspecified,"","",,,,,,,S115643344,"",,,,,Corvus brachyrhynchos,amecro,Species,21333,,4.86,7,,2784,4069
241275101,Photo,American Crow,Corvus brachyrhynchos,,Peter Hawrylyshyn,2020-06-05,2020,6,5,1531,Canada,CA-ON-YO,Ontario,York,Green Lane - Pond,44.0722224,-79.4803807,Adult – 1,,Unspecified,"","",,,,,,,S70089466,"",,,,,Corvus brachyrhynchos,amecro,Species,21333,,4.86,7,,2182,3273
187395581,Photo,American Crow,Corvus brachyrhynchos,,Micha Mandel,2019-11-11,2019,11,11,808,United States,US-WA-033,Washington,King,Carkeek Park,47.7126411,-122.3776470,"",,Unspecified,"","",,,,,,,S61368161,"",,,,,Corvus brachyrhynchos,amecro,Species,21333,,4.86,7,,2287,3430
179676841,Photo,American Crow,Corvus brachyrhynchos,,Lily Morello,2019-09-30,2019,9,30,827,United States,US-MA-009,Massachusetts,Essex,Star of the Sea Cemetery,42.4934656,-70.8841669,"",,Unspecified,"","",,,,,,,S60233447,"",,,,,Corvus brachyrhynchos,amecro,Species,21333,,4.86,7,,3310,4610
267313401,Photo,American Crow,Corvus brachyrhynchos,,Brad Imhoff,2020-10-01,2020,10,1,728,United States,US-OH-089,Ohio,Licking,Granville Schools Land Lab,40.0889220,-82.5452640,"",Foraging or Eating,Unspecified,"","",,,,,,,S74276668,"",,,,,Corvus brachyrhynchos,amecro,Species,21333,,4.86,7,"",1576,2364
190299321,Photo,American Crow,Corvus brachyrhynchos,,Sunil Thirkannad,2019-11-23,2019,11,23,930,United States,US-FL-086,Florida,Miami-Dade,Frog Pond WMA--Lucky Hammock,25.3964390,-80.5665810,"",,Unspecified,"","",,,,,,,S61809548,"",,,,,Corvus brachyrhynchos,amecro,Species,21333,,4.86,7,,1538,2008
190299311,Photo,American Crow,Corvus brachyrhynchos,,Sunil Thirkannad,2019-11-23,2019,11,23,930,United States,US-FL-086,Florida,Miami-Dade,Frog Pond WMA--Lucky Hammock,25.3964390,-80.5665810,"",,Unspecified,"","",,,,,,,S61809548,"",,,,,Corvus brachyrhynchos,amecro,Species,21333,,4.86,7,,1476,2203
67057621,Photo,American Crow,Corvus brachyrhynchos,,Elizabeth Curley,2017-08-26,2017,8,26,1004,United States,US-NY-091,New York,Saratoga,Champlain Canal Lock 2 (Saratoga Co.),42.8747690,-73.6786079,"",,Unspecified,"","",,,,,,,S38834404,"",,,,,Corvus brachyrhynchos,amecro,Species,21333,,4.86,7,,2340,3104
393518281,Photo,American Crow,Corvus brachyrhynchos,,Corey Finger,2021-12-05,2021,12,5,826,United States,US-NY-081,New York,Queens,Flushing Meadows Corona Park--Meadow Lake,40.7351876,-73.8404751,"","Carrying Food; Flying",Unspecified,"","",,,,,,,S98491441,"",,,mmm...ketchup...mmm,,Corvus brachyrhynchos,amecro,Species,21333,,4.19,16,"",744,1000
64647291,Photo,American Crow,Corvus brachyrhynchos,,Phil Green,2004-08-08,2004,8,8,0,United States,US-WA-055,Washington,San Juan,Yellow Island,48.5922568,-123.0304022,Adult,,Unspecified,"","",,,,,,,S4459456,"",,,,,Corvus brachyrhynchos,amecro,Species,21333,,4.11,18,,1707,2560
99006431,Photo,American Crow,Corvus brachyrhynchos,,Bryan Calk,2014-06-18,2014,6,18,830,United States,US-AK-122,Alaska,Kenai Peninsula Borough,Seward Pelagic,59.8162835,-149.5956421,"",,Unspecified,"","",,,,,,,S18840445,"",,,,,Corvus brachyrhynchos,amecro,Species,21333,,4.56,9,,2004,3006
186211221,Photo,American Crow,Corvus brachyrhynchos,,Robert Bochenek,2019-11-04,2019,11,4,1330,United States,US-MI-125,Michigan,Oakland,Robert H. Long Park,42.5271345,-83.4507015,"",,Unspecified,"","",,,,,,,S61179633,"",,,,,Corvus brachyrhynchos,amecro,Species,21333,,4.24,21,,2752,3806
186211191,Photo,American Crow,Corvus brachyrhynchos,,Robert Bochenek,2019-11-04,2019,11,4,1330,United States,US-MI-125,Michigan,Oakland,Robert H. Long Park,42.5271345,-83.4507015,"",,Unspecified,"","",,,,,,,S61179633,"",,,,,Corvus brachyrhynchos,amecro,Species,21333,,4.24,21,,2594,3806
58360261,Photo,American Crow,Corvus brachyrhynchos,,Jackson  Rudkin,2017-05-14,2017,5,14,1300,United States,US-ID-003,Idaho,Adams,Lost Valley Reservoir,44.9679557,-116.4665794,"",,Unspecified,"","",,,,,,,S36892521,"",,,,,Corvus brachyrhynchos,amecro,Species,21333,,4.20,15,,3456,4608
627965514,Photo,American Crow,Corvus brachyrhynchos,,Jeremiah Oden,2024-12-06,2024,12,6,1047,United States,US-IN-039,Indiana,Elkhart,Elkhart Co. Landfill and Pond,41.6287218,-85.9793882,"",,Unspecified,"","",,,,,,,S204617745,"",,,,,Corvus brachyrhynchos,amecro,Species,21333,,4.60,10,,3793,4935
181865431,Photo,American Crow,Corvus brachyrhynchos,,Jamie G,2019-10-12,2019,10,12,1410,Canada,CA-BC-FV,British Columbia,Fraser Valley,Sardis Park,49.1278561,-121.9533062,"","",Unspecified,"","",,,,,,,S60580194,"",,,Long staying leucistic individual,,Corvus brachyrhynchos,amecro,Species,21333,,4.56,9,Aberrant individual,2592,3888
91226261,Photo,American Crow,Corvus brachyrhynchos,,Liam Wolff,2014-04-08,2014,4,8,1715,United States,US-NC-021,North Carolina,Buncombe,Beaver Lake Bird Sanctuary,35.6334650,-82.5575200,Adult,,Unspecified,"","",,,,,,,S17836194,"",,,,,Corvus brachyrhynchos,amecro,Species,21333,,4.36,11,,2510,3765
626209203,Photo,American Crow,Corvus brachyrhynchos,,Andrew Whetten,2024-11-13,2024,11,13,809,United States,US-NY-109,New York,Tompkins,Stevenson Rd. Game Farm and Compost,42.4467995,-76.4406126,"",,Unspecified,"","",,,,,,,S202370330,"",,,,5s,Corvus brachyrhynchos,amecro,Species,21333,,5.00,6,,3456,4608
624515299,Photo,American Crow,Corvus brachyrhynchos,,Paul Bueren,2024-10-01,2024,10,1,1431,United States,US-WA-061,Washington,Snohomish,Picnic Point Park,47.8809387,-122.3332976,"",,Unspecified,"","",,,,,,,S197299789,"",,,,,Corvus brachyrhynchos,amecro,Species,21333,,5.00,6,,3009,3857
610701795,Photo,American Crow,Corvus brachyrhynchos,,Eva Bottelli,2023-11-03,2023,11,3,1100,Bermuda,BM-,Bermuda,,Devonshire,32.2973975,-64.7528267,"",,Unspecified,"","",,,,,,,S153644318,"",,,,,Corvus brachyrhynchos,amecro,Species,21333,,5.00,6,,3348,5874
600413651,Photo,American Crow,Corvus brachyrhynchos,,Andrew Thomas 🦅🪶,2023-08-03,2023,8,3,1035,United States,US-WA-035,Washington,Kitsap,Liberty Bay,47.7348678,-122.6482665,"",,Unspecified,"","",,,,,,,S146367019,"",,,,,Corvus brachyrhynchos,amecro,Species,21333,,5.00,6,,2320,3472
526339451,Photo,American Crow,Corvus brachyrhynchos,,Lindsey Mitchell,2023-01-19,2023,1,19,848,United States,US-FL-086,Florida,Miami-Dade,Everglades NP--Shark Valley: Tram Rd. & Observation Tower,25.7567969,-80.7660771,"",,Unspecified,"","",,,,,,,S126516573,"",,,,,Corvus brachyrhynchos,amecro,Species,21333,,5.00,6,,3694,5902
520126441,Photo,American Crow,Corvus brachyrhynchos,,Justin Flint,2023-01-03,2023,1,3,1432,Canada,CA-BC-FV,British Columbia,Fraser Valley,Sardis Park,49.1278561,-121.9533062,Adult – 1,,Unspecified,"","",,,,,,,S125357350,"",,,,,Corvus brachyrhynchos,amecro,Species,21333,,5.00,6,,1310,1723
516838881,Photo,American Crow,Corvus brachyrhynchos,,Matthew Dolkart,2022-12-26,2022,12,26,647,United States,US-IL-031,Illinois,Cook,"Montrose Point Bird Sanctuary, Lincoln Park, Chicago",41.9633833,-87.6344204,"",,Unspecified,"","",,,,,,,S124663003,"",,,,Jon Snow,Corvus brachyrhynchos,amecro,Species,21333,,5.00,6,,2076,3114
514778461,Photo,American Crow,Corvus brachyrhynchos,,Braxton Landsman,2022-12-12,2022,12,12,1426,United States,US-CA-059,California,Orange,Laguna Niguel Regional Park,33.5494066,-117.7098370,"",,Unspecified,"","",,,,,,,S123886861,"",,,,Probably a very low estimate.,Corvus brachyrhynchos,amecro,Species,21333,,5.00,6,,3711,5089
514120271,Photo,American Crow,Corvus brachyrhynchos,,Michael Stubblefield,2022-10-27,2022,10,27,712,United States,US-NJ-009,New Jersey,Cape May,Cape Island--Cape May Point SP (CMPSP),38.9338272,-74.9550854,Adult – 1,Flying,Unspecified,"","",,,,,,,S121386618,"",,,"American Crow (Corvus brachyrhynchos brachyrhynchos), adult in flight at Cape May Point State Park, Cape May, New Jersey.",,Corvus brachyrhynchos,amecro,Species,21333,,5.00,6,"",1999,2998
513684531,Photo,American Crow,Corvus brachyrhynchos,,Ryan Shean,2022-12-13,2022,12,13,835,United States,US-CA-059,California,Orange,Dana Point Headlands Preserve,33.4609477,-117.7135277,"",,Unspecified,"","",,,,,,,S123916820,"",,,,,Corvus brachyrhynchos,amecro,Species,21333,,5.00,6,,5084,6355
506903971,Photo,American Crow,Corvus brachyrhynchos,,Matthew Plante,2022-11-24,2022,11,24,1433,United States,US-OH-159,Ohio,Union,"Weldon Road, Plain City, Ohio, US",40.1168727,-83.1784476,"",,Unspecified,"","",,,,,,,S122946959,"",,,,,Corvus brachyrhynchos,amecro,Species,21333,,5.00,6,,2653,3978
506903941,Photo,American Crow,Corvus brachyrhynchos,,Matthew Plante,2022-11-24,2022,11,24,1433,United States,US-OH-159,Ohio,Union,"Weldon Road, Plain City, Ohio, US",40.1168727,-83.1784476,"",,Unspecified,"","",,,,,,,S122946959,"",,,,,Corvus brachyrhynchos,amecro,Species,21333,,5.00,6,,1963,2945
461040681,Photo,American Crow,Corvus brachyrhynchos,,Brad Imhoff,2022-06-06,2022,6,6,543,United States,US-OR-007,Oregon,Clatsop,Cannon Beach,45.8881860,-123.9646626,"",Foraging or Eating,Unspecified,"","",,,,,,,S112335311,"",,,,,Corvus brachyrhynchos,amecro,Species,21333,,5.00,6,"",2216,3322
429010761,Photo,American Crow,Corvus brachyrhynchos,,Justin Flint,2022-03-26,2022,3,26,1437,Canada,CA-BC-FV,British Columbia,Fraser Valley,Sardis Park,49.1278561,-121.9533062,Adult – 1,,Unspecified,"","",,,,,,,S105659161,"",,,,Leucistic crow observed collecting nesting materials and adding them to a nest,Corvus brachyrhynchos,amecro,Species,21333,,5.00,6,,1704,2272
414883501,Photo,American Crow,Corvus brachyrhynchos,,Breck Haining,2022-02-05,2022,2,5,1304,United States,US-WA-033,Washington,King,Log Boom Park (Tracy Owen Station),47.7573005,-122.2639918,"",,Unspecified,"","",,,,,,,S102109789,"",,,,,Corvus brachyrhynchos,amecro,Species,21333,,5.00,6,,4081,6122
414057771,Photo,American Crow,Corvus brachyrhynchos,,Charles Fitzpatrick,2022-02-07,2022,2,7,1235,Canada,CA-NL-ON,Newfoundland and Labrador,"Avalon Peninsula-St. John's",NL--Blackhead,47.5225334,-52.6599813,"",,Unspecified,"","",,,,,,,S102218822,"",,,,,Corvus brachyrhynchos,amecro,Species,21333,,5.00,6,,1914,1451
284780231,Photo,American Crow,Corvus brachyrhynchos,,Sam Zhang,2020-11-28,2020,11,28,1240,United States,US-MA-009,Massachusetts,Essex,Salisbury Beach State Reservation,42.8268013,-70.8180008,"",,Unspecified,"","",,,,,,,S76819226,"",,,,,Corvus brachyrhynchos,amecro,Species,21333,,5.00,6,,1903,2854
56459721,Photo,American Crow,Corvus brachyrhynchos,,Cameron Eckert,2017-05-01,2017,5,1,1325,Canada,CA-YT-YT,Yukon Territory,Yukon,Whitehorse--Yukon River,60.7193044,-135.0478935,Adult,,Unspecified,"","",,,,,,,S36464393,"",,,"This crow had a very NOCR-like call. A low very horse, flat ""caaaa."" It's certainly small, and short, stocky billed, but not sure it has the fuller pot-bellied look of Northwestern.","Very NOCR-like call. A low very horse, flat ""caaaa""",Corvus brachyrhynchos,amecro,Species,21333,,5.00,6,,2000,3000
376707571,Photo,American Crow,Corvus brachyrhynchos,,Daniel Campeau,2021-10-10,2021,10,10,800,Canada,CA-QC-QU,Quebec,Québec,Pointe de Maizerets,46.8390880,-71.1960840,"",,Unspecified,"","",,,,,,,S95934963,"",,,,,Corvus brachyrhynchos,amecro,Species,21333,,5.00,6,,1667,2500
325490991,Photo,American Crow,Corvus brachyrhynchos,,Roy Chatburn,2020-08-16,2020,8,16,710,Canada,CA-ON-SC,Ontario,Simcoe,Collingwood Arboretum trails,44.5042401,-80.2283009,Adult – 1,,Unspecified,"","",,,,,,,S72467446,"",,,,,Corvus brachyrhynchos,amecro,Species,21333,,5.00,6,,3198,3198
319234771,Photo,American Crow,Corvus brachyrhynchos,,Jason Vassallo,2021-03-23,2021,3,23,812,United States,US-WA-033,Washington,King,Discovery Park,47.6638680,-122.4215317,"",,Unspecified,"","",,,,,,,S83959189,"",,,,One really cool blonde individual with white wings by the Smoke Stack,Corvus brachyrhynchos,amecro,Species,21333,,5.00,6,,3673,5581
306367031,Photo,American Crow,Corvus brachyrhynchos,,Andy Wilson,2021-02-11,2021,2,11,1030,United States,US-MA-005,Massachusetts,Bristol,"Interchange Park, Fall River",41.6949303,-71.1441565,Adult – 1,Flying,Unspecified,"","",,,,,,,S80813492,"",,,,,Corvus brachyrhynchos,amecro,Species,21333,,5.00,6,Habitat,1050,1312
274905181,Photo,American Crow,Corvus brachyrhynchos,,Mason Maron,2020-10-02,2020,10,2,742,United States,US-WA-075,Washington,Whitman,"South Fork Palouse River Walkway, Pullman",46.7299903,-117.1774160,"",,Unspecified,"","",,,,,,,S74318561,"",,,with apparent avian pox near the eye and mouth,,Corvus brachyrhynchos,amecro,Species,21333,,5.00,6,,2891,5224
124166051,Photo,American Crow,Corvus brachyrhynchos,,Tom Lally,2018-11-18,2018,11,18,1145,United States,US-IL-031,Illinois,Cook,"Washington Park, Chicago",41.7916000,-87.6115000,"",,Unspecified,"","",,,,,,,S50036424,"",,,,,Corvus brachyrhynchos,amecro,Species,21333,,5.00,6,,3289,4604
262577951,Photo,American Crow,Corvus brachyrhynchos,,Ryan Sanderson,2020-09-13,2020,9,13,700,United States,US-IN-097,Indiana,Marion,Eagle Creek Park--North Mudflats,39.8844825,-86.3019004,"",,Unspecified,"","",,,,,,,S73546256,"",,,,,Corvus brachyrhynchos,amecro,Species,21333,,4.62,8,,2072,3106
77865391,Photo,American Crow,Corvus brachyrhynchos,,Steven Mlodinow,2011-12-26,2011,12,26,1445,United States,US-CO-069,Colorado,Larimer,Lake Loveland,40.4115000,-105.0876300,"",,Unspecified,"","",,,,,,,S9420428,"",,,,,Corvus brachyrhynchos,amecro,Species,21333,,4.40,10,,1310,1718
73539871,Photo,American Crow,Corvus brachyrhynchos,,Janine Schutt,2017-10-28,2017,10,28,1325,United States,US-WA-009,Washington,Clallam,Neah Bay--town and bay only,48.3666101,-124.6215677,"",,Unspecified,"","",,,,,,,S40178599,"",,,,"Originally 37 American Crow and 8 Northwestern Crow; updated to 45 American Crow with eBird's 2021 taxonomic update.",Corvus brachyrhynchos,amecro,Species,21333,,4.42,12,,1903,2758
178718101,Photo,American Crow,Corvus brachyrhynchos,,Ian Davies,2019-05-31,2019,5,31,454,Canada,CA-QC-HC,Quebec,La Haute-Côte-Nord,Dunes de Tadoussac,48.1579631,-69.6649504,"",,Unspecified,"","",,,,,,,S57045872,"",,,,,Corvus brachyrhynchos,amecro,Species,21333,,4.36,11,,1729,2788
438777731,Photo,American Crow,Corvus brachyrhynchos,,Blair Dudeck,2022-04-19,2022,4,19,1625,Canada,CA-BC-FV,British Columbia,Fraser Valley,Sardis Park,49.1278561,-121.9533062,"",,Unspecified,"","",,,,,,,S107751141,"",,,,,Corvus brachyrhynchos,amecro,Species,21333,,4.50,10,,3142,5027
96361711,Photo,American Crow,Corvus brachyrhynchos,,Shey Claflin,2018-04-24,2018,4,24,905,United States,US-WA-017,Washington,Douglas,Backyard,47.8134318,-119.6428209,Adult,,Unspecified,"","",,,,,,,S44910532,"",,,,,Corvus brachyrhynchos,amecro,Species,21333,,4.00,24,,3888,5184
216227581,Photo,American Crow,Corvus brachyrhynchos,,Mason Maron,2020-03-16,2020,3,16,1256,United States,US-WA-061,Washington,Snohomish,Edmonds Waterfront,47.8119268,-122.3854144,"",Flying,Unspecified,"","",,,,,,,S65875693,"",,,,,Corvus brachyrhynchos,amecro,Species,21333,,4.19,16,"",2944,4417
529691341,Photo,American Crow,Corvus brachyrhynchos,,Nick Anich,2022-12-04,2022,12,4,1400,United States,US-WI-003,Wisconsin,Ashland,Maslowski Beach,46.5835760,-90.9202700,"",,Unspecified,"","",,,,,,,S123465642,"",,,,photos,Corvus brachyrhynchos,amecro,Species,21333,,4.62,8,,2870,4272
551791551,Photo,American Crow,Corvus brachyrhynchos,,Alex Muench,2023-03-24,2023,3,24,946,United States,US-IL-031,Illinois,Cook,"Humboldt Park, Chicago",41.9063221,-87.7019614,Adult – 1,,Unspecified,"","",,,,,,,S131675512,"",,,,,Corvus brachyrhynchos,amecro,Species,21333,,4.62,8,,3794,5692
75949101,Photo,American Crow,Corvus brachyrhynchos,,Kyle Jones,2017-11-10,2017,11,10,925,United States,US-TX-157,Texas,Fort Bend,Brazos Bend SP (UTC 117),29.3735739,-95.6230259,"",,Unspecified,"","",,,,,,,S40424956,"",,,,,Corvus brachyrhynchos,amecro,Species,21333,,4.62,8,,1913,2869
41069421,Photo,American Crow,Corvus brachyrhynchos,,Kevin McGowan,2016-10-01,2016,10,1,1020,United States,US-NY-109,New York,Tompkins,Stevenson Rd. Game Farm and Compost,42.4467995,-76.4406126,Adult Male,"",Unspecified,"","",,,,,,,S31836542,"",,,Nine years old.,,Corvus brachyrhynchos,amecro,Species,21333,,4.62,8,Multiple species,1399,2095
186211211,Photo,American Crow,Corvus brachyrhynchos,,Robert Bochenek,2019-11-04,2019,11,4,1330,United States,US-MI-125,Michigan,Oakland,Robert H. Long Park,42.5271345,-83.4507015,"",,Unspecified,"","",,,,,,,S61179633,"",,,,,Corvus brachyrhynchos,amecro,Species,21333,,4.20,20,,2551,3384
186211201,Photo,American Crow,Corvus brachyrhynchos,,Robert Bochenek,2019-11-04,2019,11,4,1330,United States,US-MI-125,Michigan,Oakland,Robert H. Long Park,42.5271345,-83.4507015,"",,Unspecified,"","",,,,,,,S61179633,"",,,,,Corvus brachyrhynchos,amecro,Species,21333,,4.20,20,,2594,3806
540379671,Photo,American Crow,Corvus brachyrhynchos,,Sabrina Adleson,2022-05-24,2022,5,24,1655,United States,US-AK-122,Alaska,Kenai Peninsula Borough,Resurrection Bay--Fox Island,59.9302200,-149.3406500,Adult – 1,,Unspecified,"","",,,,,,,S112640220,"",,,,,Corvus brachyrhynchos,amecro,Species,21333,,4.71,7,,2737,3939
390519691,Photo,American Crow,Corvus brachyrhynchos,,Braxton Landsman,2021-11-23,2021,11,23,1349,United States,US-CA-059,California,Orange,"William R Mason Regional Park, Irvine",33.6561023,-117.8293562,"",,Unspecified,"","",,,,,,,S97988594,"",,,,Rough estimate.,Corvus brachyrhynchos,amecro,Species,21333,,4.71,7,,3648,5472
308938401,Photo,American Crow,Corvus brachyrhynchos,Calidris alpina -- Dunlin,Frank Lin,2021-02-17,2021,2,17,1155,Canada,CA-BC-GV,British Columbia,Metro Vancouver,Blackie Spit (Incl. Dunsmuir Farm & Nicomekl estuary),49.0590000,-122.8790000,"","Flying; Foraging or Eating",Unspecified,"","",,,,,,,S81847759,"",,,"Hunting a Dunlin, which did not survive the ordeal.",A group of 3 crows successfully hunted down a Dunlin. The,Corvus brachyrhynchos,amecro,Species,21333,,4.71,7,Multiple species,3617,5425
271261141,Photo,American Crow,Corvus brachyrhynchos,,Tom Fangrow,2020-10-15,2020,10,15,815,United States,US-CA-059,California,Orange,Oso Creek Trail,33.5980824,-117.6556048,"",,Unspecified,"","",,,,,,,S74856861,"",,,,,Corvus brachyrhynchos,amecro,Species,21333,,4.71,7,,3648,5472
132627801,Photo,American Crow,Corvus brachyrhynchos,,Graham Montgomery,2019-01-01,2019,1,1,1254,United States,US-CT-011,Connecticut,New London,Ocean Beach Park,41.3081483,-72.1000528,"",,Unspecified,"","",,,,,,,S51174834,"",,,,,Corvus brachyrhynchos,amecro,Species,21333,,4.71,7,,1067,1601
71253891,Photo,American Crow,Corvus brachyrhynchos,,Peter Svensson,2017-10-08,2017,10,8,1230,United States,US-CA-087,California,Santa Cruz,Homeless Garden,36.9567164,-122.0622468,"",,Unspecified,"","",,,,,,,S39683718,"",,,,,Corvus brachyrhynchos,amecro,Species,21333,,4.71,7,,1446,2454
489376841,Photo,American Crow,Corvus brachyrhynchos,,Johannes Hogrefe,2022-10-01,2022,10,1,1414,United States,US-NC-183,North Carolina,Wake,Lake Crabtree County Park,35.8419736,-78.7977126,"",,Unspecified,"","",,,,,,,S119794963,"",,,,,Corvus brachyrhynchos,amecro,Species,21333,,4.23,13,,4640,6960
55659461,Photo,American Crow,Corvus brachyrhynchos,,bellemare celine,2017-04-24,2017,4,24,1000,Canada,CA-QC-DD,Quebec,Le Domaine-du-Roy,"Station d'épuration, Roberval",48.4926824,-72.2329048,"","",Unspecified,"","",,,,,,,S36244614,"",,,,Corneille houspillant la buse à queue rousse,Corvus brachyrhynchos,amecro,Species,21333,,4.44,9,Multiple species,1200,1800
613817287,Photo,American Crow,Corvus brachyrhynchos,,Calvin S,2024-01-20,2024,1,20,1256,Canada,CA-AB-SI,Alberta,Calgary,Calgary--Carburn Park,50.9743186,-114.0326786,"",Flying,Unspecified,"","",,,,,,,S159392600,"",,,,,Corvus brachyrhynchos,amecro,Species,21333,,4.71,7,"",2458,3692
400971081,Photo,American Crow,Corvus brachyrhynchos,,Marc Sole,2021-12-31,2021,12,31,1348,Canada,CA-BC-FV,British Columbia,Fraser Valley,Sardis Park,49.1278561,-121.9533062,"",Flying,Unspecified,"","",,,,,,,S99780109,"",,,,,Corvus brachyrhynchos,amecro,Species,21333,,4.71,7,"",2487,3730
87640051,Photo,American Crow,Corvus brachyrhynchos,,Joshua  Glant,2018-02-26,2018,2,26,1600,United States,US-WA-033,Washington,King,Seward Park,47.5538089,-122.2501301,"",,Unspecified,"","",,,,,,,S43224516,"",,,,,Corvus brachyrhynchos,amecro,Species,21333,,4.71,7,,3506,6233
40592441,Photo,American Crow,Corvus brachyrhynchos,,irina shulgina,2016-11-21,2016,11,21,805,United States,US-OH-049,Ohio,Franklin,Griggs Reservoir,40.0171965,-83.0928826,"",,Unspecified,"","",,,,,,,S32650744,"",,,,,Corvus brachyrhynchos,amecro,Species,21333,,3.67,85,,4000,6000
243161861,Photo,American Crow,Corvus brachyrhynchos,,Kalin Ocaña,2020-06-07,2020,6,7,1700,Canada,CA-BC-SL,British Columbia,Squamish-Lillooet,"Beck's Cabin",50.8738439,-121.7476822,Adult – 1,,Unspecified,"","",,,,,,,S70409134,"",,,,,Corvus brachyrhynchos,amecro,Species,21333,,4.33,12,,3190,4608
356508851,Photo,American Crow,Corvus brachyrhynchos,,Joey  Hausler,2021-07-23,2021,7,23,2000,United States,US-AK-122,Alaska,Kenai Peninsula Borough,Homer Spit,59.6130805,-151.4467049,"",,Unspecified,"","",,,,,,,S92222018,"",,,,,Corvus brachyrhynchos,amecro,Species,21333,,4.83,6,,3043,4321
322320271,Photo,American Crow,Corvus brachyrhynchos,,Sunny Zhang,2021-04-02,2021,4,2,1400,Canada,CA-BC-GV,British Columbia,Metro Vancouver,Vancouver--Jericho Park,49.2715915,-123.1943769,"",,Unspecified,"","",,,,,,,S84643313,"",,,,,Corvus brachyrhynchos,amecro,Species,21333,,4.83,6,,3284,5008
144248011,Photo,American Crow,Corvus brachyrhynchos,,Richard Littauer,2019-03-07,2019,3,7,1252,United States,US-VT-023,Vermont,Washington,"131 Elm St, Montpelier US-VT (44.2632,-72.5736)",44.2631520,-72.5735920,"",,Unspecified,"","",,,,,,,S53572579,"",,,,With the Mallards.,Corvus brachyrhynchos,amecro,Species,21333,,4.83,6,,1365,2048
75289771,Photo,American Crow,Corvus brachyrhynchos,,Paul Fenwick,2017-11-14,2017,11,14,1400,United States,US-CA-053,California,Monterey,Pt. Pinos--seawatch only,36.6373821,-121.9357538,"",,Unspecified,"","",,,,,,,S40544886,"",,,,,Corvus brachyrhynchos,amecro,Species,21333,,4.83,6,,3648,5472
625821593,Photo,American Crow,Corvus brachyrhynchos,,chef Ito,2024-11-03,2024,11,3,1545,United States,US-CA-037,California,Los Angeles,Malibu Lagoon--State Beach including Lagoon,34.0333857,-118.6822987,"",,Unspecified,"","",,,,,,,S201340594,"",,,,,Corvus brachyrhynchos,amecro,Species,21333,,4.83,6,,2430,4320
611254615,Photo,American Crow,Corvus brachyrhynchos,,Pierce Louderback,2023-11-17,2023,11,17,1310,United States,US-WA-053,Washington,Pierce,Point Defiance Park--Dune Peninsula & Wilson Way,47.3050674,-122.5095794,Unknown – 1,,Unspecified,"","",,,,,,,S154643170,"",,,,,Corvus brachyrhynchos,amecro,Species,21333,,4.83,6,,4156,6234
605089031,Photo,American Crow,Corvus brachyrhynchos,,Nick Saunders,2023-08-18,2023,8,18,1319,Canada,CA-SK-EL,Saskatchewan,Saskatoon,Saskatoon--Diefenbaker Park,52.0980191,-106.6856665,"",,Unspecified,"","",,,,,,,S147559617,"",,,,,Corvus brachyrhynchos,amecro,Species,21333,,4.83,6,,933,1300
591088281,Photo,American Crow,Corvus brachyrhynchos,,Matthew Plante,2023-01-27,2023,1,27,830,United States,US-OH-159,Ohio,Union,"Weldon Road, Plain City, Ohio, US",40.1168727,-83.1784476,Adult – 1,,Unspecified,"","",,,,,,,S143579242,"",,,,,Corvus brachyrhynchos,amecro,Species,21333,,4.83,6,,2610,3915
540363221,Photo,American Crow,Corvus brachyrhynchos,,Matt Yawney,2023-02-26,2023,2,26,858,United States,US-WA-007,Washington,Chelan,Wenatchee Confluence SP/Horan Wildlife Area,47.4524450,-120.3257718,"",,Unspecified,"","",,,,,,,S129708119,"",,,,,Corvus brachyrhynchos,amecro,Species,21333,,4.83,6,,1246,1699
530481001,Photo,American Crow,Corvus brachyrhynchos,,Kenta Togo,2023-02-01,2023,2,1,920,United States,US-VT-001,Vermont,Addison,Middlebury College,44.0092361,-73.1775085,"",,Unspecified,"","",,,,,,,S127389601,"",,,,,Corvus brachyrhynchos,amecro,Species,21333,,4.83,6,,3585,5568
516838871,Photo,American Crow,Corvus brachyrhynchos,,Matthew Dolkart,2022-12-26,2022,12,26,647,United States,US-IL-031,Illinois,Cook,"Montrose Point Bird Sanctuary, Lincoln Park, Chicago",41.9633833,-87.6344204,"",,Unspecified,"","",,,,,,,S124663003,"",,,,Jon Snow,Corvus brachyrhynchos,amecro,Species,21333,,4.83,6,,2351,3526
516838421,Photo,American Crow,Corvus brachyrhynchos,,Matthew Dolkart,2022-12-26,2022,12,26,647,United States,US-IL-031,Illinois,Cook,"Montrose Point Bird Sanctuary, Lincoln Park, Chicago",41.9633833,-87.6344204,"",,Unspecified,"","",,,,,,,S124663003,"",,,,Jon Snow,Corvus brachyrhynchos,amecro,Species,21333,,4.83,6,,2274,3411
513577611,Photo,American Crow,Corvus brachyrhynchos,,Owen Woodhouse,2022-12-16,2022,12,16,1120,United States,US-IL-031,Illinois,Cook,Mallinkrodt Park,42.0812006,-87.7246185,"",,Unspecified,"","",,,,,,,S124056699,"",,,,,Corvus brachyrhynchos,amecro,Species,21333,,4.83,6,,4000,6000
506903981,Photo,American Crow,Corvus brachyrhynchos,,Matthew Plante,2022-11-24,2022,11,24,1433,United States,US-OH-159,Ohio,Union,"Weldon Road, Plain City, Ohio, US",40.1168727,-83.1784476,"",,Unspecified,"","",,,,,,,S122946959,"",,,,,Corvus brachyrhynchos,amecro,Species,21333,,4.83,6,,3063,4594
506903951,Photo,American Crow,Corvus brachyrhynchos,,Matthew Plante,2022-11-24,2022,11,24,1433,United States,US-OH-159,Ohio,Union,"Weldon Road, Plain City, Ohio, US",40.1168727,-83.1784476,"",,Unspecified,"","",,,,,,,S122946959,"",,,,,Corvus brachyrhynchos,amecro,Species,21333,,4.83,6,,2986,4478
506903931,Photo,American Crow,Corvus brachyrhynchos,,Matthew Plante,2022-11-24,2022,11,24,1433,United States,US-OH-159,Ohio,Union,"Weldon Road, Plain City, Ohio, US",40.1168727,-83.1784476,"",,Unspecified,"","",,,,,,,S122946959,"",,,,,Corvus brachyrhynchos,amecro,Species,21333,,4.83,6,,3044,4566
455919231,Photo,American Crow,Corvus brachyrhynchos,,Mark Greene,2022-05-26,2022,5,26,1305,United States,US-TN-009,Tennessee,Blount,Great Smoky Mountains NP--Cades Cove,35.5990797,-83.8084269,Adult – 1,,Unspecified,"","",,,,,,,S111360704,"",,,,,Corvus brachyrhynchos,amecro,Species,21333,,4.83,6,,3364,4971
289249491,Photo,American Crow,Corvus brachyrhynchos,,Jason Polak,2020-12-19,2020,12,19,1030,Canada,CA-ON-OT,Ontario,Ottawa,Ottawa--Strathcona Park,45.4258847,-75.6706332,"",,Unspecified,"","",,,,,,,S77683185,"",,,,,Corvus brachyrhynchos,amecro,Species,21333,,4.83,6,,1429,2000
276462661,Photo,American Crow,Corvus brachyrhynchos,,Zachary Person,2020-10-25,2020,10,25,1159,United States,US-WA-053,Washington,Pierce,Titlow Park & Beach,47.2489682,-122.5517227,"",,Unspecified,"","",,,,,,,S75401770,"",,,,,Corvus brachyrhynchos,amecro,Species,21333,,4.83,6,,2147,3220
217172271,Photo,American Crow,Corvus brachyrhynchos,,Georges Kleinbaum,2019-06-12,2019,6,12,0,United States,US-OR-041,Oregon,Lincoln,Newport,44.6367416,-124.0532303,"",,Unspecified,"","",,,,,,,S66068247,"",,,,,Corvus brachyrhynchos,amecro,Species,21333,,4.83,6,,2957,3541
184351431,Photo,American Crow,Corvus brachyrhynchos,,Lisa Maier,2019-10-26,2019,10,26,1100,United States,US-IL-097,Illinois,Lake,Fort Sheridan Forest Preserve--Hawkwatch,42.2227935,-87.8127748,"",,Unspecified,"","",,,,,,,S60945669,"",,,,Eating acorns. One curious crow seemed interested in my lunch so I threw a piece of apple. It picked at it until another crow started coming up so it hid it in the grass in a corner where it met the side walk and covered it with a leaf.,Corvus brachyrhynchos,amecro,Species,21333,,4.83,6,,1191,1234
34671071,Photo,American Crow,Corvus brachyrhynchos,,Laura Mae,2016-09-09,2016,9,9,1202,United States,US-VA-710,Virginia,Norfolk,US-VA-Norfolk-721 W 21st St - Panera back parking lot ,36.8701050,-76.2954190,Immature,,Unspecified,"","",,,,,,,S31493668,"",,,,Mix of adults and immature (mouths red inside and lighter colored feathers. Some with downy looking feathers.),Corvus brachyrhynchos,amecro,Species,21333,,4.83,6,,2750,3668
229434491,Photo,American Crow,Corvus brachyrhynchos,,Garrett Hughes,2020-05-01,2020,5,1,1315,United States,US-WA-033,Washington,King,Richmond Beach Saltwater Park,47.7635752,-122.3851633,"",,Unspecified,"","",,,,,,,S68207211,"",,,,,Corvus brachyrhynchos,amecro,Species,21333,,4.30,10,,1292,2048
51777001,Photo,American Crow,Corvus brachyrhynchos,,Henry Burton,2017-03-19,2017,3,19,1514,United States,US-OR-041,Oregon,Lincoln,Boiler Bay State Wayside,44.8288173,-124.0658998,"",,Unspecified,"","",,,,,,,S35289561,"",,,,,Corvus brachyrhynchos,amecro,Species,21333,,4.25,12,,3000,4000
627236296,Photo,American Crow,Corvus brachyrhynchos,,Charlie Anich,2024-12-07,2024,12,7,1433,United States,US-WI-003,Wisconsin,Ashland,Ashland--Industrial Park,46.6057212,-90.8383381,"",,Unspecified,"","",,,,,,,S204729738,"",,,,,Corvus brachyrhynchos,amecro,Species,21333,,4.36,11,,2240,3242
419469781,Photo,American Crow,Corvus brachyrhynchos,,Alex Lamoreaux,2022-02-23,2022,2,23,1333,United States,US-MN-137,Minnesota,St. Louis,"WLSSD (restricted area, view only from outside of fence)",46.7622223,-92.1225188,Adult – 1,Flying,Unspecified,"","",,,,,,,S103584674,"",,,,,Corvus brachyrhynchos,amecro,Species,21333,,4.50,8,"",2469,3703
369566581,Photo,American Crow,Corvus brachyrhynchos,,Sam Zhang,2021-09-14,2021,9,14,627,United States,US-MA-009,Massachusetts,Essex,Parker River NWR,42.7639008,-70.8022995,"",,Unspecified,"","",,,,,,,S94670971,"",,,,,Corvus brachyrhynchos,amecro,Species,21333,,4.40,10,,2562,3844
93750891,Photo,American Crow,Corvus brachyrhynchos,,Steve Kolbe,2016-05-21,2016,5,21,630,United States,US-MI-041,Michigan,Delta,Peninsula Point,45.6704443,-86.9660568,"",Flying,Unspecified,"","",,,,,,,S29813325,"",,,,,Corvus brachyrhynchos,amecro,Species,21333,,3.95,22,"",2715,4073
312386931,Photo,American Crow,Corvus brachyrhynchos,,Andrew DeMarco,2021-02-27,2021,2,27,1428,United States,US-DC-001,District of Columbia,District of Columbia,"4021 Benton Street Northwest, Washington, District of Columbia, US (38.921, -77.08)",38.9209672,-77.0801027,"",,Unspecified,"","",,,,,,,S82442820,"",,,,,Corvus brachyrhynchos,amecro,Species,21333,,4.57,7,,3000,4496
94886001,Photo,American Crow,Corvus brachyrhynchos,,Armand Munteanu,2018-04-15,2018,4,15,1349,Canada,CA-BC-GV,British Columbia,Metro Vancouver,Vancouver--New Brighton Park,49.2900958,-123.0376894,"",,Unspecified,"","",,,,,,,S44609206,"",,,,,Corvus brachyrhynchos,amecro,Species,21333,,4.57,7,,3111,3111
82208381,Photo,American Crow,Corvus brachyrhynchos,,andrew aldrich,2018-01-15,2018,1,15,1117,United States,US-ME-031,Maine,York,Beach Plum Farm,43.2626437,-70.5975437,"",,Unspecified,"","",,,,,,,S41931257,"",,,,,Corvus brachyrhynchos,amecro,Species,21333,,4.57,7,,3145,4038
304680371,Photo,American Crow,Corvus brachyrhynchos,,Braydon Luikart,2021-02-03,2021,2,3,1510,United States,US-MT-029,Montana,Flathead,Flathead County Landfill,48.3106012,-114.3450165,"",,Unspecified,"","",,,,,,,S80381122,"",,,,,Corvus brachyrhynchos,amecro,Species,21333,,4.57,7,,3456,5184
390018881,Photo,American Crow,Corvus brachyrhynchos,,Jing-Yi Lu,2021-11-21,2021,11,21,1347,United States,US-IL-031,Illinois,Cook,"Jackson Park, Chicago",41.7812010,-87.5813341,"",,Unspecified,"","",,,,,,,S97905843,"",,,,,Corvus brachyrhynchos,amecro,Species,21333,,4.50,8,,2949,4417
626452529,Photo,American Crow,Corvus brachyrhynchos,,Andrew Whetten,2024-11-13,2024,11,13,809,United States,US-NY-109,New York,Tompkins,Stevenson Rd. Game Farm and Compost,42.4467995,-76.4406126,"",,Unspecified,"","",,,,,,,S202370330,"",,,,5s,Corvus brachyrhynchos,amecro,Species,21333,,5.00,5,,3456,4608
626225834,Photo,American Crow,Corvus brachyrhynchos,,Andrew Whetten,2024-11-13,2024,11,13,809,United States,US-NY-109,New York,Tompkins,Stevenson Rd. Game Farm and Compost,42.4467995,-76.4406126,"",,Unspecified,"","",,,,,,,S202370330,"",,,,5s,Corvus brachyrhynchos,amecro,Species,21333,,5.00,5,,3456,4608
626216695,Photo,American Crow,Corvus brachyrhynchos,,Andrew Whetten,2024-11-13,2024,11,13,809,United States,US-NY-109,New York,Tompkins,Stevenson Rd. Game Farm and Compost,42.4467995,-76.4406126,"",,Unspecified,"","",,,,,,,S202370330,"",,,,5s,Corvus brachyrhynchos,amecro,Species,21333,,5.00,5,,3456,4608
615934052,Photo,American Crow,Corvus brachyrhynchos,,Corvus 𓄿,2024-03-08,2024,3,8,1344,United States,US-PA-003,Pennsylvania,Allegheny,Upper St. Clair Community & Recreation Center,40.3347540,-80.1102957,Adult – 1,Vocalizing,Unspecified,"","",,,,,,,S164148362,"",,,,This crow was foraging and letting out rhythmic three caw calls fairly consistently spaced apart. They had a buddy standing atop a light post while they foraged. I never tired of corvids.,Corvus brachyrhynchos,amecro,Species,21333,,5.00,5,"",2935,4217
615056145,Photo,American Crow,Corvus brachyrhynchos,,Bradley Hacker 🦜,2024-02-19,2024,2,19,1013,United States,US-CA-083,California,Santa Barbara,Mission Creek outflow,34.4127959,-119.6869361,"",,Unspecified,"","",,,,,,,S162264091,"",,,,,Corvus brachyrhynchos,amecro,Species,21333,,5.00,5,,3062,4593
614062959,Photo,American Crow,Corvus brachyrhynchos,,Marcus Kelly,2024-01-27,2024,1,27,643,United States,US-FL-099,Florida,Palm Beach,Rotenberger WMA (Palm Beach County),26.3831767,-80.8103915,"",,Unspecified,"","",,,,,,,S159922248,"",,,,"(26.4191768, -80.8077408) photo and audio tba",Corvus brachyrhynchos,amecro,Species,21333,,5.00,5,,2439,3658
611537743,Photo,American Crow,Corvus brachyrhynchos,,Sasha Cahill,2023-10-31,2023,10,31,815,United States,US-CA-023,California,Humboldt,Arcata Bottoms--Upper Bay/Lanphere Rd.,40.8977654,-124.1150379,"",,Unspecified,"","",,,,,,,S153479738,"",,,1/1600 ISO 500 F/5.0,,Corvus brachyrhynchos,amecro,Species,21333,,5.00,5,,2599,4620
610720990,Photo,American Crow,Corvus brachyrhynchos,,Corvus 𓄿,2023-11-03,2023,11,3,1218,United States,US-PA-019,Pennsylvania,Butler,Moraine SP--South Shore,40.9434397,-80.0859547,Adult – 1,"",Unspecified,"","",,,,,,,S153683913,"",,,,,Corvus brachyrhynchos,amecro,Species,21333,,5.00,5,Molting,2148,3157
610612508,Photo,American Crow,Corvus brachyrhynchos,,Paul Fenwick,2023-10-28,2023,10,28,1410,United States,US-CA-053,California,Monterey,Pt. Pinos--seawatch only,36.6373821,-121.9357538,"",,Unspecified,"","",,,,,,,S153281950,"",,,,,Corvus brachyrhynchos,amecro,Species,21333,,5.00,5,,4915,8192
609823787,Photo,American Crow,Corvus brachyrhynchos,,Micah Anderson,2023-09-24,2023,9,24,1000,United States,US-WA-027,Washington,Grays Harbor,Olympic NF-Lake Quinault Lodge (Grays Harbor Co.),47.4674701,-123.8484907,Adult – 1,,Unspecified,"","",,,,,,,S151954544,"",,,,,Corvus brachyrhynchos,amecro,Species,21333,,5.00,5,,3429,2726
608671252,Photo,American Crow,Corvus brachyrhynchos,,Justin Flint,2023-09-09,2023,9,9,1711,Canada,CA-BC-FV,British Columbia,Fraser Valley,Sardis Park,49.1278561,-121.9533062,"","",Unspecified,"","",,,,,,,S149502004,"",,,,,Corvus brachyrhynchos,amecro,Species,21333,,5.00,5,Aberrant individual,1317,1755
576589521,Photo,American Crow,Corvus brachyrhynchos,,Corvus 𓄿,2023-05-23,2023,5,23,1611,United States,US-PA-003,Pennsylvania,Allegheny,North Park--Gold Star Mothers Wetland,40.5934580,-80.0043297,Adult – 2,,Unspecified,"","",,,,,,,S139029365,"",,,,"Three showed up and a Baltimore Oriole and red winged blackbird teamed up together to harass them, but they seem to find it quite entertaining and hopped up on a table and just watched. Then one ventured closer to the reeds and a blue jay joined in in the mob.  A 4th found a hotdog in another area and the orioles, blue Jays,  and grackles mobbed then, but then robins got mad at the orioles and chased. pandemonium.",Corvus brachyrhynchos,amecro,Species,21333,,5.00,5,,2796,4272
554519651,Photo,American Crow,Corvus brachyrhynchos,,Michael Stubblefield,2016-02-15,2016,2,15,900,United States,US-CA-041,California,Marin,Las Gallinas Valley Sanitary District,38.0274109,-122.5155830,Adult – 1,Flying,Unspecified,"","",,,,,,,S132920348,"",,,"American Crow (Corvus brachyrhynchos hesperis), adult in flight at the Las Gallinas Wildlife Ponds in San Rafael, California.",,Corvus brachyrhynchos,amecro,Species,21333,,5.00,5,"",1501,2252
530480991,Photo,American Crow,Corvus brachyrhynchos,,Kenta Togo,2023-02-01,2023,2,1,920,United States,US-VT-001,Vermont,Addison,Middlebury College,44.0092361,-73.1775085,"",,Unspecified,"","",,,,,,,S127389601,"",,,,,Corvus brachyrhynchos,amecro,Species,21333,,5.00,5,,3433,5187
529565281,Photo,American Crow,Corvus brachyrhynchos,,Adam Farid,2023-01-28,2023,1,28,931,United States,US-NY-099,New York,Seneca,Cayuga Lake SP--lake and boat launch,42.9002148,-76.7496300,"",,Unspecified,"","",,,,,,,S127080487,"",,,,,Corvus brachyrhynchos,amecro,Species,21333,,5.00,5,,2271,3406
529565201,Photo,American Crow,Corvus brachyrhynchos,,Adam Farid,2023-01-28,2023,1,28,931,United States,US-NY-099,New York,Seneca,Cayuga Lake SP--lake and boat launch,42.9002148,-76.7496300,"",,Unspecified,"","",,,,,,,S127080487,"",,,,,Corvus brachyrhynchos,amecro,Species,21333,,5.00,5,,2376,3564
529565131,Photo,American Crow,Corvus brachyrhynchos,,Adam Farid,2023-01-28,2023,1,28,931,United States,US-NY-099,New York,Seneca,Cayuga Lake SP--lake and boat launch,42.9002148,-76.7496300,"",,Unspecified,"","",,,,,,,S127080487,"",,,,,Corvus brachyrhynchos,amecro,Species,21333,,5.00,5,,2457,1638
529565071,Photo,American Crow,Corvus brachyrhynchos,,Adam Farid,2023-01-28,2023,1,28,931,United States,US-NY-099,New York,Seneca,Cayuga Lake SP--lake and boat launch,42.9002148,-76.7496300,"",Vocalizing,Unspecified,"","",,,,,,,S127080487,"",,,,,Corvus brachyrhynchos,amecro,Species,21333,,5.00,5,"",2418,3627
520126451,Photo,American Crow,Corvus brachyrhynchos,,Justin Flint,2023-01-03,2023,1,3,1432,Canada,CA-BC-FV,British Columbia,Fraser Valley,Sardis Park,49.1278561,-121.9533062,Adult – 1,,Unspecified,"","",,,,,,,S125357350,"",,,,,Corvus brachyrhynchos,amecro,Species,21333,,5.00,5,,1481,1974
513577591,Photo,American Crow,Corvus brachyrhynchos,,Owen Woodhouse,2022-12-16,2022,12,16,1120,United States,US-IL-031,Illinois,Cook,Mallinkrodt Park,42.0812006,-87.7246185,"",,Unspecified,"","",,,,,,,S124056699,"",,,,,Corvus brachyrhynchos,amecro,Species,21333,,5.00,5,,4000,6000
506903961,Photo,American Crow,Corvus brachyrhynchos,,Matthew Plante,2022-11-24,2022,11,24,1433,United States,US-OH-159,Ohio,Union,"Weldon Road, Plain City, Ohio, US",40.1168727,-83.1784476,"",,Unspecified,"","",,,,,,,S122946959,"",,,,,Corvus brachyrhynchos,amecro,Species,21333,,5.00,5,,2440,3660
501647671,Photo,American Crow,Corvus brachyrhynchos,,Joey McCracken,2022-11-07,2022,11,7,900,United States,US-WA-033,Washington,King,Marymoor Park,47.6625760,-122.1205200,Adult – 1,,Unspecified,"","",,,,,,,S122047603,"",,,,,Corvus brachyrhynchos,amecro,Species,21333,,5.00,5,,1366,2048
463242831,Photo,American Crow,Corvus brachyrhynchos,,Braxton Landsman,2022-06-27,2022,6,27,1514,United States,US-CA-059,California,Orange,Doheny State Beach,33.4615743,-117.6806331,"",,Unspecified,"","",,,,,,,S113971521,"",,,,,Corvus brachyrhynchos,amecro,Species,21333,,5.00,5,,3502,4763
461040711,Photo,American Crow,Corvus brachyrhynchos,,Brad Imhoff,2022-06-06,2022,6,6,543,United States,US-OR-007,Oregon,Clatsop,Cannon Beach,45.8881860,-123.9646626,"",,Unspecified,"","",,,,,,,S112335311,"",,,,,Corvus brachyrhynchos,amecro,Species,21333,,5.00,5,,3270,4903
461040691,Photo,American Crow,Corvus brachyrhynchos,,Brad Imhoff,2022-06-06,2022,6,6,543,United States,US-OR-007,Oregon,Clatsop,Cannon Beach,45.8881860,-123.9646626,"",Foraging or Eating,Unspecified,"","",,,,,,,S112335311,"",,,,,Corvus brachyrhynchos,amecro,Species,21333,,5.00,5,"",2683,4022
459978971,Photo,American Crow,Corvus brachyrhynchos,,Doug Norwood,2022-06-16,2022,6,16,640,United States,US-GA-067,Georgia,Cobb,Lake Acworth--Cauble Park,34.0599339,-84.6830463,"",,Unspecified,"","",,,,,,,S113056986,"",,,,,Corvus brachyrhynchos,amecro,Species,21333,,5.00,5,,3724,5596
452630081,Photo,American Crow,Corvus brachyrhynchos,,Felipe Lopez,2022-05-23,2022,5,23,953,United States,US-MA-017,Massachusetts,Middlesex,Merrimack Riverwalk (Lowell),42.6533079,-71.3146920,"",,Unspecified,"","",,,,,,,S111078719,"",,,,,Corvus brachyrhynchos,amecro,Species,21333,,5.00,5,,4000,6000
422820671,Photo,American Crow,Corvus brachyrhynchos,,Michael Stubblefield,2022-02-26,2022,2,26,700,United States,US-GA-135,Georgia,Gwinnett,George Pierce Park,34.0592720,-84.0515040,Adult – 1,"Flying; Foraging or Eating",Unspecified,"","",,,,,,,S103750285,"",,,"American Crow (Corvus brachyrhynchos paulus), adult in flight over George Pierce Park, Suwanee, Georgia.",,Corvus brachyrhynchos,amecro,Species,21333,,5.00,5,Habitat,2746,4116
413847221,Photo,American Crow,Corvus brachyrhynchos,,Tara Plum,2021-11-03,2021,11,3,733,United States,US-WI-111,Wisconsin,Sauk,Devils Lake SP,43.4154540,-89.7307706,"",,Unspecified,"","",,,,,,,S101820689,"",,,,,Corvus brachyrhynchos,amecro,Species,21333,,5.00,5,,2053,4128
387876431,Photo,American Crow,Corvus brachyrhynchos,,Russ Morgan,2021-11-13,2021,11,13,754,United States,US-OR-041,Oregon,Lincoln,Yaquina River--North Shore,44.6215148,-124.0640116,"",,Unspecified,"","",,,,,,,S97550809,"",,,,,Corvus brachyrhynchos,amecro,Species,21333,,5.00,5,,2888,4332
387875671,Photo,American Crow,Corvus brachyrhynchos,,Russ Morgan,2021-11-13,2021,11,13,754,United States,US-OR-041,Oregon,Lincoln,Yaquina River--North Shore,44.6215148,-124.0640116,"",,Unspecified,"","",,,,,,,S97550809,"",,,,,Corvus brachyrhynchos,amecro,Species,21333,,5.00,5,,2666,3999
387875661,Photo,American Crow,Corvus brachyrhynchos,,Russ Morgan,2021-11-13,2021,11,13,754,United States,US-OR-041,Oregon,Lincoln,Yaquina River--North Shore,44.6215148,-124.0640116,"",,Unspecified,"","",,,,,,,S97550809,"",,,,,Corvus brachyrhynchos,amecro,Species,21333,,5.00,5,,3155,4732
387875651,Photo,American Crow,Corvus brachyrhynchos,,Russ Morgan,2021-11-13,2021,11,13,754,United States,US-OR-041,Oregon,Lincoln,Yaquina River--North Shore,44.6215148,-124.0640116,"",,Unspecified,"","",,,,,,,S97550809,"",,,,,Corvus brachyrhynchos,amecro,Species,21333,,5.00,5,,2725,4087
372160131,Photo,American Crow,Corvus brachyrhynchos,,Sam Zhang,2021-09-22,2021,9,22,1415,United States,US-WA-033,Washington,King,Discovery Park,47.6638680,-122.4215317,Adult – 1,,Unspecified,"","",,,,,,,S95042292,"",,,,,Corvus brachyrhynchos,amecro,Species,21333,,5.00,5,,3126,4689
244836661,Photo,American Crow,Corvus brachyrhynchos,,Garrett Hughes,2020-06-19,2020,6,19,1724,United States,US-WA-055,Washington,San Juan,Orcas Ferry Landing,48.5970464,-122.9432774,"",,Unspecified,"","",,,,,,,S70614471,"",,,,,Corvus brachyrhynchos,amecro,Species,21333,,5.00,5,,1365,2048
207027991,Photo,American Crow,Corvus brachyrhynchos,,Linda Ankerstjerne Olsen,2020-02-02,2020,2,2,1115,United States,US-CT-009,Connecticut,New Haven,Silver Sands SP,41.2007691,-73.0721380,"",,Unspecified,"","",,,,,,,S64077780,"",,,,10 feeding from grass edge in parking lot...not bothered by walkers,Corvus brachyrhynchos,amecro,Species,21333,,5.00,5,,2521,3393
197395161,Photo,American Crow,Corvus brachyrhynchos,,Jeff Huth,2020-01-04,2020,1,4,1130,United States,US-WA-061,Washington,Snohomish,Picnic Point Park,47.8809387,-122.3332976,"",,Unspecified,"","",,,,,,,S63041867,"",,,,,Corvus brachyrhynchos,amecro,Species,21333,,5.00,5,,1912,2868
157620631,Photo,American Crow,Corvus brachyrhynchos,,Brandon Holden,2019-05-09,2019,5,9,630,Canada,CA-ON-HU,Ontario,Huron,The Bluff,43.3793330,-81.7143510,"",,Unspecified,"","",,,,,,,S56047985,"",,,,,Corvus brachyrhynchos,amecro,Species,21333,,5.00,5,,,
120755721,Photo,American Crow,Corvus brachyrhynchos,,Tim White,2018-10-27,2018,10,27,1045,Bermuda,BM-,Bermuda,,"Somerset Long Bay NR  - East (Pitman's Pond)",32.3038017,-64.8711133,"",,Unspecified,"","",,,,,,,S49490362,"",,,,,Corvus brachyrhynchos,amecro,Species,21333,,5.00,5,,2314,3471
115876031,Photo,American Crow,Corvus brachyrhynchos,,John Whigham,2018-09-15,2018,9,15,830,United States,US-GA-219,Georgia,Oconee,Home,33.8479480,-83.4647260,"",,Unspecified,"","",,,,,,,S48515871,"",,,,,Corvus brachyrhynchos,amecro,Species,21333,,5.00,5,,1365,2048
102652161,Photo,American Crow,Corvus brachyrhynchos,,Angela Calabrese,2018-05-30,2018,5,30,703,United States,US-OR-051,Oregon,Multnomah,Powell Butte Nature Park,45.4870000,-122.5030000,"","",Unspecified,"","",,,,,,,S46159480,"",,,,Saw some harassing RTHA. Another was eating a garter snake,Corvus brachyrhynchos,amecro,Species,21333,,5.00,5,Watermark,2791,3489
67944481,Photo,American Crow,Corvus brachyrhynchos,,Jim Zook,2017-09-04,2017,9,4,755,United States,US-WA-033,Washington,King,Magnuson Park,47.6815336,-122.2505453,"",,Unspecified,"","",,,,,,,S38998041,"",,,,,Corvus brachyrhynchos,amecro,Species,21333,,5.00,5,,1624,2098
61267191,Photo,American Crow,Corvus brachyrhynchos,,Mark Ludwick,2017-06-16,2017,6,16,650,United States,US-OR-059,Oregon,Umatilla,Umatilla Marina Park,45.9239464,-119.3308032,"",,Unspecified,"","",,,,,,,S37635069,"",,,,,Corvus brachyrhynchos,amecro,Species,21333,,3.75,36,,3456,4608
202660851,Photo,American Crow,Corvus brachyrhynchos,,James Moodie,2020-01-24,2020,1,24,936,United States,US-OR-017,Oregon,Deschutes,Deschutes River--Trail Old Milll-A Loop,44.0478183,-121.3173356,Adult – 1,,Unspecified,"","",,,,,,,S63732298,"",,,,,Corvus brachyrhynchos,amecro,Species,21333,,4.57,7,,1888,2833
174535681,Photo,American Crow,Corvus brachyrhynchos,,Ronan Nicholson,2019-08-28,2019,8,28,1005,United States,US-CA-067,California,Sacramento,Garcia Bend Park,38.4784760,-121.5418240,Immature,,Unspecified,"","",,,,,,,S59334515,"",,,,,Corvus brachyrhynchos,amecro,Species,21333,,4.57,7,,3648,5472
89432371,Photo,American Crow,Corvus brachyrhynchos,,Mike Cameron,2018-03-10,2018,3,10,1608,United States,US-TX-085,Texas,Collin,Lavon Lake--Lavon Lake Rd,33.0408132,-96.5291941,"",,Unspecified,"","",,,,,,,S43540249,"",,,,,Corvus brachyrhynchos,amecro,Species,21333,,4.57,7,,1920,3072
325356851,Photo,American Crow,Corvus brachyrhynchos,,Avery Fish,2020-07-24,2020,7,24,624,United States,US-VT-007,Vermont,Chittenden,Delta Park IBA,44.5333652,-73.2777677,"",,Unspecified,"","",,,,,,,S71771081,"",,,,,Corvus brachyrhynchos,amecro,Species,21333,,4.20,10,,2160,3840
60805741,Photo,American Crow,Corvus brachyrhynchos,,John Coyle,2017-06-11,2017,6,11,731,United States,US-NY-087,New York,Rockland,Bear Mountain SP--Doodletown Rd.,41.3011999,-73.9869576,"",,Unspecified,"","",,,,,,,S37531386,"",,,,"saw mom, dad and 2 fledglings...possibly a third.",Corvus brachyrhynchos,amecro,Species,21333,,3.72,53,,3456,4608
613224043,Photo,American Crow,Corvus brachyrhynchos,,Andrew Whetten,2024-01-07,2024,1,7,1127,United States,US-KS-161,Kansas,Riley,Aggieville Alley,39.1852100,-96.5758330,"",Foraging or Eating,Unspecified,"","",,,,,,,S158369160,"",,,,Within 200m of this location,Corvus brachyrhynchos,amecro,Species,21333,,4.44,9,"",3341,4604
60663621,Photo,American Crow,Corvus brachyrhynchos,,Przemyslaw Garbacz,2017-06-08,2017,6,8,1218,Canada,CA-ON-HT,Ontario,Halton,Burlington--Central Park,43.3372200,-79.7922031,"","",Unspecified,"","",,,,,,,S37469254,"",,,,"Landed, walked over to a tree and examined the tree/area for a few minutes and then flew away.",Corvus brachyrhynchos,amecro,Species,21333,,3.74,39,Multiple species,1832,3264
542699091,Photo,American Crow,Corvus brachyrhynchos,,Zach Schwartz-Weinstein,2023-03-06,2023,3,6,859,United States,US-NY-001,New York,Albany,"Tibbits Ave., Green Island (village)",42.7484505,-73.6894618,"",,Unspecified,"","",,,,,,,S130308005,"",,,,,Corvus brachyrhynchos,amecro,Species,21333,,4.67,6,,2729,4094
