ML Catalog Number,Format,Common Name,Scientific Name,Background Species,Recordist,Date,Year,Month,Day,Time,Country,Country-State-County,State,County,Locality,Latitude,Longitude,Age/Sex,Behaviors,Playback,Captive,Collected,Specimen ID,Home Archive Catalog Number,Recorder,Microphone,Accessory,Partner Institution,eBird Checklist ID,Unconfirmed,Air Temp(°C),Water Temp(°C),Media notes,Observation Details,Parent Species,eBird Species Code,Taxon Category,Taxonomic Sort,Recordist 2,Average Community Rating,Number of Ratings,Asset Tags,Original Image Height,Original Image Width
196796851,Photo,Canada Goose,Branta canadensis,,Ryan Sanderson,2020-01-02,2020,1,2,842,United States,US-IN-097,Indiana,Marion,Eagle Creek Park,39.8751000,-86.3037000,"Adult Male – 1; Adult – 1",,Unspecified,"","",,,,,,,S62909012,"",,,,,Branta canadensis,cangoo,Species,330,,4.95,207,,4086,6129
219870951,Photo,Canada Goose,Branta canadensis,,Brad Imhoff,2020-03-25,2020,3,25,931,United States,US-OH-089,Ohio,Licking,"T. J. Evans Park, Newark",40.0925184,-82.4187469,"",Flying,Unspecified,"","",,,,,,,S66197256,"",,,,,Branta canadensis,cangoo,Species,330,,4.94,165,"",2057,3085
44768861,Photo,Canada Goose,Branta canadensis,,Jay McGowan,2016-12-30,2016,12,30,1408,United States,US-NY-059,New York,Nassau,Arthur J. Hendrickson Park,40.6696888,-73.6988690,"",,Unspecified,"","",,,,,,,S33297864,"",,,,,Branta canadensis,cangoo,Species,330,,4.93,129,,3648,5472
217394891,Photo,Canada Goose,Branta canadensis,,Brad Imhoff,2020-03-22,2020,3,22,714,United States,US-OH-089,Ohio,Licking,Hebron Fish Hatchery and Wetlands,39.9350130,-82.5143623,"",,Unspecified,"","",,,,,,,S66087382,"",,,,,Branta canadensis,cangoo,Species,330,,4.90,119,,2130,3195
449427351,Photo,Canada Goose,Branta canadensis,,Ronan Nicholson,2022-05-07,2022,5,7,1320,United States,US-NC-021,North Carolina,Buncombe,Warren Wilson College--Owen Park,35.6100716,-82.4282965,Juvenile – 3,,Unspecified,"","",,,,,,,S109249922,"",,,,,Branta canadensis,cangoo,Species,330,,4.92,83,,3091,4636
456280561,Photo,Canada Goose,Branta canadensis,,Anne Inga,2022-06-03,2022,6,3,1740,United States,US-VT-007,Vermont,Chittenden,Lagoon Road,44.3308753,-73.1263196,"",,Unspecified,"","",,,,,,,S112064292,"",,,,Twenty-seven adults and 14 young on the ground in two different locations. A flock of about 90 honking and flying north overhead in a V-formation. Counted by estimating individuals in groups of ten. There were 9 such groups.,Branta canadensis,cangoo,Species,330,,4.92,83,,3563,7631
36338341,Photo,Canada Goose,Branta canadensis,,Tim Lenz,2012-05-10,2012,5,10,708,United States,US-NY-109,New York,Tompkins,Stewart Park,42.4607910,-76.5068525,Juvenile,,Unspecified,"","",,,,,,,S10703532,"",,,,,Branta canadensis,cangoo,Species,330,,4.86,109,,3840,5760
320428961,Photo,Canada Goose,Branta canadensis,,Matthew Plante,2021-03-27,2021,3,27,812,United States,US-OH-089,Ohio,Licking,Hebron Fish Hatchery and Wetlands,39.9350130,-82.5143623,"",,Unspecified,"","",,,,,,,S84217907,"",,,,,Branta canadensis,cangoo,Species,330,,4.95,62,,2972,4458
159811761,Photo,Canada Goose,Branta canadensis,,Volker Hesse,2019-05-04,2019,5,4,1600,Germany,DE-BW-KA2,Baden-Württemberg,Karlsruhe,Wagbachniederung (NSG),49.2657323,8.5172796,Immature,,Unspecified,"","",,,,,,,S55840367,"",,,,,Branta canadensis,cangoo,Species,330,,4.89,82,,2186,2520
452773501,Photo,Canada Goose,Branta canadensis,,Braxton Landsman,2022-05-23,2022,5,23,1639,United States,US-CA-059,California,Orange,Laguna Niguel Regional Park,33.5494066,-117.7098370,"",,Unspecified,"","",,,,,,,S111136316,"",,,,Estimate.,Branta canadensis,cangoo,Species,330,,4.98,50,,3648,5294
217394961,Photo,Canada Goose,Branta canadensis,,Brad Imhoff,2020-03-22,2020,3,22,714,United States,US-OH-089,Ohio,Licking,Hebron Fish Hatchery and Wetlands,39.9350130,-82.5143623,"",,Unspecified,"","",,,,,,,S66087382,"",,,,,Branta canadensis,cangoo,Species,330,,4.87,86,,2530,3795
217396061,Photo,Canada Goose,Branta canadensis,,Brad Imhoff,2020-03-22,2020,3,22,714,United States,US-OH-089,Ohio,Licking,Hebron Fish Hatchery and Wetlands,39.9350130,-82.5143623,"",,Unspecified,"","",,,,,,,S66087382,"",,,,,Branta canadensis,cangoo,Species,330,,4.90,68,,3054,4581
84064181,Photo,Canada Goose,Branta canadensis,,Don Danko,2018-01-30,2018,1,30,1215,United States,US-OH-035,Ohio,Cuyahoga,"Rivergate Park, Merwin Ave.",41.4901921,-81.7030048,"",,Unspecified,"","",,,,,,,S42385198,"",,,,,Branta canadensis,cangoo,Species,330,,4.88,69,,2260,3389
615410157,Photo,Canada Goose,Branta canadensis,,James Ancona,2024-02-27,2024,2,27,850,United States,US-NY-059,New York,Nassau,Jones Beach SP,40.5945237,-73.5104002,"",Vocalizing,Unspecified,"","",,,,,,,S163140840,"",,,,,Branta canadensis,cangoo,Species,330,,4.89,55,"",2945,4418
96797261,Photo,Canada Goose,Branta canadensis,,Zak Pohlen,2018-04-27,2018,4,27,738,United States,US-AK-020,Alaska,Anchorage Municipality,Cuddy Family Midtown Park,61.1845749,-149.8792808,Adult,,Unspecified,"","",,,,,,,S45006686,"",,,,,Branta canadensis,cangoo,Species,330,,4.90,51,,1800,3000
34911241,Photo,Canada Goose,Branta canadensis,,Jeff Langford,2016-01-09,2016,1,9,1530,United States,US-UT-035,Utah,Salt Lake,84106 Salt Lake City,40.7052230,-111.8558650,Adult,,Unspecified,"","",,,,,,,S26804409,"",,,,,Branta canadensis,cangoo,Species,330,,4.83,75,,3204,4799
618646402,Photo,Canada Goose,Branta canadensis,,Ryan Sanderson,2024-05-07,2024,5,7,605,United States,US-IN-097,Indiana,Marion,Eagle Creek Park,39.8751000,-86.3037000,Juvenile – 1,Foraging or Eating,Unspecified,"","",,,,,,,S172632666,"",,,,,Branta canadensis,cangoo,Species,330,,5.00,35,"",3796,5691
615941450,Photo,Canada Goose,Branta canadensis,,Grigory Heaton,2024-03-09,2024,3,9,1721,United States,US-CA-037,California,Los Angeles,Santa Fe Dam Rec. Area,34.1113782,-117.9507637,Adult – 1,,Unspecified,"","",,,,,,,S164270551,"",,,,,Branta canadensis,cangoo,Species,330,,4.87,55,,5438,3625
129714651,Photo,Canada Goose,Branta canadensis,,Fyn Kynd,2015-05-07,2015,5,7,736,United States,US-ME-027,Maine,Waldo,"Magog Road Marsh, Searsmont",44.3339082,-69.1816485,"",,Unspecified,"","",,,,,,,S23282828,"",,,,Original pair trying to chase off new pair that flew in,Branta canadensis,cangoo,Species,330,,4.97,34,,2578,3966
458398041,Photo,Canada Goose,Branta canadensis,,Anne Inga,2022-06-10,2022,6,10,1529,United States,US-VT-007,Vermont,Chittenden,Lagoon Road,44.3308753,-73.1263196,"",,Unspecified,"","",,,,,,,S112621758,"",,,,"Six adults, nine young.",Branta canadensis,cangoo,Species,330,,4.97,32,,6336,9504
98295471,Photo,Canada Goose,Branta canadensis,,Ian Hearn,2018-05-05,2018,5,5,1245,United States,US-ID-001,Idaho,Ada,Esther Simplot Park,43.6281234,-116.2303734,Juvenile,,Unspecified,"","",,,,,,,S45315542,"",,,,,Branta canadensis,cangoo,Species,330,,4.72,81,,3000,4000
323790521,Photo,Canada Goose,Branta canadensis,,Kyle Tansley,2021-04-07,2021,4,7,545,United States,US-VT-007,Vermont,Chittenden,Derway Island Nature Preserve,44.5341724,-73.2674849,Adult Male – 1,,Unspecified,"","",,,,,,,S85014194,"",,,,One might have been sitting on a nesting site. Will continue to check throughout the season to confirm.,Branta canadensis,cangoo,Species,330,,5.00,27,,3333,5000
217395041,Photo,Canada Goose,Branta canadensis,,Brad Imhoff,2020-03-22,2020,3,22,714,United States,US-OH-089,Ohio,Licking,Hebron Fish Hatchery and Wetlands,39.9350130,-82.5143623,"",,Unspecified,"","",,,,,,,S66087382,"",,,,,Branta canadensis,cangoo,Species,330,,4.82,44,,3458,5187
161845881,Photo,Canada Goose,Branta canadensis,,Denny Swaby,2019-05-30,2019,5,30,1630,Cayman Islands,KY-WB,West Bay,,Safehaven,19.3426702,-81.3706684,"",,Unspecified,"","",,,,,,,S56914406,"",,,,Continuing.,Branta canadensis,cangoo,Species,330,,4.81,42,,1374,2000
408296221,Photo,Canada Goose,Branta canadensis,,Matthew Bode,2022-01-15,2022,1,15,803,United States,US-VT-011,Vermont,Franklin,Swanton Falls,44.9206236,-73.1278968,"",,Unspecified,"","",,,,,,,S100756181,"",,,,,Branta canadensis,cangoo,Species,330,,4.78,46,,2409,3614
615965009,Photo,Canada Goose,Branta canadensis,,Brad Imhoff,2024-03-12,2024,3,12,722,United States,US-OH-089,Ohio,Licking,Hebron Fish Hatchery and Wetlands,39.9350130,-82.5143623,"",,Unspecified,"","",,,,,,,S164503504,"",,,,,Branta canadensis,cangoo,Species,330,,5.00,24,,3355,5032
113272931,Photo,Canada Goose,Branta canadensis,,Adit Nehra,2018-06-25,2018,6,25,1900,United States,US-VA-059,Virginia,Fairfax,Sycamore Lake,38.9404731,-77.3944116,Juvenile,,Unspecified,"","",,,,,,,S46800313,"",,,,,Branta canadensis,cangoo,Species,330,,4.79,39,,3456,5184
506127911,Photo,Canada Goose,Branta canadensis,,Fernando Ortega,2022-11-21,2022,11,21,1539,United States,US-NM-001,New Mexico,Bernalillo,Rio Grande Valley SP--Tingley Beach Bosque Trails,35.0807861,-106.6717958,"",,Unspecified,"","",,,,,,,S122804376,"",,,,,Branta canadensis,cangoo,Species,330,,4.96,25,,2667,4000
315413811,Photo,Canada Goose,Branta canadensis,,Matthew Plante,2021-03-10,2021,3,10,658,United States,US-OH-089,Ohio,Licking,Hebron Fish Hatchery and Wetlands,39.9350130,-82.5143623,"",,Unspecified,"","",,,,,,,S83142844,"",,,,,Branta canadensis,cangoo,Species,330,,5.00,23,,3037,4556
461333971,Photo,Canada Goose,Branta canadensis,,Lambert Gauthier,2022-05-21,2022,5,21,855,Canada,CA-QC-MR,Quebec,Montréal,Parc Gouin (cté Montréal),45.5619537,-73.6690414,"",,Unspecified,"","",,,,,,,S110880766,"",,,,5 adultes et 25 jeunes.,Branta canadensis,cangoo,Species,330,,4.78,40,,4000,6016
327024311,Photo,Canada Goose,Branta canadensis,,Alison Davies,2021-04-15,2021,4,15,1333,United States,US-CA-059,California,Orange,"Laguna Niguel Regional Park, Laguna Niguel US-CA 33.54800, -117.70821",33.5480040,-117.7082070,"",,Unspecified,"","",,,,,,,S85631783,"",,,,,Branta canadensis,cangoo,Species,330,,4.82,33,,2274,3995
432022381,Photo,Canada Goose,Branta canadensis,,Alexis Lours,2022-04-03,2022,4,3,1133,France,FR-IDF-92,Île-de-France,Hauts-de-Seine,Parc départemental des Chanteraines,48.9382984,2.3139322,Adult – 1,"Flying; Vocalizing",Unspecified,"","",,,,,,,S106155002,"",,,,,Branta canadensis,cangoo,Species,330,,4.80,35,"",3957,6010
614478458,Photo,Canada Goose,Branta canadensis,,Lory Cantin,2024-02-04,2024,2,4,811,Canada,CA-QC-RS,Quebec,Roussillon,Parc Optimiste (cté Roussillon),45.4052268,-73.5650861,"",,Unspecified,"","",,,,,,,S160661560,"",,,,,Branta canadensis,cangoo,Species,330,,5.00,22,,2949,4423
48958681,Photo,Canada Goose,Branta canadensis,,Jack  Bushong,2017-02-20,2017,2,20,925,United States,US-CO-001,Colorado,Adams,Barr Lake SP,39.9430556,-104.7625000,"",,Unspecified,"","",,,,,,,S34588152,"",,,I love the snowy Rocky Mountains as a backdrop to this image,,Branta canadensis,cangoo,Species,330,,4.75,44,,3456,4608
281704341,Photo,Canada Goose,Branta canadensis,,Kieran Barlow,2020-04-11,2020,4,11,645,United States,US-MA-017,Massachusetts,Middlesex,Charles River Bike Path--Watertown Square,42.3651793,-71.1889118,"",,Unspecified,"","",,,,,,,S76517739,"",,,,estimate. many goslings,Branta canadensis,cangoo,Species,330,,4.81,36,,1365,2048
184785831,Photo,Canada Goose,Branta canadensis,,Mason Maron,2019-10-27,2019,10,27,1624,United States,US-WA-003,Washington,Asotin,Swallows Park,46.3902208,-117.0463657,"",,Unspecified,"","",,,,,,,S60982446,"",,,,,Branta canadensis,cangoo,Species,330,,4.70,47,,3078,4647
429008031,Photo,Canada Goose,Branta canadensis,,Liam Huber,2022-03-26,2022,3,26,805,United States,US-CA-007,California,Butte,Sacramento River NWR--Llano Seco Unit (viewing platform),39.6049938,-121.9096184,"",,Unspecified,"","",,,,,,,S105629086,"",,,,,Branta canadensis,cangoo,Species,330,,4.95,22,,3219,4940
439621081,Photo,Canada Goose,Branta canadensis,,Chris McDonald,2022-04-24,2022,4,24,841,Canada,CA-BC-FV,British Columbia,Fraser Valley,Cheam Lake Wetlands Regional Park,49.1955556,-121.7525000,"",,Unspecified,"","",,,,,,,S107921379,"",,,,Goslings too,Branta canadensis,cangoo,Species,330,,4.73,37,,1365,2048
153275311,Photo,Canada Goose,Branta canadensis,,Drew Chaney,2019-04-23,2019,4,23,1642,United States,US-VA-003,Virginia,Albemarle,Monticello High School Lake,38.0018780,-78.4915853,"",,Unspecified,"","",,,,,,,S55309965,"",,,,5 downy young.,Branta canadensis,cangoo,Species,330,,4.85,26,,,
280977241,Photo,Canada Goose,Branta canadensis,,Bill Wood,2020-11-18,2020,11,18,1108,United States,US-VA-041,Virginia,Chesterfield,Dutch Gap Conservation Area/Henricus Historical Park,37.3745951,-77.3628956,Adult – 1,Flying,Unspecified,"","",,,,,,,S76386703,"",,,,,Branta canadensis,cangoo,Species,330,,4.73,33,Habitat,1853,2780
149989961,Photo,Canada Goose,Branta canadensis,,Don Danko,2019-04-08,2019,4,8,1856,United States,US-OH-153,Ohio,Summit,"N Hametown Rd, Akron US-OH (41.2020,-81.6656)",41.2020190,-81.6655570,"",,Unspecified,"","",,,,,,,S54728486,"",,,,Partially leucistic Canada Goose with a small group of other normally colored geese.,Branta canadensis,cangoo,Species,330,,4.90,21,,1779,2669
615965004,Photo,Canada Goose,Branta canadensis,,Brad Imhoff,2024-03-12,2024,3,12,722,United States,US-OH-089,Ohio,Licking,Hebron Fish Hatchery and Wetlands,39.9350130,-82.5143623,"",,Unspecified,"","",,,,,,,S164503504,"",,,,,Branta canadensis,cangoo,Species,330,,5.00,18,,3354,5031
59548671,Photo,Canada Goose (moffitti/maxima),Branta canadensis moffitti/maxima,,Paul Fenwick,2017-05-26,2017,5,26,811,United States,US-CA-053,California,Monterey,Laguna Grande Park,36.6034126,-121.8568645,Juvenile Female,,Unspecified,"","",,,,,,,S37158436,"",,,,,Branta canadensis,cangoo4,Group,331,,4.64,42,,2271,2846
161849551,Photo,Canada Goose,Branta canadensis,,Denny Swaby,2019-05-30,2019,5,30,1630,Cayman Islands,KY-WB,West Bay,,Safehaven,19.3426702,-81.3706684,"",,Unspecified,"","",,,,,,,S56914406,"",,,,Continuing.,Branta canadensis,cangoo,Species,330,,4.83,24,,1375,2000
610951450,Photo,Canada Goose,Branta canadensis,,Max Kelly,2023-10-26,2023,10,26,1630,United States,US-IL-031,Illinois,Cook,"Montrose Point Bird Sanctuary, Lincoln Park, Chicago",41.9633833,-87.6344204,"",,Unspecified,"","",,,,,,,S154076541,"",,,,,Branta canadensis,cangoo,Species,330,,5.00,17,,3580,5370
329697211,Photo,Canada Goose,Branta canadensis,,Brad Imhoff,2021-04-24,2021,4,24,645,United States,US-OH-089,Ohio,Licking,Buckeye Lake (Licking Co.),39.9335322,-82.4561477,"",,Unspecified,"","",,,,,,,S86227951,"",,,,,Branta canadensis,cangoo,Species,330,,5.00,17,,4079,6113
360787171,Photo,Canada Goose,Branta canadensis,,Aidan Brubaker,2021-08-12,2021,8,12,752,United States,US-CA-067,California,Sacramento,Mississippi Bar,38.6495393,-121.2030065,"",,Unspecified,"","",,,,,,,S93130946,"",,,,,Branta canadensis,cangoo,Species,330,,4.74,27,,1770,2458
626432326,Photo,Canada Goose,Branta canadensis,,Hannah Criswell,2024-11-05,2024,11,5,1503,United States,US-CO-031,Colorado,Denver,"Sloan's Lake Park",39.7485509,-105.0461089,"",,Unspecified,"","",,,,,,,S201526009,"",,,,,Branta canadensis,cangoo,Species,330,,4.80,25,,3205,4006
223631791,Photo,Canada Goose,Branta canadensis,,Simon Boivin,2020-04-14,2020,4,14,853,Canada,CA-QC-SAG,Quebec,Saguenay,Anse à Benjamin,48.3555250,-70.8660221,"",,Unspecified,"","",,,,,,,S67194695,"",,,,,Branta canadensis,cangoo,Species,330,,4.58,50,,3068,4624
608344477,Photo,Canada Goose,Branta canadensis,,Rain Saulnier,2023-08-05,2023,8,5,1510,Canada,CA-AB-FN,Alberta,Banff,Banff National Park--Vermilion Lakes,51.1784927,-115.6018546,"","",Unspecified,"","",,,,,,,S146561174,"",,,,,Branta canadensis,cangoo,Species,330,,4.41,124,Habitat,3735,5602
424620631,Photo,Canada Goose (moffitti/maxima),Branta canadensis moffitti/maxima,,Andrew Thomas 🦅🪶,2022-03-12,2022,3,12,1503,United States,US-WA-063,Washington,Spokane,Riverfront Park,47.6620575,-117.4196938,"",,Unspecified,"","",,,,,,,S104710735,"",,,,Colar Code: XY18,Branta canadensis,cangoo4,Group,331,,5.00,16,,3168,4752
623068235,Photo,Canada Goose,Branta canadensis,,Andrew Simon,2024-05-05,2024,5,5,1217,United States,US-OH-093,Ohio,Lorain,Menards Retention Pond,41.4707804,-82.0143701,"",,Unspecified,"","",,,,,,,S172202078,"",,,,,Branta canadensis,cangoo,Species,330,,4.89,19,,2719,4078
348009701,Photo,Canada Goose,Branta canadensis,,Davin MacAskill,2020-06-24,2020,6,24,1415,Canada,CA-NB-WE,New Brunswick,Westmorland,Sackville--Waterfowl Park,45.9027615,-64.3674803,"",,Unspecified,"","",,,,,,,S90235611,"",,,,,Branta canadensis,cangoo,Species,330,,4.64,33,,2518,3777
509753041,Photo,Canada Goose,Branta canadensis,,James Moodie,2022-12-03,2022,12,3,936,United States,US-OR-017,Oregon,Deschutes,Deschutes River Trail--Old Mill (Mill A  and  Loggers Loops),44.0450640,-121.3164210,Adult – 1,Flying,Unspecified,"","",,,,,,,S123395316,"",,,,,Branta canadensis,cangoo,Species,330,,4.94,16,"",3712,5568
134149641,Photo,Canada Goose,Branta canadensis,,Levi Plummer,2018-12-31,2018,12,31,705,United States,US-AZ-013,Arizona,Maricopa,Riparian Preserve at Gilbert Water Ranch,33.3614502,-111.7339478,"",,Unspecified,"","",,,,,,,S51125164,"",,,,,Branta canadensis,cangoo,Species,330,,4.88,17,,3006,4392
156960791,Photo,Canada Goose,Branta canadensis,,Steeve R. Baker,2019-05-07,2019,5,7,1720,Canada,CA-QC-QU,Quebec,Québec,Etang de rétention Jean-Gauvin,46.8073123,-71.4324939,Adult,,Unspecified,"","",,,,,,,S55987733,"",,,,,Branta canadensis,cangoo,Species,330,,4.62,29,,1452,2200
612205651,Photo,Canada Goose,Branta canadensis,,Matt Hoberg,2023-12-12,2023,12,12,708,United States,US-MN-053,Minnesota,Hennepin,Minnesota Valley NWR--Bass Ponds,44.8447900,-93.2300700,"",,Unspecified,"","",,,,,,,S156189459,"",,,,,Branta canadensis,cangoo,Species,330,,4.68,25,,2411,3616
424620651,Photo,Canada Goose (moffitti/maxima),Branta canadensis moffitti/maxima,,Andrew Thomas 🦅🪶,2022-03-12,2022,3,12,1503,United States,US-WA-063,Washington,Spokane,Riverfront Park,47.6620575,-117.4196938,"",,Unspecified,"","",,,,,,,S104710735,"",,,,Colar Code: XY18,Branta canadensis,cangoo4,Group,331,,5.00,14,,3168,4752
447958831,Photo,Canada Goose,Branta canadensis,,Ronan Nicholson,2022-05-07,2022,5,7,1320,United States,US-NC-021,North Carolina,Buncombe,Warren Wilson College--Owen Park,35.6100716,-82.4282965,Juvenile – 1,,Unspecified,"","",,,,,,,S109249922,"",,,,,Branta canadensis,cangoo,Species,330,,4.93,15,,3301,4951
217991391,Photo,Canada Goose,Branta canadensis,,Brad Imhoff,2020-03-25,2020,3,25,931,United States,US-OH-089,Ohio,Licking,"T. J. Evans Park, Newark",40.0925184,-82.4187469,"",,Unspecified,"","",,,,,,,S66197256,"",,,,,Branta canadensis,cangoo,Species,330,,4.93,15,,2443,3664
229540151,Photo,Canada Goose,Branta canadensis,,Mason Maron,2020-04-18,2020,4,18,1751,United States,US-WA-003,Washington,Asotin,Swallows Park,46.3902208,-117.0463657,Juvenile – 1,,Unspecified,"","",,,,,,,S67438640,"",,,,Several pairs with young.,Branta canadensis,cangoo,Species,330,,4.61,31,,2572,4572
91238861,Photo,Canada Goose,Branta canadensis,,Ken Pitts,2018-03-24,2018,3,24,900,United States,US-WA-011,Washington,Clark,Steigerwald Lake NWR,45.5676572,-122.3147392,"",,Unspecified,"","",,,,,,,S43922427,"",,,,,Branta canadensis,cangoo,Species,330,,4.57,28,,2916,4065
44769471,Photo,Canada Goose,Branta canadensis,,Jay McGowan,2016-12-30,2016,12,30,1408,United States,US-NY-059,New York,Nassau,Arthur J. Hendrickson Park,40.6696888,-73.6988690,"",,Unspecified,"","",,,,,,,S33297864,"",,,,,Branta canadensis,cangoo,Species,330,,4.78,18,,3648,5472
44766851,Photo,Canada Goose,Branta canadensis,,Jay McGowan,2016-12-30,2016,12,30,1408,United States,US-NY-059,New York,Nassau,Arthur J. Hendrickson Park,40.6696888,-73.6988690,"",,Unspecified,"","",,,,,,,S33297864,"",,,,,Branta canadensis,cangoo,Species,330,,4.81,16,,3493,5362
562713371,Photo,Canada Goose,Branta canadensis,,Brett Hoffman,2023-04-25,2023,4,25,739,United States,US-FL-103,Florida,Pinellas,Roosevelt Wetland,27.8708722,-82.6895428,"",,Unspecified,"","",,,,,,,S134985913,"",,,,I was not sure where the reported Goose nest was but this guy let me know I was getting close and chased me back down the path.,Branta canadensis,cangoo,Species,330,,5.00,12,,2995,4492
339244561,Photo,Canada Goose,Branta canadensis,,Sasha Cahill,2021-05-16,2021,5,16,1115,United States,US-CA-059,California,Orange,"William R Mason Regional Park, Irvine",33.6561023,-117.8293562,Juvenile – 2,Foraging or Eating,Unspecified,"","",,,,,,,S88316948,"",,,,,Branta canadensis,cangoo,Species,330,,5.00,12,"",1904,3436
444528971,Photo,Canada Goose,Branta canadensis,,Braxton Landsman,2022-05-05,2022,5,5,1132,United States,US-CA-059,California,Orange,Laguna Niguel Regional Park,33.5494066,-117.7098370,"",,Unspecified,"","",,,,,,,S109040911,"",,,,31 goslings. Estimate.,Branta canadensis,cangoo,Species,330,,4.48,33,,3520,5246
568097891,Photo,Canada Goose,Branta canadensis,,Andrew Thomas 🦅🪶,2023-05-06,2023,5,6,1145,United States,US-WA-001,Washington,Adams,Sprague Lake (Adams Co.),47.2442050,-118.0695700,Juvenile Male – 1,Vocalizing,Unspecified,"","",,,,,,,S136400234,"",,,,,Branta canadensis,cangoo,Species,330,,4.92,13,"",2320,3472
434149571,Photo,Canada Goose,Branta canadensis,,Andrew Thomas 🦅🪶,2022-04-09,2022,4,9,1615,United States,US-WA-063,Washington,Spokane,Saltese Flats,47.6402533,-117.1261561,"",,Unspecified,"","",,,,,,,S106664756,"",,,,,Branta canadensis,cangoo,Species,330,,4.92,13,,3168,4752
434149561,Photo,Canada Goose,Branta canadensis,,Andrew Thomas 🦅🪶,2022-04-09,2022,4,9,1615,United States,US-WA-063,Washington,Spokane,Saltese Flats,47.6402533,-117.1261561,"",,Unspecified,"","",,,,,,,S106664756,"",,,,,Branta canadensis,cangoo,Species,330,,4.92,13,,3168,4752
237927681,Photo,Canada Goose,Branta canadensis,,Etienne Artigau🦩,2020-05-23,2020,5,23,1559,Canada,CA-QC-MR,Quebec,Montréal,Parc des Rapides,45.4277985,-73.5921872,Juvenile – 1,,Unspecified,"","",,,,,,,S69528472,"",,,,x6f2,Branta canadensis,cangoo,Species,330,,4.92,13,,2579,3884
209373131,Photo,Canada Goose,Branta canadensis,,Jack Parlapiano,2020-02-15,2020,2,15,913,United States,US-NM-001,New Mexico,Bernalillo,The Canyon Club at Four Hills (please ask for permission),35.0507141,-106.4967990,"",,Unspecified,"","",,,,,,,S64513072,"",,,,,Branta canadensis,cangoo,Species,330,,4.86,14,,1365,2048
55794451,Photo,Canada Goose,Branta canadensis,,Jason B Bidgood,2017-04-25,2017,4,25,830,United States,US-CO-031,Colorado,Denver,Denver City Park,39.7474539,-104.9455476,Juvenile,,Unspecified,"","",,,,,,,S36274651,"",,,,Four of the Eight goslings near duck lake.,Branta canadensis,cangoo,Species,330,,4.68,19,,2641,4695
316692941,Photo,Canada Goose,Branta canadensis,,Neil Rucker,2021-03-14,2021,3,14,730,United States,US-AZ-013,Arizona,Maricopa,Evelyn Hallman Park,33.4480905,-111.9371943,"",,Unspecified,"","",,,,,,,S83400753,"",,,,,Branta canadensis,cangoo,Species,330,,4.71,17,,3712,5568
518247161,Photo,Canada Goose,Branta canadensis,,Elizabeth Seddon,2022-12-29,2022,12,29,740,United Kingdom,GB-ENG-MAN,England,Manchester,Elton Reservoir,53.5811472,-2.3186779,Adult – 1,,Unspecified,"","",,,,,,,S124832957,"",,,,,Branta canadensis,cangoo,Species,330,,4.72,18,,3000,4000
615964800,Photo,Canada Goose,Branta canadensis,,Brad Imhoff,2024-03-12,2024,3,12,722,United States,US-OH-089,Ohio,Licking,Hebron Fish Hatchery and Wetlands,39.9350130,-82.5143623,"",,Unspecified,"","",,,,,,,S164503504,"",,,,,Branta canadensis,cangoo,Species,330,,4.80,15,,5049,7573
49344561,Photo,Canada Goose,Branta canadensis,,Max McCarthy,2017-02-24,2017,2,24,1400,United States,US-MA-025,Massachusetts,Suffolk,Fenway Victory Gardens,42.3437644,-71.0928297,"",,Unspecified,"","",,,,,,,S34770350,"",,,,,Branta canadensis,cangoo,Species,330,,4.59,22,,3563,5359
88284151,Photo,Canada Goose,Branta canadensis,,Robert Scribner,2018-02-26,2018,2,26,1705,United States,US-PA-049,Pennsylvania,Erie,Presque Isle SP--Thompson Bay,42.1681112,-80.0817490,Adult,"",Unspecified,"","",,,,,,,S43224880,"",,,,,Branta canadensis,cangoo,Species,330,,4.25,60,Habitat,1542,2560
628801909,Photo,Canada Goose,Branta canadensis,,Kalin Ocaña,2025-01-02,2025,1,2,1156,Canada,CA-ON-HA,Ontario,Hamilton,Hamilton--Royal Botanical Gardens (general location),43.2816731,-79.9144864,"",,Unspecified,"","",,,,,,,S207772631,"",,,,,Branta canadensis,cangoo,Species,330,,5.00,11,,3483,4672
619420721,Photo,Canada Goose,Branta canadensis,,Tommy Quarles,2024-05-21,2024,5,21,754,United States,US-CA-059,California,Orange,"IRWD San Joaquin Marsh & Wildlife Sanctuary, Irvine",33.6637274,-117.8426814,"",,Unspecified,"","",,,,,,,S176173409,"",,,,,Branta canadensis,cangoo,Species,330,,5.00,11,,2917,4375
615964741,Photo,Canada Goose,Branta canadensis,,Brad Imhoff,2024-03-12,2024,3,12,722,United States,US-OH-089,Ohio,Licking,Hebron Fish Hatchery and Wetlands,39.9350130,-82.5143623,"",,Unspecified,"","",,,,,,,S164503504,"",,,,,Branta canadensis,cangoo,Species,330,,5.00,11,,5141,7711
439804131,Photo,Canada Goose,Branta canadensis,,Andrew Thomas 🦅🪶,2022-04-23,2022,4,23,1642,United States,US-WA-063,Washington,Spokane,Saltese Flats,47.6402533,-117.1261561,"",,Unspecified,"","",,,,,,,S107853763,"",,,,,Branta canadensis,cangoo,Species,330,,5.00,11,,3168,4752
318567751,Photo,Canada Goose,Branta canadensis,,Brad Imhoff,2021-03-21,2021,3,21,656,United States,US-OH-089,Ohio,Licking,Hebron Fish Hatchery and Wetlands,39.9350130,-82.5143623,"",,Unspecified,"","",,,,,,,S83805985,"",,,,,Branta canadensis,cangoo,Species,330,,5.00,11,,2971,4454
595510601,Photo,Canada Goose,Branta canadensis,,Brad Vissia,2023-07-18,2023,7,18,1205,Canada,CA-BC-CP,British Columbia,Capital,Galiano Island,48.9328753,-123.4557724,"",,Unspecified,"","",,,,,,,S145029435,"",,,,,Branta canadensis,cangoo,Species,330,,4.92,12,,1645,2195
450640661,Photo,Canada Goose,Branta canadensis,,Andrew Thomas 🦅🪶,2022-05-04,2022,5,4,1800,United States,US-WA-063,Washington,Spokane,Riverfront Park,47.6620575,-117.4196938,"",,Unspecified,"","",,,,,,,S110632990,"",,,,,Branta canadensis,cangoo,Species,330,,4.92,12,,724,1086
418251041,Photo,Canada Goose,Branta canadensis,,Andrew Thomas 🦅🪶,2022-02-19,2022,2,19,630,United States,US-WA-063,Washington,Spokane,Saltese Flats,47.6402533,-117.1261561,"","",Unspecified,"","",,,,,,,S103046685,"",,,,,Branta canadensis,cangoo,Species,330,,4.92,12,Habitat,3168,4752
239474201,Photo,Canada Goose,Branta canadensis,,Mike Cameron,2020-05-28,2020,5,28,1812,United States,US-TX-181,Texas,Grayson,Hagerman NWR,33.7385706,-96.7527511,Adult – 1,,Unspecified,"","",,,,,,,S69777945,"",,,,,Branta canadensis,cangoo,Species,330,,4.92,12,,2048,1536
160964601,Photo,Canada Goose,Branta canadensis,,Woodward H. Pufflequins III,2019-05-26,2019,5,26,908,United States,US-VA-121,Virginia,Montgomery,Virginia Tech--Duck Pond,37.2251344,-80.4286551,Juvenile,,Unspecified,"","",,,,,,,S56750566,"",,,,,Branta canadensis,cangoo,Species,330,,4.92,12,,1080,1620
443860811,Photo,Canada Goose,Branta canadensis,,Anonymous,2022-05-03,2022,5,3,1720,United States,US-VA-059,Virginia,Fairfax,Green Spring Garden Park,38.8239785,-77.1565318,"",,Unspecified,"","",,,,,,,S108853615,"",,,,,Branta canadensis,cangoo,Species,330,,4.85,13,,1365,2047
300943251,Photo,Canada Goose,Branta canadensis,,Neil Rucker,2021-01-24,2021,1,24,745,United States,US-AZ-013,Arizona,Maricopa,Riparian Preserve at Gilbert Water Ranch,33.3614502,-111.7339478,"",,Unspecified,"","",,,,,,,S79839256,"",,,,,Branta canadensis,cangoo,Species,330,,4.85,13,,2232,3353
622689905,Photo,Canada Goose,Branta canadensis,,James Tornetta,2024-08-09,2024,8,9,1456,United States,US-PA-091,Pennsylvania,Montgomery,Flat Rock Park,40.0441912,-75.2538586,"",,Unspecified,"","",,,,,,,S190804490,"",,,,,Branta canadensis,cangoo,Species,330,,4.71,17,,1707,2560
584798131,Photo,Canada Goose,Branta canadensis,,Sawyer Dawson,2023-06-14,2023,6,14,1726,Canada,CA-ON-MI,Ontario,Middlesex,London--Uplands North Wetland,43.0444616,-81.2719346,"",,Unspecified,"","",,,,,,,S141577457,"",,,,,Branta canadensis,cangoo,Species,330,,4.85,13,,2896,4157
573240191,Photo,Canada Goose,Branta canadensis,,Dan Tallman,2023-05-16,2023,5,16,838,United States,US-WA-067,Washington,Thurston,Billy Frank Jr. Nisqually NWR,47.0812514,-122.7180576,Adult – 1,"Courtship, Display, or Copulation",Unspecified,"","",,,,,,,S138016016,"",,,,,Branta canadensis,cangoo,Species,330,,4.85,13,"",2250,1800
216987841,Photo,Canada Goose,Branta canadensis,,Matthew Plante,2020-03-21,2020,3,21,805,United States,US-OH-089,Ohio,Licking,Hebron Fish Hatchery and Wetlands,39.9350130,-82.5143623,"",,Unspecified,"","",,,,,,,S66039601,"",,,,,Branta canadensis,cangoo,Species,330,,4.73,15,,3084,4626
77740751,Photo,Canada Goose,Branta canadensis,,Jeffrey Boland,2017-12-10,2017,12,10,804,United States,US-IL-043,Illinois,DuPage,West Branch Forest Preserve,41.9326501,-88.1819773,"",,Unspecified,"","",,,,,,,S41006482,"",,,,,Branta canadensis,cangoo,Species,330,,4.15,107,,2247,3373
51231321,Photo,Canada Goose,Branta canadensis,,Jeff Langford,2017-03-14,2017,3,14,1500,United States,US-UT-035,Utah,Salt Lake,Red Butte Garden,40.7633812,-111.8243837,"","",Unspecified,"","",,,,,,,S35192905,"",,,,,Branta canadensis,cangoo,Species,330,,4.17,82,Habitat,3163,4744
622746285,Photo,Canada Goose,Branta canadensis,,Aquiles Brinco,2024-08-19,2024,8,19,1340,United States,US-OR-039,Oregon,Lane,Kingfisher near LEWO nest,44.1596730,-122.2778400,"","",Unspecified,"","",,,,,,,S192103217,"",,,,,Branta canadensis,cangoo,Species,330,,4.59,22,Habitat,900,1600
622746330,Photo,Canada Goose,Branta canadensis,,Aquiles Brinco,2024-08-19,2024,8,19,1340,United States,US-OR-039,Oregon,Lane,Kingfisher near LEWO nest,44.1596730,-122.2778400,Adult – 3,"",Unspecified,"","",,,,,,,S192103217,"",,,,,Branta canadensis,cangoo,Species,330,,4.54,24,Habitat,900,1600
222975121,Photo,Canada Goose,Branta canadensis,,Annie Lavoie,2020-04-12,2020,4,12,824,Canada,CA-QC-SAG,Quebec,Saguenay,La Baie - Anse à Benjamin,48.3562811,-70.8648232,"",,Unspecified,"","",,,,,,,S67096412,"",,,,,Branta canadensis,cangoo,Species,330,,4.40,25,,2549,3824
548338101,Photo,Canada Goose,Branta canadensis,,Ryan Justice,2023-03-19,2023,3,19,1036,United States,US-NC-129,North Carolina,New Hanover,Airlie Gardens,34.2150000,-77.8294444,"",,Unspecified,"","",,,,,,,S131290952,"",,,,,Branta canadensis,cangoo,Species,330,,4.42,26,,4111,6656
145091411,Photo,Canada Goose,Branta canadensis,,Brad Imhoff,2019-03-12,2019,3,12,1139,United States,US-OH-089,Ohio,Licking,Buckeye Lake (Licking Co.),39.9335322,-82.4561477,"",,Unspecified,"","",,,,,,,S53743548,"",,,,,Branta canadensis,cangoo,Species,330,,4.55,20,,3655,5482
139494521,Photo,Canada Goose,Branta canadensis,,August Davidson-Onsgard,2019-02-05,2019,2,5,1300,United States,US-NY-047,New York,Kings,Prospect Park--Prospect Lake,40.6553787,-73.9686421,"",,Unspecified,"","",,,,,,,S52416867,"",,,,,Branta canadensis,cangoo,Species,330,,4.71,14,,,
61884851,Photo,Canada Goose,Branta canadensis,,Matt Hofeditz,2017-06-25,2017,6,25,705,United States,US-CO-013,Colorado,Boulder,Stearns Lake,39.9473188,-105.1050854,"",,Unspecified,"","",,,,,,,S37791964,"",,,,A flock of five feeding along the trail just east of the parking lot.,Branta canadensis,cangoo,Species,330,,4.24,50,,3000,4000
571336571,Photo,Canada Goose,Branta canadensis,,Gordon Johnston,2023-05-13,2023,5,13,740,Canada,CA-ON-OT,Ontario,Ottawa,Ottawa--Remic Rapids and Champlain Bridge area,45.4071871,-75.7472820,"",,Unspecified,"","",,,,,,,S137506338,"",,,,including several goslings,Branta canadensis,cangoo,Species,330,,4.83,12,,1000,1900
467746391,Photo,Canada Goose,Branta canadensis,,Jonathan Taffet,2022-07-16,2022,7,16,745,United States,US-IL-031,Illinois,Cook,"Montrose Point Bird Sanctuary, Lincoln Park, Chicago",41.9633833,-87.6344204,"",,Unspecified,"","",,,,,,,S115182800,"",,,,,Branta canadensis,cangoo,Species,330,,4.91,11,,3663,5494
624567839,Photo,Canada Goose,Branta canadensis,,Caiden B,2024-10-01,2024,10,1,727,New Zealand,NZ-BOP-024,Bay of Plenty,Rotorua District,Lake Tarawera--NW corner,-38.1699914,176.3944244,"",,Unspecified,"","",,,,,,,S197392138,"",,,,,Branta canadensis,cangoo,Species,330,,4.91,11,,2501,3792
626678935,Photo,Canada Goose,Branta canadensis,,Gihyun Yoo,2024-11-24,2024,11,24,1513,Canada,CA-ON-TO,Ontario,Toronto,Toronto--Sunnyside Beach,43.6358463,-79.4625759,"",,Unspecified,"","",,,,,,,S203528883,"",,,Cobra chicken,,Branta canadensis,cangoo,Species,330,,5.00,10,,2577,2577
611204297,Photo,Canada Goose,Branta canadensis,,Quinn Diaz,2023-11-14,2023,11,14,1303,United States,US-UT-035,Utah,Salt Lake,Decker Lake,40.7114011,-111.9488016,"",,Unspecified,"","",,,,,,,S154460218,"",,,,,Branta canadensis,cangoo,Species,330,,5.00,10,,3690,5535
568097901,Photo,Canada Goose,Branta canadensis,,Andrew Thomas 🦅🪶,2023-05-06,2023,5,6,1145,United States,US-WA-001,Washington,Adams,Sprague Lake (Adams Co.),47.2442050,-118.0695700,Juvenile Male – 1,Vocalizing,Unspecified,"","",,,,,,,S136400234,"",,,,,Branta canadensis,cangoo,Species,330,,5.00,10,"",2320,3472
568097821,Photo,Canada Goose,Branta canadensis,,Andrew Thomas 🦅🪶,2023-05-06,2023,5,6,1145,United States,US-WA-001,Washington,Adams,Sprague Lake (Adams Co.),47.2442050,-118.0695700,Juvenile Male – 1,Vocalizing,Unspecified,"","",,,,,,,S136400234,"",,,,,Branta canadensis,cangoo,Species,330,,5.00,10,"",2320,3472
564531461,Photo,Canada Goose,Branta canadensis,,Henrey Deese,2023-04-29,2023,4,29,702,United States,US-GA-031,Georgia,Bulloch,Georgia Southern University (Statesboro Campus),32.4241553,-81.7837328,Juvenile – 4,,Unspecified,"","",,,,,,,S135397958,"",,,,,Branta canadensis,cangoo,Species,330,,5.00,10,,3003,4504
330664501,Photo,Canada Goose,Branta canadensis,,David Turgeon,2019-08-13,2019,8,13,1643,Canada,CA-QC-HC,Quebec,La Haute-Côte-Nord,Parc de la Rivière (cté Haute-Côte-Nord),48.3444594,-69.4105563,Unknown – 1,,Unspecified,"","",,,,,,,S58971807,"",,,,"Un groupe familial qui s'alimente sur la pelouse.",Branta canadensis,cangoo,Species,330,,5.00,10,,2993,4490
318567731,Photo,Canada Goose,Branta canadensis,,Brad Imhoff,2021-03-21,2021,3,21,656,United States,US-OH-089,Ohio,Licking,Hebron Fish Hatchery and Wetlands,39.9350130,-82.5143623,"",,Unspecified,"","",,,,,,,S83805985,"",,,,,Branta canadensis,cangoo,Species,330,,5.00,10,,2975,4460
316950241,Photo,Canada Goose,Branta canadensis,,Lukasz Ifczok,2020-05-29,2020,5,29,1300,Poland,PL-SL,Slaskie,,Pogoria III Lake,50.3520630,19.2026940,"",,Unspecified,"","",,,,,,,S83458791,"",,,,,Branta canadensis,cangoo,Species,330,,5.00,10,,1080,1920
196796551,Photo,Canada Goose,Branta canadensis,,Ryan Sanderson,2020-01-02,2020,1,2,842,United States,US-IN-097,Indiana,Marion,Eagle Creek Park,39.8751000,-86.3037000,"Adult Male – 1; Adult – 1",,Unspecified,"","",,,,,,,S62909012,"",,,,,Branta canadensis,cangoo,Species,330,,5.00,10,,3545,2363
212700031,Photo,Canada Goose,Branta canadensis,,Cesar Ponce,2020-02-29,2020,2,29,1605,Canada,CA-ON-TO,Ontario,Toronto,Toronto--Humber Bay Park (East),43.6226560,-79.4737351,"",,Unspecified,"","",,,,,,,S65294128,"",,,,,Branta canadensis,cangoo,Species,330,,4.55,22,,3280,5467
622746063,Photo,Canada Goose,Branta canadensis,,Aquiles Brinco,2024-08-19,2024,8,19,1340,United States,US-OR-039,Oregon,Lane,Kingfisher near LEWO nest,44.1596730,-122.2778400,Adult – 1,"",Unspecified,"","",,,,,,,S192103217,"",,,,,Branta canadensis,cangoo,Species,330,,4.57,21,Habitat,1067,1600
622746010,Photo,Canada Goose,Branta canadensis,,Aquiles Brinco,2024-08-19,2024,8,19,1340,United States,US-OR-039,Oregon,Lane,Kingfisher near LEWO nest,44.1596730,-122.2778400,Adult – 1,"",Unspecified,"","",,,,,,,S192103217,"",,,,,Branta canadensis,cangoo,Species,330,,4.57,21,Habitat,1067,1600
583776941,Photo,Canada Goose,Branta canadensis,,Derek Hudgins,2020-04-22,2020,4,22,1039,United States,US-MD-013,Maryland,Carroll,Westminster Community Pond,39.5917155,-76.9952050,Adult – 1,Foraging or Eating,Unspecified,"","",,,,,,,S67624502,"",,,,,Branta canadensis,cangoo,Species,330,,4.83,12,"",2850,4275
329565151,Photo,Canada Goose,Branta canadensis,,Loni Ye,2021-04-23,2021,4,23,635,United States,US-CA-085,California,Santa Clara,Shoreline Park--Shoreline Lake area,37.4323410,-122.0918369,"",,Unspecified,"","",,,,,,,S86208310,"",,,,Including six babies in two families,Branta canadensis,cangoo,Species,330,,4.83,12,,2677,4015
169509821,Photo,Canada Goose,Branta canadensis,,Tomas Koeck,2019-07-23,2019,7,23,1045,United States,US-CT-001,Connecticut,Fairfield,Sherwood Island State Park,41.1157809,-73.3305955,"",,Unspecified,"","",,,,,,,S58395336,"",,,,,Branta canadensis,cangoo,Species,330,,4.83,12,,4683,4000
221803591,Photo,Canada Goose,Branta canadensis,,Joseph Salmieri Jr.,2020-04-08,2020,4,8,712,United States,US-NJ-007,New Jersey,Camden,Kirkwood Lake,39.8349376,-74.9938881,Adult – 1,,Unspecified,"","",,,,,,,S66817435,"",,,,,Branta canadensis,cangoo,Species,330,,4.28,36,,4000,6000
578292241,Photo,Canada Goose,Branta canadensis,,Ryan Justice,2023-05-03,2023,5,3,634,United States,US-NC-189,North Carolina,Watauga,Chetola Lake--Chetola Resort at Blowing Rock (restricted),36.1384206,-81.6722935,"",,Unspecified,"","",,,,,,,S135901289,"",,,,,Branta canadensis,cangoo,Species,330,,4.45,22,,3612,6960
629414778,Photo,Canada Goose,Branta canadensis,,Matthew Dolkart,2025-01-20,2025,1,20,650,United States,US-IL-031,Illinois,Cook,"River Park, Chicago",41.9739848,-87.7039111,"",,Unspecified,"","",,,,,,,S210041637,"",,,,,Branta canadensis,cangoo,Species,330,,4.67,15,,4904,7356
622745734,Photo,Canada Goose,Branta canadensis,,Aquiles Brinco,2024-08-19,2024,8,19,1340,United States,US-OR-039,Oregon,Lane,Kingfisher near LEWO nest,44.1596730,-122.2778400,Adult – 2,,Unspecified,"","",,,,,,,S192103217,"",,,,,Branta canadensis,cangoo,Species,330,,4.50,22,,900,1600
454080061,Photo,Canada Goose,Branta canadensis,,Frederik Gustavsson,2022-05-19,2022,5,19,1723,Canada,CA-QC-MR,Quebec,Montréal,Technoparc Mtl--Éco-Campus,45.4773730,-73.7581440,"",,Unspecified,"","",,,,,,,S110706849,"",,,,Including 10 Goslings,Branta canadensis,cangoo,Species,330,,4.75,12,,2386,3773
450471491,Photo,Canada Goose,Branta canadensis,,Rain Saulnier,2022-05-11,2022,5,11,544,Canada,CA-ON-ES,Ontario,Essex,Point Pelee National Park (general location),41.9553986,-82.5139999,Juvenile – 1,Foraging or Eating,Unspecified,"","",,,,,,,S109875634,"",,,,,Branta canadensis,cangoo,Species,330,,4.82,11,"",3359,5039
398447731,Photo,Canada Goose,Branta canadensis,,Bill Wood,2021-12-22,2021,12,22,1428,United States,US-VA-041,Virginia,Chesterfield,Dutch Gap Conservation Area/Henricus Historical Park,37.3745951,-77.3628956,Adult – 1,Flying,Unspecified,"","",,,,,,,S99340356,"",,,,,Branta canadensis,cangoo,Species,330,,4.82,11,Habitat,2210,3314
388697431,Photo,Canada Goose,Branta canadensis,,Andrew Thomas 🦅🪶,2021-11-16,2021,11,16,1349,United States,US-WA-063,Washington,Spokane,Wandermere Golf Course lake,47.7817166,-117.3980548,"",,Unspecified,"","",,,,,,,S97688568,"",,,,Fair estimate. Likely more,Branta canadensis,cangoo,Species,330,,4.82,11,,3168,4752
56080131,Photo,Canada Goose,Branta canadensis,,Ian Hearn,2017-04-26,2017,4,26,730,United States,US-ID-001,Idaho,Ada,Esther Simplot Park,43.6281234,-116.2303734,Juvenile,,Unspecified,"","",,,,,,,S36374641,"",,,,,Branta canadensis,cangoo,Species,330,,4.82,11,,3000,4000
159811791,Photo,Canada Goose,Branta canadensis,,Volker Hesse,2019-05-04,2019,5,4,1600,Germany,DE-BW-KA2,Baden-Württemberg,Karlsruhe,Wagbachniederung (NSG),49.2657323,8.5172796,Immature,,Unspecified,"","",,,,,,,S55840367,"",,,,,Branta canadensis,cangoo,Species,330,,4.69,13,,3648,5472
87650691,Photo,Canada Goose,Branta canadensis,,Robert Scribner,2018-02-26,2018,2,26,1705,United States,US-PA-049,Pennsylvania,Erie,Presque Isle SP--Thompson Bay,42.1681112,-80.0817490,Adult,,Unspecified,"","",,,,,,,S43224880,"",,,,,Branta canadensis,cangoo,Species,330,,4.06,89,,828,1269
617829388,Photo,Canada Goose,Branta canadensis,,John Plummer,2024-04-22,2024,4,22,935,United States,US-IL-089,Illinois,Kane,Buffalo Park Forest Preserve,42.1515729,-88.2938157,"",,Unspecified,"","",,,,,,,S169895641,"",,,,,Branta canadensis,cangoo,Species,330,,4.90,10,,1826,3016
426597051,Photo,Canada Goose,Branta canadensis,,Tom Devecseri,2022-03-18,2022,3,18,1500,Canada,CA-ON-OT,Ontario,Ottawa,Britannia CA (general location),45.3711229,-75.7915535,"",,Unspecified,"","",,,,,,,S105145374,"",,,,,Branta canadensis,cangoo,Species,330,,4.90,10,,2731,4096
326599781,Photo,Canada Goose,Branta canadensis,,Brad Imhoff,2021-04-15,2021,4,15,820,United States,US-OH-089,Ohio,Licking,Buckeye Lake (Licking Co.),39.9335322,-82.4561477,"",,Unspecified,"","",,,,,,,S85592172,"",,,,About a dozen occupied nests.,Branta canadensis,cangoo,Species,330,,4.90,10,,4172,6255
619406030,Photo,Canada Goose,Branta canadensis,,🦉 Benjamin Kenway 🦉,2024-05-17,2024,5,17,700,United States,US-OH-095,Ohio,Lucas,Magee Marsh--Boardwalk,41.6277095,-83.1918840,"",,Unspecified,"","",,,,,,,S176181893,"",,,,,Branta canadensis,cangoo,Species,330,,5.00,9,,5064,4051
583678411,Photo,Canada Goose,Branta canadensis,,Sylvie Martel / Gaétan Giroux,2023-06-11,2023,6,11,924,Canada,CA-QC-CP,Quebec,Longueuil,Parc de la Cité,45.4854762,-73.4070810,"",,Unspecified,"","",,,,,,,S141227998,"",,,,"26  juvéniles, deux âges",Branta canadensis,cangoo,Species,330,,5.00,9,,5464,8192
568097911,Photo,Canada Goose,Branta canadensis,,Andrew Thomas 🦅🪶,2023-05-06,2023,5,6,1145,United States,US-WA-001,Washington,Adams,Sprague Lake (Adams Co.),47.2442050,-118.0695700,Juvenile – 4,Vocalizing,Unspecified,"","",,,,,,,S136400234,"",,,,,Branta canadensis,cangoo,Species,330,,5.00,9,Habitat,2320,3472
568097701,Photo,Canada Goose,Branta canadensis,,Andrew Thomas 🦅🪶,2023-05-06,2023,5,6,1145,United States,US-WA-001,Washington,Adams,Sprague Lake (Adams Co.),47.2442050,-118.0695700,Juvenile Male – 1,Vocalizing,Unspecified,"","",,,,,,,S136400234,"",,,,,Branta canadensis,cangoo,Species,330,,5.00,9,"",2320,3472
460884681,Photo,Canada Goose,Branta canadensis,,Sasha Cahill,2022-06-16,2022,6,16,745,United States,US-CA-059,California,Orange,"William R Mason Regional Park, Irvine",33.6561023,-117.8293562,Juvenile – 1,,Unspecified,"","",,,,,,,S113062252,"",,,1/1000 ISO 320 F/5.0,"*High; counted by 1's. Only 4 babies",Branta canadensis,cangoo,Species,330,,5.00,9,,2988,3735
445067341,Photo,Canada Goose,Branta canadensis,,Matthew Dolkart,2022-05-06,2022,5,6,1714,United States,US-IL-031,Illinois,Cook,"Montrose Point Bird Sanctuary, Lincoln Park, Chicago",41.9633833,-87.6344204,"",,Unspecified,"","",,,,,,,S109166575,"",,,,,Branta canadensis,cangoo,Species,330,,5.00,9,,,
225565241,Photo,Canada Goose,Branta canadensis,,Brad Imhoff,2020-04-20,2020,4,20,640,United States,US-OH-089,Ohio,Licking,Granville Schools Land Lab,40.0889220,-82.5452640,"",,Unspecified,"","",,,,,,,S67523527,"",,,,,Branta canadensis,cangoo,Species,330,,5.00,9,,3054,4581
225565231,Photo,Canada Goose,Branta canadensis,,Brad Imhoff,2020-04-20,2020,4,20,640,United States,US-OH-089,Ohio,Licking,Granville Schools Land Lab,40.0889220,-82.5452640,"",,Unspecified,"","",,,,,,,S67523527,"",,,,,Branta canadensis,cangoo,Species,330,,5.00,9,,3054,4581
196796521,Photo,Canada Goose,Branta canadensis,,Ryan Sanderson,2020-01-02,2020,1,2,842,United States,US-IN-097,Indiana,Marion,Eagle Creek Park,39.8751000,-86.3037000,"Adult Male – 1; Adult – 1",,Unspecified,"","",,,,,,,S62909012,"",,,,,Branta canadensis,cangoo,Species,330,,5.00,9,,2310,3465
159811781,Photo,Canada Goose,Branta canadensis,,Volker Hesse,2019-05-04,2019,5,4,1600,Germany,DE-BW-KA2,Baden-Württemberg,Karlsruhe,Wagbachniederung (NSG),49.2657323,8.5172796,Adult,,Unspecified,"","",,,,,,,S55840367,"",,,,,Branta canadensis,cangoo,Species,330,,4.82,11,,3648,5472
622745833,Photo,Canada Goose,Branta canadensis,,Aquiles Brinco,2024-08-19,2024,8,19,1340,United States,US-OR-039,Oregon,Lane,Kingfisher near LEWO nest,44.1596730,-122.2778400,"","",Unspecified,"","",,,,,,,S192103217,"",,,,,Branta canadensis,cangoo,Species,330,,4.43,23,Habitat,900,1600
622745719,Photo,Canada Goose,Branta canadensis,,Aquiles Brinco,2024-08-19,2024,8,19,1340,United States,US-OR-039,Oregon,Lane,Kingfisher near LEWO nest,44.1596730,-122.2778400,Adult – 1,"",Unspecified,"","",,,,,,,S192103217,"",,,,,Branta canadensis,cangoo,Species,330,,4.43,23,Habitat,900,1600
543128501,Photo,Canada Goose,Branta canadensis,,Corvus 𓄿,2023-03-07,2023,3,7,1329,United States,US-PA-003,Pennsylvania,Allegheny,Wingfield Pines,40.3393690,-80.1108214,Adult Female – 1,,Unspecified,"","",,,,,,,S130411716,"",,,,Enjoyed watching this pair. Grateful for their commonality since they were once almost hunted and pushed out of habitat to extinction.,Branta canadensis,cangoo,Species,330,,4.50,20,,3097,4254
215672581,Photo,Canada Goose,Branta canadensis,,Mason Maron,2020-03-08,2020,3,8,1037,United States,US-ID-057,Idaho,Latah,University of Idaho Arboretum and Botanical Gardens,46.7213142,-117.0157350,"",,Unspecified,"","",,,,,,,S65577156,"",,,,,Branta canadensis,cangoo,Species,330,,4.31,29,,3089,4801
620899099,Photo,Canada Goose,Branta canadensis,,Sasha Smith,2024-05-08,2024,5,8,831,Canada,CA-ON-WT,Ontario,Waterloo,Kitchener--Lakeside Park,43.4321356,-80.4994869,"",,Unspecified,"","",,,,,,,S172807479,"",,,,,Branta canadensis,cangoo,Species,330,,4.47,19,,3241,4862
622746197,Photo,Canada Goose,Branta canadensis,,Aquiles Brinco,2024-08-19,2024,8,19,1340,United States,US-OR-039,Oregon,Lane,Kingfisher near LEWO nest,44.1596730,-122.2778400,Adult – 1,"",Unspecified,"","",,,,,,,S192103217,"",,,,,Branta canadensis,cangoo,Species,330,,4.45,22,Habitat,1067,1600
323790551,Photo,Canada Goose,Branta canadensis,,Kyle Tansley,2021-04-07,2021,4,7,545,United States,US-VT-007,Vermont,Chittenden,Derway Island Nature Preserve,44.5341724,-73.2674849,Adult Female – 1,"",Unspecified,"","",,,,,,,S85014194,"",,,,One might have been sitting on a nesting site. Will continue to check throughout the season to confirm.,Branta canadensis,cangoo,Species,330,,4.57,14,Nest,3333,5000
319356111,Photo,Canada Goose,Branta canadensis,,Robert Bochenek,2021-03-23,2021,3,23,1252,United States,US-MI-125,Michigan,Oakland,Robert H. Long Park,42.5271345,-83.4507015,"",,Unspecified,"","",,,,,,,S83958266,"",,,,,Branta canadensis,cangoo,Species,330,,4.37,27,,2672,3785
217727391,Photo,Canada Goose,Branta canadensis,,Adam Sell,2020-03-24,2020,3,24,731,United States,US-IL-097,Illinois,Lake,Waukegan Beach,42.3640000,-87.8139000,Adult – 1,,Unspecified,"","",,,,,,,S66160296,"",,,,,Branta canadensis,cangoo,Species,330,,4.29,31,,2998,4591
467746421,Photo,Canada Goose,Branta canadensis,,Jonathan Taffet,2022-07-16,2022,7,16,745,United States,US-IL-031,Illinois,Cook,"Montrose Point Bird Sanctuary, Lincoln Park, Chicago",41.9633833,-87.6344204,"",,Unspecified,"","",,,,,,,S115182800,"",,,,,Branta canadensis,cangoo,Species,330,,4.64,14,,3673,5510
460931391,Photo,Canada Goose,Branta canadensis,,Dimitris Salas,2022-03-05,2022,3,5,1400,United States,US-NY-085,New York,Richmond,Great Kills Park,40.5481454,-74.1241949,Adult – 1,,Unspecified,"","",,,,,,,S104239245,"",,,,,Branta canadensis,cangoo,Species,330,,4.73,11,,3644,5466
245881691,Photo,Canada Goose,Branta canadensis,,Katie Warner,2020-05-23,2020,5,23,1804,United States,US-CA-111,California,Ventura,Rancho Simi Community Park,34.2665092,-118.7640953,Juvenile – 1,,Unspecified,"","",,,,,,,S69700069,"",,,,,Branta canadensis,cangoo,Species,330,,4.73,11,,1537,2305
327024191,Photo,Canada Goose,Branta canadensis,,Alison Davies,2021-04-15,2021,4,15,1333,United States,US-CA-059,California,Orange,"Laguna Niguel Regional Park, Laguna Niguel US-CA 33.54800, -117.70821",33.5480040,-117.7082070,Juvenile – 1,,Unspecified,"","",,,,,,,S85631783,"",,,,,Branta canadensis,cangoo,Species,330,,4.69,13,,2804,3220
622746359,Photo,Canada Goose,Branta canadensis,,Aquiles Brinco,2024-08-19,2024,8,19,1340,United States,US-OR-039,Oregon,Lane,Kingfisher near LEWO nest,44.1596730,-122.2778400,Adult – 2,"",Unspecified,"","",,,,,,,S192103217,"",,,,,Branta canadensis,cangoo,Species,330,,4.36,25,Habitat,900,1600
615410158,Photo,Canada Goose,Branta canadensis,,James Ancona,2024-02-27,2024,2,27,850,United States,US-NY-059,New York,Nassau,Jones Beach SP,40.5945237,-73.5104002,"",Vocalizing,Unspecified,"","",,,,,,,S163140840,"",,,,,Branta canadensis,cangoo,Species,330,,4.80,10,"",2324,3486
620715292,Photo,Canada Goose,Branta canadensis,,Michael Stubblefield,2024-04-26,2024,4,26,610,United States,US-MD-033,Maryland,"Prince George's",Patuxent Research Refuge--South Tract (National Wildlife Visitor Center),39.0270605,-76.7991731,Adult – 1,Foraging or Eating,Unspecified,"","",,,,,,,S170363695,"",,,"Canada Goose (Branta canadensis canadensis), canadensis Group, adult foraging at Patuxent Research Refuge, South Tract, Laurel, Maryland.",,Branta canadensis,cangoo,Species,330,,4.89,9,"",2935,4402
399552631,Photo,Canada Goose,Branta canadensis,,Nathan Tea,2021-12-27,2021,12,27,1033,United States,US-VA-059,Virginia,Fairfax,**HUNTLEY MEADOWS PARK,38.7576451,-77.0984124,"",,Unspecified,"","",,,,,,,S99518884,"",,,,,Branta canadensis,cangoo,Species,330,,4.89,9,,2684,4927
340063611,Photo,Canada Goose,Branta canadensis,,Neil Pankey,2021-05-18,2021,5,18,1622,United States,US-WA-033,Washington,King,Washington Park Arboretum,47.6370819,-122.2957400,"",,Unspecified,"","",,,,,,,S88500045,"",,,,,Branta canadensis,cangoo,Species,330,,4.89,9,,2410,3615
94028781,Photo,Canada Goose,Branta canadensis,,Christine Jacobs,2018-04-06,2018,4,6,1605,United States,US-CA-037,California,Los Angeles,Madrona Marsh,33.8286500,-118.3432800,Adult,,Unspecified,"","",,,,,,,S44312506,"",,,,,Branta canadensis,cangoo,Species,330,,4.89,9,,3648,5472
42292511,Photo,Canada Goose,Branta canadensis,,"Michael O'Brien",2016-12-11,2016,12,11,842,United States,US-NJ-009,New Jersey,Cape May,Cape Island--Cape May Point SP (CMPSP),38.9338272,-74.9550854,"",,Unspecified,"","",,,,,,,S32961657,"",,,,,Branta canadensis,cangoo,Species,330,,4.89,9,,1200,1800
614793423,Photo,Canada Goose,Branta canadensis,,James Tornetta,2024-02-11,2024,2,11,1231,United States,US-PA-091,Pennsylvania,Montgomery,Flat Rock Park,40.0441912,-75.2538586,"",,Unspecified,"","",,,,,,,S161259277,"",,,,,Branta canadensis,cangoo,Species,330,,4.89,9,,1284,1925
592454321,Photo,Canada Goose,Branta canadensis,,Bhaarat Vyas,2023-07-01,2023,7,1,1005,United States,US-NY-109,New York,Tompkins,Stewart Park,42.4607910,-76.5068525,Adult – 1,,Unspecified,"","",,,,,,,S143247598,"",,,,,Branta canadensis,cangoo,Species,330,,4.89,9,,2939,4665
562123401,Photo,Canada Goose,Branta canadensis,,Carol MacKenzie,2023-04-22,2023,4,22,1300,Canada,CA-ON-MI,Ontario,Middlesex,"London--Gibbon's Park",42.9996769,-81.2630390,"",,Unspecified,"","",,,,,,,S134762835,"",,,,,Branta canadensis,cangoo,Species,330,,4.89,9,,3648,5472
621464633,Photo,Canada Goose,Branta canadensis,,Richard Münscher,2024-05-18,2024,5,18,851,Germany,DE-HE-F1,Hessen,Frankfurt am Main (Kreisfreie Stadt),Felder nordwestlich Frankfurter Berg,50.1743872,8.6629229,"",,Unspecified,"","",,,,,,,S186914398,"",,,,,Branta canadensis,cangoo,Species,330,,4.80,10,,2338,3118
208218891,Photo,Canada Goose,Branta canadensis,,Neil Rucker,2020-02-09,2020,2,9,735,United States,US-AZ-013,Arizona,Maricopa,ASU Research Park,33.3428000,-111.8975000,"Adult Female – 1; Adult Male – 1",,Unspecified,"","",,,,,,,S64279176,"",,,,,Branta canadensis,cangoo,Species,330,,4.80,10,,2699,4048
130297121,Photo,Canada Goose,Branta canadensis,,Stephen Hurst,2018-04-24,2018,4,24,630,United States,US-WI-111,Wisconsin,Sauk,Christmas Mountian Village,43.6097144,-89.8596897,"",,Unspecified,"","",,,,,,,S48622504,"",,,,"Species #16, observed at 7:35am",Branta canadensis,cangoo,Species,330,,4.80,10,,,
70879791,Photo,Canada Goose,Branta canadensis,,Paul Lewis,2017-10-05,2017,10,5,1210,United Kingdom,GB-ENG-LND,England,London,Ruislip Lido,51.5906053,-0.4302478,"",,Unspecified,"","",,,,,,,S39564004,"",,,,,Branta canadensis,cangoo,Species,330,,4.50,14,,3106,5184
84607451,Photo,Canada Goose,Branta canadensis,,Christoph Moning,2018-02-04,2018,2,4,1210,Germany,DE-BY-M1,Bayern,München (Kreisfreie Stadt),Schlosspark Nymphenburg,48.1565358,11.4965658,Adult,,Unspecified,"","",,,,,,,S42480800,"",,,,,Branta canadensis,cangoo,Species,330,,4.53,15,,2979,4762
616355565,Photo,Canada Goose,Branta canadensis,,Aseem Kothiala,2023-09-02,2023,9,2,1310,United Kingdom,GB-ENG-CHS,England,Cheshire,Burton Mere Wetlands RSPB Reserve,53.2543484,-3.0309086,Adult – 1,,Unspecified,"","",,,,,,,S148778829,"",,,,,Branta canadensis,cangoo,Species,330,,4.47,15,,1200,1800
627724623,Photo,Canada Goose,Branta canadensis,,James Tornetta,2024-11-08,2024,11,8,1428,United States,US-PA-091,Pennsylvania,Montgomery,Flat Rock Park,40.0441912,-75.2538586,"",,Unspecified,"","",,,,,,,S201818755,"",,,,,Branta canadensis,cangoo,Species,330,,5.00,8,,1707,2560
624931309,Photo,Canada Goose,Branta canadensis,,Andrew Thomas 🦅🪶,2024-10-12,2024,10,12,758,United States,US-WA-063,Washington,Spokane,Wandermere Golf Course lake,47.7817166,-117.3980548,"",,Unspecified,"","",,,,,,,S198545291,"",,,,,Branta canadensis,cangoo,Species,330,,5.00,8,,3253,5892
621460439,Photo,Canada Goose,Branta canadensis,,Gord Gadsden,2022-08-23,2022,8,23,1800,Canada,CA-BC-FV,British Columbia,Fraser Valley,Sardis Park,49.1278561,-121.9533062,"",,Unspecified,"","",,,,,,,S122093840,"",,,,"Estimate by 100's. One leucistic",Branta canadensis,cangoo,Species,330,,5.00,8,,800,1200
619074474,Photo,Canada Goose,Branta canadensis,,Matthew Addicks,2024-05-06,2024,5,6,815,United States,US-MD-005,Maryland,Baltimore,Loch Raven Reservoir & Watershed,39.4507752,-76.5686989,"",,Unspecified,"","",,,,,,,S174627906,"",,,,,Branta canadensis,cangoo,Species,330,,5.00,8,,5504,8256
616873242,Photo,Canada Goose,Branta canadensis,,Karim Bouzidi,2024-04-03,2024,4,3,1002,Canada,CA-QC-CP,Quebec,Longueuil,Parc Michel-Chartrand,45.5512030,-73.4698677,"",,Unspecified,"","",,,,,,,S167087289,"",,,,,Branta canadensis,cangoo,Species,330,,5.00,8,,3680,5520
616873240,Photo,Canada Goose,Branta canadensis,,Karim Bouzidi,2024-04-03,2024,4,3,1002,Canada,CA-QC-CP,Quebec,Longueuil,Parc Michel-Chartrand,45.5512030,-73.4698677,"",,Unspecified,"","",,,,,,,S167087289,"",,,,,Branta canadensis,cangoo,Species,330,,5.00,8,,3202,5692
616250258,Photo,Canada Goose,Branta canadensis,,Alva  Steury,2024-03-20,2024,3,20,923,United States,US-IN-033,Indiana,DeKalb,~Private Hotspot~,41.3050006,-84.9778769,"",,Unspecified,"","",,,,,,,S165388711,"",,,,,Branta canadensis,cangoo,Species,330,,5.00,8,,4083,6122
614116219,Photo,Canada Goose,Branta canadensis,,James Tornetta,2024-01-28,2024,1,28,1423,United States,US-PA-091,Pennsylvania,Montgomery,Flat Rock Park,40.0441912,-75.2538586,"",,Unspecified,"","",,,,,,,S160060734,"",,,,,Branta canadensis,cangoo,Species,330,,5.00,8,,2796,4192
592458381,Photo,Canada Goose,Branta canadensis,,Bhaarat Vyas,2023-07-01,2023,7,1,1005,United States,US-NY-109,New York,Tompkins,Stewart Park,42.4607910,-76.5068525,Adult – 1,,Unspecified,"","",,,,,,,S143247598,"",,,,,Branta canadensis,cangoo,Species,330,,5.00,8,,2895,4422
582864101,Photo,Canada Goose,Branta canadensis,,Shirley Rushforth Guinn,2023-06-05,2023,6,5,942,Canada,CA-MB-ET,Manitoba,North Interlake Area,Sandpiper Beach South,50.3803159,-97.9507720,"",,Unspecified,"","",,,,,,,S141003624,"",,,,,Branta canadensis,cangoo,Species,330,,5.00,8,,2166,5904
461406941,Photo,Canada Goose,Branta canadensis,,Calvin S,2022-05-17,2022,5,17,800,Canada,CA-AB-SI,Alberta,Calgary,Calgary--Carburn Park,50.9743186,-114.0326786,"",,Unspecified,"","",,,,,,,S110495228,"",,,,,Branta canadensis,cangoo,Species,330,,5.00,8,,2505,3780
325334401,Photo,Canada Goose,Branta canadensis,,Avo Stilt,2021-04-11,2021,4,11,1019,United States,US-CA-037,California,Los Angeles,Frank G. Bonelli RP/Puddingstone Reservoir and vicinity,34.0870104,-117.8050125,"",,Unspecified,"","",,,,,,,S85345700,"",,,,"One family consisting of mom and dad, “uncle” or “aunt” (Graylag) on the swim beach. There were also two pairs that swam with us across parts of the lake, providing great photo opportunities. All photos attached were taken from the boat.",Branta canadensis,cangoo,Species,330,,5.00,8,,3000,4000
310544881,Photo,Canada Goose,Branta canadensis,,Andy Wilson,2021-02-22,2021,2,22,1000,United States,US-MA-005,Massachusetts,Bristol,"Interchange Park, Fall River",41.6949303,-71.1441565,Adult – 1,Flying,Unspecified,"","",,,,,,,S82160171,"",,,,,Branta canadensis,cangoo,Species,330,,5.00,8,Habitat,945,1400
196796541,Photo,Canada Goose,Branta canadensis,,Ryan Sanderson,2020-01-02,2020,1,2,842,United States,US-IN-097,Indiana,Marion,Eagle Creek Park,39.8751000,-86.3037000,"Adult Male – 1; Adult – 1",,Unspecified,"","",,,,,,,S62909012,"",,,,,Branta canadensis,cangoo,Species,330,,5.00,8,,2704,4056
179806091,Photo,Canada Goose,Branta canadensis,,Ryan Sanderson,2019-09-30,2019,9,30,751,United States,US-IN-097,Indiana,Marion,Eagle Creek Park,39.8751000,-86.3037000,Unknown – 1,Flying,Unspecified,"","",,,,,,,S60236537,"",,,,,Branta canadensis,cangoo,Species,330,,5.00,8,"",2765,4915
132593561,Photo,Canada Goose,Branta canadensis,,Josiah Huff,2019-01-02,2019,1,2,850,United States,US-GA-113,Georgia,Fayette,Shamrock park,33.4776516,-84.5928297,"",,Unspecified,"","",,,,,,,S51210104,"",,,,,Branta canadensis,cangoo,Species,330,,5.00,8,,4000,6000
56373691,Photo,Canada Goose,Branta canadensis,,Davey Walters,2017-04-30,2017,4,30,600,United States,US-MA-009,Massachusetts,Essex,Chebacco Woods,42.6008460,-70.8220661,"",,Unspecified,"","",,,,,,,S36416368,"",,,,,Branta canadensis,cangoo,Species,330,,5.00,8,,3351,5026
444144611,Photo,Canada Goose,Branta canadensis,,Samuel Stankiewicz,2022-04-29,2022,4,29,1724,United States,US-MI-017,Michigan,Bay,Bay City SP,43.6700032,-83.9116268,"",,Unspecified,"","",,,,,,,S108425821,"",,,,,Branta canadensis,cangoo,Species,330,,4.35,23,,3712,5568
444247791,Photo,Canada Goose,Branta canadensis,,Anne Auclair  Moe,2022-05-02,2022,5,2,722,Canada,CA-AB-SI,Alberta,Calgary,"Calgary--Children's Hospital Pond",51.0699584,-114.1434401,"",,Unspecified,"","",,,,,,,S108775451,"",,,,,Branta canadensis,cangoo,Species,330,,4.57,14,,1447,2171
141623611,Photo,Canada Goose,Branta canadensis,,Lily Morello,2019-02-19,2019,2,19,1159,United States,US-MA-025,Massachusetts,Suffolk,Olmsted Park,42.3259472,-71.1145663,Adult – 1,,Unspecified,"","",,,,,,,S52936557,"",,,,Estimate,Branta canadensis,cangoo,Species,330,,4.14,35,,,
516104311,Photo,Canada Goose,Branta canadensis,,René Vierath,2022-12-24,2022,12,24,917,Germany,DE-RP-MZ2,Rheinland-Pfalz,Mainz-Bingen,Sandlache Ingelheim,50.0008055,8.0506176,"Adult Female – 1; Adult Male – 1",,Unspecified,"","",,,,,,,S124509241,"",,,,,Branta canadensis,cangoo,Species,330,,4.64,11,,4000,6000
51209151,Photo,Canada Goose,Branta canadensis,,lynda fenneman,2017-03-14,2017,3,14,1255,United States,US-CA-037,California,Los Angeles,Los Angeles County Arboretum & Botanic Garden,34.1438801,-118.0518637,"","",Unspecified,"","",,,,,,,S35189393,"",,,,,Branta canadensis,cangoo,Species,330,,3.95,81,Habitat,1428,2178
343042471,Photo,Canada Goose,Branta canadensis,,Nick Parayko,2021-05-26,2021,5,26,1900,Canada,CA-AB-EL,Alberta,Edmonton,Edmonton--William Hawrelak Park,53.5286952,-113.5527563,"",,Unspecified,"","",,,,,,,S89135610,"",,,,,Branta canadensis,cangoo,Species,330,,4.62,13,,2991,4486
123880501,Photo,Canada Goose,Branta canadensis,,William Hearn,2018-11-16,2018,11,16,1600,United States,US-PA-071,Pennsylvania,Lancaster,Muddy Run Reservoir,39.8202713,-76.2972593,Adult,,Unspecified,"","",,,,,,,S49992626,"",,,,,Branta canadensis,cangoo,Species,330,,4.23,30,,2854,3605
610887325,Photo,Canada Goose (occidentalis/fulva),Branta canadensis occidentalis/fulva,,Mason Maron,2023-10-26,2023,10,26,1307,United States,US-WA-049,Washington,Pacific,Tokeland,46.7064200,-123.9719800,Adult – 2,,Unspecified,"","",,,,,,,S153131157,"",,,,,Branta canadensis,cangoo3,Group,334,,4.41,17,,3170,4755
149880521,Photo,Canada Goose,Branta canadensis,,Ian Hearn,2019-04-08,2019,4,8,1220,United States,US-ID-027,Idaho,Canyon,Deer Flat NWR--Kingfisher Trail,43.5280591,-116.5987694,Adult,,Unspecified,"","",,,,,,,S54723966,"",,,,,Branta canadensis,cangoo,Species,330,,4.44,16,,3712,5568
541881171,Photo,Canada Goose,Branta canadensis,,Matt Saunders,2023-03-04,2023,3,4,757,United States,US-WI-027,Wisconsin,Dodge,Horicon NWR--Ledge and Point Rds,43.5967620,-88.6288637,Adult – 1,,Unspecified,"","",,,,,,,S130122619,"",,,,,Branta canadensis,cangoo,Species,330,,4.70,10,,2520,3780
411524201,Photo,Canada Goose,Branta canadensis,,Liam Huber,2022-01-29,2022,1,29,910,United States,US-CA-089,California,Shasta,Lema Ranch,40.5969392,-122.3296343,"",,Unspecified,"","",,,,,,,S101684947,"",,,,,Branta canadensis,cangoo,Species,330,,4.67,12,,2206,3570
515311581,Photo,Canada Goose,Branta canadensis,,Michael Stubblefield,2022-10-27,2022,10,27,1031,United States,US-NJ-009,New Jersey,Cape May,Cape Island--Cape May Point SP (CMPSP),38.9338272,-74.9550854,Adult – 3,Flying,Unspecified,"","",,,,,,,S121399937,"",,,"Canada Goose (Branta canadensis canadensis), Atlantic subspecies, adults in flight at Cape May Point State Park, Cape May, New Jersey.",,Branta canadensis,cangoo,Species,330,,4.64,11,"",4000,6000
366351531,Photo,Canada Goose (moffitti/maxima),Branta canadensis moffitti/maxima,,Cedrik von Briel,2021-08-22,2021,8,22,1138,United States,US-CA-081,California,San Mateo,"Half Moon Bay SB--Venice Beach and Pilarcitos/Frenchman's Creek Mouth",37.4770523,-122.4492789,Adult – 1,,Unspecified,"","",,,,,,,S93615967,"",,,Sexy,,Branta canadensis,cangoo4,Group,331,,4.64,11,,2728,4331
228705261,Photo,Canada Goose,Branta canadensis,,Lily Morello,2020-04-29,2020,4,29,1658,United States,US-MA-017,Massachusetts,Middlesex,Beaver Brook North Reservation,42.4027349,-71.2068558,Juvenile – 2,Foraging or Eating,Unspecified,"","",,,,,,,S68065027,"",,,,6 chicks,Branta canadensis,cangoo,Species,330,,4.10,31,"",3456,5184
619824866,Photo,Canada Goose,Branta canadensis,,Aquiles Brinco,2024-05-28,2024,5,28,1015,United States,US-OR-043,Oregon,Linn,Clear Lake (Linn Co.),44.3682873,-121.9939041,Adult – 4,"",Unspecified,"","",,,,,,,S178291966,"",,,,,Branta canadensis,cangoo,Species,330,,4.37,19,Habitat,900,1600
619824864,Photo,Canada Goose,Branta canadensis,,Aquiles Brinco,2024-05-28,2024,5,28,1015,United States,US-OR-043,Oregon,Linn,Clear Lake (Linn Co.),44.3682873,-121.9939041,Adult – 6,,Unspecified,"","",,,,,,,S178291966,"",,,,,Branta canadensis,cangoo,Species,330,,4.37,19,,900,1600
63261621,Photo,Canada Goose,Branta canadensis,,Olivia Bautch,2015-05-25,2015,5,25,1850,United States,US-WI-035,Wisconsin,Eau Claire,"Braun's Bay",44.8047372,-91.5273571,"",,Unspecified,"","",,,,,,,S23637190,"",,,,"Over the past few weeks I've noted three different families of geese at this location.  One pair has two young, another has six and the other has seven.",Branta canadensis,cangoo,Species,330,,4.25,20,,768,1024
314721321,Photo,Canada Goose,Branta canadensis,,Robert Bochenek,2021-03-07,2021,3,7,1715,United States,US-MI-125,Michigan,Oakland,Robert H. Long Park,42.5271345,-83.4507015,"",,Unspecified,"","",,,,,,,S82976309,"",,,,,Branta canadensis,cangoo,Species,330,,4.35,20,,3107,3637
521150641,Photo,Canada Goose,Branta canadensis,,Micah Anderson,2023-01-01,2023,1,1,900,United States,US-WA-063,Washington,Spokane,Saltese Flats,47.6402533,-117.1261561,Adult – 2,"",Unspecified,"","",,,,,,,S125233688,"",,,,,Branta canadensis,cangoo,Species,330,,4.78,9,Habitat,2015,3046
322244871,Photo,Canada Goose,Branta canadensis,,Brad Imhoff,2021-04-02,2021,4,2,1454,United States,US-OH-089,Ohio,Licking,Hebron Fish Hatchery and Wetlands,39.9350130,-82.5143623,"",,Unspecified,"","",,,,,,,S84622995,"",,,,,Branta canadensis,cangoo,Species,330,,4.78,9,,4216,6321
39873331,Photo,Canada Goose,Branta canadensis,,Bruce Fall,2016-11-10,2016,11,10,927,United States,US-MN-053,Minnesota,Hennepin,Lake Nokomis,44.9082924,-93.2437134,"",,Unspecified,"","",,,,,,,S32464738,"",,,Presumably B. c. interior.,"GrazIng on soccer fields W of lake. Many probably came from L. Hiawatha. Checked carefully for other goose species but none found. Photo is of a typical individual from this flock, presumably B. c. interior.",Branta canadensis,cangoo,Species,330,,4.70,10,,2635,2674
383665481,Photo,Canada Goose (occidentalis/fulva),Branta canadensis occidentalis/fulva,,Frank Lin,2021-10-11,2021,10,11,1650,Canada,CA-BC-GV,British Columbia,Metro Vancouver,Stanley Park,49.3029688,-123.1432629,"",,Unspecified,"","",,,,,,,S96015403,"",,,"Dark belly, slight neck ring (uncommon but possible for fulva/occidentalis)",Dark chocolately brown belly than nearby resident moffitti. Probably fulva as it was about the same size as residents with large white cheek patch.,Branta canadensis,cangoo3,Group,334,,4.46,13,,3684,5526
434451631,Photo,Canada Goose,Branta canadensis,,Matt Misewicz,2022-04-11,2022,4,11,1331,United States,US-MI-065,Michigan,Ingham,Fenner Nature Center,42.7094222,-84.5194056,"",,Unspecified,"","",,,,,,,S106808445,"",,,,,Branta canadensis,cangoo,Species,330,,4.17,36,,3118,4713
51561111,Photo,Canada Goose,Branta canadensis,,"Alix d'Entremont",2015-04-12,2015,4,12,900,Canada,CA-NS-YA,Nova Scotia,Yarmouth,Yarmouth--Broad Brook Wetland Park,43.8309667,-66.1100149,"","",Unspecified,"","",,,,,,,S35261855,"",,,,,Branta canadensis,cangoo,Species,330,,4.78,9,Habitat,2048,3014
624705622,Photo,Canada Goose,Branta canadensis,,Jacob McLaren,2024-09-15,2024,9,15,1833,Canada,CA-ON-NU,Ontario,Northumberland,"Presqu'ile Provincial Park (general location)",43.9942000,-77.7105900,"",,Unspecified,"","",,,,,,,S198072333,"",,,,,Branta canadensis,cangoo,Species,330,,4.88,8,,3679,5532
572648611,Photo,Canada Goose,Branta canadensis,,Mike Losacco,2023-05-07,2023,5,7,945,United States,US-IL-089,Illinois,Kane,"Edgewater Pond, Elgin, IL , US",42.0192976,-88.3440371,"",,Unspecified,"","",,,,,,,S137901490,"",,,,,Branta canadensis,cangoo,Species,330,,4.88,8,,2000,3000
509405861,Photo,Canada Goose,Branta canadensis,,JoAnna Clayton,2022-12-01,2022,12,1,1104,United States,US-FL-073,Florida,Leon,Evans Pond Park,30.4321383,-84.2690527,"",,Unspecified,"","",,,,,,,S123292791,"",,,,,Branta canadensis,cangoo,Species,330,,4.88,8,,2231,3144
430246561,Photo,Canada Goose,Branta canadensis,,Rick Wilhoit,2022-03-30,2022,3,30,916,United States,US-MO-095,Missouri,Jackson,Blue Springs Lake--Fleming Park Wetland,39.0205174,-94.3396425,"",,Unspecified,"","",,,,,,,S105895932,"",,,,,Branta canadensis,cangoo,Species,330,,4.88,8,,3182,4773
406316971,Photo,Canada Goose,Branta canadensis,,Brad Imhoff,2022-01-15,2022,1,15,912,United States,US-OH-089,Ohio,Licking,Hebron Fish Hatchery and Wetlands,39.9350130,-82.5143623,"",,Unspecified,"","",,,,,,,S100773867,"",,,,,Branta canadensis,cangoo,Species,330,,4.88,8,,1430,2144
399457121,Photo,Canada Goose,Branta canadensis,,Andrew Thomas 🦅🪶,2021-12-24,2021,12,24,1430,United States,US-WA-063,Washington,Spokane,Riverside SP--Confluence of Spokane and Little Spokane Rivers,47.7895169,-117.5309873,"","",Unspecified,"","",,,,,,,S99386054,"",,,,,Branta canadensis,cangoo,Species,330,,4.88,8,Habitat,2968,4453
399457111,Photo,Canada Goose,Branta canadensis,,Andrew Thomas 🦅🪶,2021-12-24,2021,12,24,1430,United States,US-WA-063,Washington,Spokane,Riverside SP--Confluence of Spokane and Little Spokane Rivers,47.7895169,-117.5309873,"","",Unspecified,"","",,,,,,,S99386054,"",,,,,Branta canadensis,cangoo,Species,330,,4.88,8,Habitat,2933,4399
336626471,Photo,Canada Goose,Branta canadensis,,Mary Erickson,2021-05-10,2021,5,10,658,United States,US-NC-135,North Carolina,Orange,Brumley Nature Preserve--North,36.0339100,-79.0419090,"",,Unspecified,"","",,,,,,,S87726992,"",,,,,Branta canadensis,cangoo,Species,330,,4.88,8,,1742,2612
326599811,Photo,Canada Goose,Branta canadensis,,Brad Imhoff,2021-04-15,2021,4,15,820,United States,US-OH-089,Ohio,Licking,Buckeye Lake (Licking Co.),39.9335322,-82.4561477,"",,Unspecified,"","",,,,,,,S85592172,"",,,,About a dozen occupied nests.,Branta canadensis,cangoo,Species,330,,4.88,8,,4494,6738
315511401,Photo,Canada Goose,Branta canadensis,,Zealon Wight-Maier,2021-03-10,2021,3,10,1628,United States,US-WV-049,West Virginia,Marion,Pricketts Fort SP,39.5171355,-80.0947956,"",,Unspecified,"","",,,,,,,S83162257,"",,,,,Branta canadensis,cangoo,Species,330,,4.88,8,,3423,4704
278410781,Photo,Canada Goose,Branta canadensis,Anas platyrhynchos -- Mallard,Michael Stubblefield,2020-11-08,2020,11,8,655,United States,US-NJ-017,New Jersey,Hudson,Liberty SP,40.7025698,-74.0493536,Adult,Foraging or Eating,Unspecified,"","",,,,,,,S75993158,"",,,"Canada Goose (Branta canadensis canadensis), Atlantic subspecies and Mallard (Anas platyrhynchos platyrhynchos) swimming in a pond in Liberty State Park, Jersey City, New Jersey at sunrise.",,Branta canadensis,cangoo,Species,330,,4.88,8,Habitat,3507,5260
217991221,Photo,Canada Goose,Branta canadensis,,Brad Imhoff,2020-03-25,2020,3,25,931,United States,US-OH-089,Ohio,Licking,"T. J. Evans Park, Newark",40.0925184,-82.4187469,"",,Unspecified,"","",,,,,,,S66197256,"",,,,,Branta canadensis,cangoo,Species,330,,4.88,8,,2327,3490
152031411,Photo,Canada Goose,Branta canadensis,,Ian Hearn,2019-04-15,2019,4,15,1602,United States,US-ID-027,Idaho,Canyon,Wilson Spring Ponds,43.5349380,-116.5531469,Adult,,Unspecified,"","",,,,,,,S55013795,"",,,,,Branta canadensis,cangoo,Species,330,,4.88,8,,3712,5568
132593631,Photo,Canada Goose,Branta canadensis,,Josiah Huff,2019-01-02,2019,1,2,850,United States,US-GA-113,Georgia,Fayette,Shamrock park,33.4776516,-84.5928297,"",,Unspecified,"","",,,,,,,S51210104,"",,,,,Branta canadensis,cangoo,Species,330,,4.88,8,,4000,6000
76390461,Photo,Canada Goose,Branta canadensis,,Frank Lehman,2017-11-26,2017,11,26,1300,United States,US-MA-017,Massachusetts,Middlesex,Clay Pit Pond,42.3940672,-71.1644340,"",,Unspecified,"","",,,,,,,S40753783,"",,,,"One that was conspicuously smaller than other obvious CANGs, perhaps 2/3rds the size of its friends. Often seemed to be associating less closely with the foraging flock than rest of the geese. However, it's without the really stubby bill or darkish breast-band I associate with Cacklers. Still, given that a CACG was reported here yesterday, I thought I'd photograph and post it. Maybe just a runty CANG, or perhaps a Lesser (parvipes) variety?",Branta canadensis,cangoo,Species,330,,4.88,8,,3629,5443
56080091,Photo,Canada Goose,Branta canadensis,,Ian Hearn,2017-04-26,2017,4,26,730,United States,US-ID-001,Idaho,Ada,Esther Simplot Park,43.6281234,-116.2303734,Juvenile,,Unspecified,"","",,,,,,,S36374641,"",,,,,Branta canadensis,cangoo,Species,330,,4.88,8,,3000,4000
56079971,Photo,Canada Goose,Branta canadensis,,Ian Hearn,2017-04-26,2017,4,26,730,United States,US-ID-001,Idaho,Ada,Esther Simplot Park,43.6281234,-116.2303734,Juvenile,,Unspecified,"","",,,,,,,S36374641,"",,,,,Branta canadensis,cangoo,Species,330,,4.88,8,,3000,4000
149475631,Photo,Canada Goose,Branta canadensis,,Sam Greene,2019-04-06,2019,4,6,1427,United States,US-WI-027,Wisconsin,Dodge,Horicon Marsh SWA--International Education Center,43.4744500,-88.6010800,"",,Unspecified,"","",,,,,,,S54648039,"",,,,,Branta canadensis,cangoo,Species,330,,4.50,12,,,
140837051,Photo,Canada Goose,Branta canadensis,,Ian Hearn,2019-02-12,2019,2,12,1600,United States,US-ID-027,Idaho,Canyon,Wilson Spring Ponds,43.5349380,-116.5531469,Adult,,Unspecified,"","",,,,,,,S52638297,"",,,,,Branta canadensis,cangoo,Species,330,,4.50,12,,3712,5568
264049471,Photo,Canada Goose,Branta canadensis,,Guy Tremblay,2020-09-19,2020,9,19,1515,Canada,CA-QC-SAG,Quebec,Saguenay,La Baie - Musée du Fjord,48.3178042,-70.8553094,"",,Unspecified,"","",,,,,,,S73804510,"",,,,,Branta canadensis,cangoo,Species,330,,4.55,11,,2452,3351
344399831,Photo,Canada Goose,Branta canadensis,,Robert Bochenek,2021-05-25,2021,5,25,640,United States,US-MI-125,Michigan,Oakland,Robert H. Long Park,42.5271345,-83.4507015,"",,Unspecified,"","",,,,,,,S88948999,"",,,7th round attempt to overcome opponent but it had firm grip in shoulder area and wearing down the other gosling,Disclaimer warning: graphic fight photos of two goslings,Branta canadensis,cangoo,Species,330,,4.39,18,,1974,2253
344399821,Photo,Canada Goose,Branta canadensis,,Robert Bochenek,2021-05-25,2021,5,25,640,United States,US-MI-125,Michigan,Oakland,Robert H. Long Park,42.5271345,-83.4507015,"",,Unspecified,"","",,,,,,,S88948999,"",,,6th round and opponent is working the shoulder hard,Disclaimer warning: graphic fight photos of two goslings,Branta canadensis,cangoo,Species,330,,4.39,18,,3015,3358
619074476,Photo,Canada Goose,Branta canadensis,,Matthew Addicks,2024-05-06,2024,5,6,815,United States,US-MD-005,Maryland,Baltimore,Loch Raven Reservoir & Watershed,39.4507752,-76.5686989,"",,Unspecified,"","",,,,,,,S174627906,"",,,,,Branta canadensis,cangoo,Species,330,,5.00,7,,5504,8256
564632591,Photo,Canada Goose,Branta canadensis,,Andrew Thomas 🦅🪶,2023-04-29,2023,4,29,932,United States,US-WA-001,Washington,Adams,Sprague Lake (Adams Co.),47.2442050,-118.0695700,"","",Unspecified,"","",,,,,,,S135483777,"",,,,About 30 nests.,Branta canadensis,cangoo,Species,330,,5.00,7,"Egg(s); Nest",2320,3472
564531601,Photo,Canada Goose,Branta canadensis,,Henrey Deese,2023-04-29,2023,4,29,702,United States,US-GA-031,Georgia,Bulloch,Georgia Southern University (Statesboro Campus),32.4241553,-81.7837328,Juvenile – 3,,Unspecified,"","",,,,,,,S135397958,"",,,,,Branta canadensis,cangoo,Species,330,,5.00,7,,2873,4309
564531491,Photo,Canada Goose,Branta canadensis,,Henrey Deese,2023-04-29,2023,4,29,702,United States,US-GA-031,Georgia,Bulloch,Georgia Southern University (Statesboro Campus),32.4241553,-81.7837328,Juvenile – 4,,Unspecified,"","",,,,,,,S135397958,"",,,,,Branta canadensis,cangoo,Species,330,,5.00,7,,2793,5586
564531481,Photo,Canada Goose,Branta canadensis,,Henrey Deese,2023-04-29,2023,4,29,702,United States,US-GA-031,Georgia,Bulloch,Georgia Southern University (Statesboro Campus),32.4241553,-81.7837328,"Adult – 1; Juvenile – 4",,Unspecified,"","",,,,,,,S135397958,"",,,,,Branta canadensis,cangoo,Species,330,,5.00,7,,2878,5756
564531451,Photo,Canada Goose,Branta canadensis,,Henrey Deese,2023-04-29,2023,4,29,702,United States,US-GA-031,Georgia,Bulloch,Georgia Southern University (Statesboro Campus),32.4241553,-81.7837328,Juvenile – 4,,Unspecified,"","",,,,,,,S135397958,"",,,,,Branta canadensis,cangoo,Species,330,,5.00,7,,2505,5011
564118151,Photo,Canada Goose,Branta canadensis,,Chaiby Leiman,2023-04-28,2023,4,28,1017,United States,US-NY-087,New York,Rockland,Bear Mountain SP--Doodletown Rd.,41.3011999,-73.9869576,"",,Unspecified,"","",,,,,,,S135299445,"",,,,By the pond above the dam/ waterfall,Branta canadensis,cangoo,Species,330,,5.00,7,,3624,5437
557896101,Photo,Canada Goose,Branta canadensis,,Brad Vissia,2023-04-14,2023,4,14,1515,Canada,CA-BC-CO,British Columbia,Central Okanagan,West Kelowna--Mouth of Powers Creek,49.8155024,-119.6235180,"",,Unspecified,"","",,,,,,,S133776893,"",,,,,Branta canadensis,cangoo,Species,330,,5.00,7,,3421,5130
526000381,Photo,Canada Goose,Branta canadensis,,Alison Davies,2023-01-19,2023,1,19,811,United States,US-SC-079,South Carolina,Richland,Sesquicentennial SP,34.0875686,-80.9082985,"",,Unspecified,"","",,,,,,,S126496045,"",,,,,Branta canadensis,cangoo,Species,330,,5.00,7,,3137,3793
520977421,Photo,Canada Goose,Branta canadensis,,Michael Herrera,2023-01-06,2023,1,6,830,United States,US-DC-001,District of Columbia,District of Columbia,Kenilworth Park and Aquatic Gardens,38.9133204,-76.9443433,"",,Unspecified,"","",,,,,,,S125528854,"",,,,,Branta canadensis,cangoo,Species,330,,5.00,7,,2825,4238
495534591,Photo,Canada Goose,Branta canadensis,,Peter F,2022-08-23,2022,8,23,646,United States,US-IN-097,Indiana,Marion,Eagle Creek Park,39.8751000,-86.3037000,"",Flying,Unspecified,"","",,,,,,,S117436650,"",,,,,Branta canadensis,cangoo,Species,330,,5.00,7,"",2836,4254
451974361,Photo,Canada Goose,Branta canadensis,,daniel zuckerkandel,2022-05-21,2022,5,21,545,Canada,CA-QC-MR,Quebec,Montréal,Technoparc Mtl--Éco-Campus,45.4773730,-73.7581440,"",,Unspecified,"","",,,,,,,S110841677,"",,,,,Branta canadensis,cangoo,Species,330,,5.00,7,,3742,5149
442299591,Photo,Canada Goose,Branta canadensis,,Ryan Zucker,2020-12-21,2020,12,21,1442,United States,US-NY-061,New York,New York,Randalls Island,40.7887808,-73.9219681,"",,Unspecified,"","",,,,,,,S77813495,"",,,,,Branta canadensis,cangoo,Species,330,,5.00,7,,2893,4340
429742991,Photo,Canada Goose,Branta canadensis,,Matthew Dolkart,2022-03-28,2022,3,28,1835,United States,US-IL-031,Illinois,Cook,West Ridge Nature Park,41.9889067,-87.6886654,"",,Unspecified,"","",,,,,,,S105806335,"",,,,,Branta canadensis,cangoo,Species,330,,5.00,7,,,
321603491,Photo,Canada Goose,Branta canadensis,,Ethan Denton,2021-03-31,2021,3,31,1055,Canada,CA-AB-FN,Alberta,Banff,Canmore--Mallard Pond,51.0873339,-115.3552142,"",,Unspecified,"","",,,,,,,S84481175,"",,,,,Branta canadensis,cangoo,Species,330,,5.00,7,,1838,2941
281704301,Photo,Canada Goose,Branta canadensis,,Kieran Barlow,2020-04-11,2020,4,11,645,United States,US-MA-017,Massachusetts,Middlesex,Charles River Bike Path--Watertown Square,42.3651793,-71.1889118,"",,Unspecified,"","",,,,,,,S76517739,"",,,,estimate. many goslings,Branta canadensis,cangoo,Species,330,,5.00,7,,1365,2048
217991371,Photo,Canada Goose,Branta canadensis,,Brad Imhoff,2020-03-25,2020,3,25,931,United States,US-OH-089,Ohio,Licking,"T. J. Evans Park, Newark",40.0925184,-82.4187469,"",,Unspecified,"","",,,,,,,S66197256,"",,,,,Branta canadensis,cangoo,Species,330,,5.00,7,,2318,3477
149200611,Photo,Canada Goose,Branta canadensis,,Ian Hearn,2019-04-05,2019,4,5,915,United States,US-ID-027,Idaho,Canyon,Wilson Spring Ponds,43.5349380,-116.5531469,Adult,,Unspecified,"","",,,,,,,S54584552,"",,,,,Branta canadensis,cangoo,Species,330,,5.00,7,,3712,5568
132593611,Photo,Canada Goose,Branta canadensis,,Josiah Huff,2019-01-02,2019,1,2,850,United States,US-GA-113,Georgia,Fayette,Shamrock park,33.4776516,-84.5928297,"",,Unspecified,"","",,,,,,,S51210104,"",,,,,Branta canadensis,cangoo,Species,330,,5.00,7,,4000,6000
94011161,Photo,Canada Goose,Branta canadensis,,Douglas Gimler,2018-04-10,2018,4,10,1330,United States,US-VT-019,Vermont,Orleans,Eagle Point WMA,45.0006167,-72.1964407,Adult,,Unspecified,"","",,,,,,,S44474235,"",,,,,Branta canadensis,cangoo,Species,330,,5.00,7,,800,1000
91091741,Photo,Canada Goose,Branta canadensis,,Keenan Yakola,2018-03-23,2018,3,23,1716,United States,US-MA-015,Massachusetts,Hampshire,UMass Amherst--Campus Pond,42.3896140,-72.5262451,"",,Unspecified,"","",,,,,,,S43894412,"",,,,,Branta canadensis,cangoo,Species,330,,5.00,7,,2508,3762
30044881,Photo,Canada Goose,Branta canadensis,,Jay McGowan,2013-05-02,2013,5,2,838,United States,US-NY-109,New York,Tompkins,Stewart Park,42.4607910,-76.5068525,"",,Unspecified,"","",,,,,,,S13962105,"",,,,,Branta canadensis,cangoo,Species,330,,5.00,7,,3345,5184
545868441,Photo,Canada Goose,Branta canadensis,,Brad Imhoff,2023-03-15,2023,3,15,1016,United States,US-OH-089,Ohio,Licking,"T. J. Evans Park, Newark",40.0925184,-82.4187469,"",,Unspecified,"","",,,,,,,S130962043,"",,,,,Branta canadensis,cangoo,Species,330,,4.60,10,,1990,2982
319356271,Photo,Canada Goose,Branta canadensis,,Robert Bochenek,2021-03-23,2021,3,23,1252,United States,US-MI-125,Michigan,Oakland,Robert H. Long Park,42.5271345,-83.4507015,"",,Unspecified,"","",,,,,,,S83958266,"",,,,,Branta canadensis,cangoo,Species,330,,4.37,19,,2672,3785
563230001,Photo,Canada Goose,Branta canadensis,,Cedrik von Briel,2023-04-22,2023,4,22,1721,United States,US-CA-023,California,Humboldt,Arcata Bottoms--V St. Loop,40.8647280,-124.1209670,Adult – 3,,Unspecified,"","",,,,,,,S134795803,"",,,,,Branta canadensis,cangoo,Species,330,,4.55,11,,2498,3808
52523911,Photo,Canada Goose,Branta canadensis,,Daniel Jauvin,2017-03-25,2017,3,25,750,Canada,CA-QC-BH,Quebec,Beauharnois-Salaberry,BEAUHARNOIS - Rg Roy - Pont de la 205,45.2830398,-73.7993717,"",,Unspecified,"","",,,,,,,S35409423,"",,,Bernache du Canada,,Branta canadensis,cangoo,Species,330,,4.60,10,,3217,5719
320146211,Photo,Canada Goose,Branta canadensis,,Robert Bochenek,2021-03-26,2021,3,26,1437,United States,US-MI-125,Michigan,Oakland,Robert H. Long Park,42.5271345,-83.4507015,"",,Unspecified,"","",,,,,,,S84139702,"",,,,,Branta canadensis,cangoo,Species,330,,4.32,19,,2778,3690
320146201,Photo,Canada Goose,Branta canadensis,,Robert Bochenek,2021-03-26,2021,3,26,1437,United States,US-MI-125,Michigan,Oakland,Robert H. Long Park,42.5271345,-83.4507015,"",,Unspecified,"","",,,,,,,S84139702,"",,,,,Branta canadensis,cangoo,Species,330,,4.32,19,,2778,3690
320146191,Photo,Canada Goose,Branta canadensis,,Robert Bochenek,2021-03-26,2021,3,26,1437,United States,US-MI-125,Michigan,Oakland,Robert H. Long Park,42.5271345,-83.4507015,"",,Unspecified,"","",,,,,,,S84139702,"",,,,,Branta canadensis,cangoo,Species,330,,4.27,22,,3012,4666
575654631,Photo,Canada Goose,Branta canadensis,,Andrew Thomas 🦅🪶,2023-05-17,2023,5,17,1520,United States,US-WA-063,Washington,Spokane,Saltese Flats,47.6402533,-117.1261561,"Adult Female – 1; Adult Male – 1; Juvenile – 2",,Unspecified,"","",,,,,,,S138781736,"",,,,,Branta canadensis,cangoo,Species,330,,4.67,9,,2320,3472
511004861,Photo,Canada Goose,Branta canadensis,,Isaiah Craft,2022-12-07,2022,12,7,1525,United States,US-OH-113,Ohio,Montgomery,"Veterans Park, Dayton",39.7446693,-84.1929565,"",,Unspecified,"","",,,,,,,S123608227,"",,,(Originally thought this was a Cackling Goose),,Branta canadensis,cangoo,Species,330,,4.67,9,,3456,4608
312723251,Photo,Canada Goose,Branta canadensis,,Matthew Plante,2021-03-01,2021,3,1,1017,United States,US-OH-089,Ohio,Licking,Hebron Fish Hatchery and Wetlands,39.9350130,-82.5143623,"",,Unspecified,"","",,,,,,,S82578164,"",,,,,Branta canadensis,cangoo,Species,330,,4.67,9,,2228,3342
551457121,Photo,Canada Goose,Branta canadensis,,"Dan O'Brien",2023-03-17,2023,3,17,1753,United States,US-MA-021,Massachusetts,Norfolk,Francis William Bird Park (TTOR),42.1570888,-71.2170482,Adult – 1,,Unspecified,"","",,,,,,,S131139551,"",,,,,Branta canadensis,cangoo,Species,330,,4.55,11,,3712,5568
61861121,Photo,Canada Goose,Branta canadensis,,Chris Maines,2017-06-04,2017,6,4,800,United States,US-WA-033,Washington,King,Seward Park,47.5538089,-122.2501301,Juvenile,,Unspecified,"","",,,,,,,S37785541,"",,,,,Branta canadensis,cangoo,Species,330,,4.42,12,,2811,5162
315007371,Photo,Canada Goose,Branta canadensis,,Robert Bochenek,2021-03-08,2021,3,8,1412,United States,US-MI-125,Michigan,Oakland,Robert H. Long Park,42.5271345,-83.4507015,"",,Unspecified,"","",,,,,,,S83029919,"",,,,,Branta canadensis,cangoo,Species,330,,4.29,21,,668,1103
234095641,Photo,Canada Goose,Branta canadensis,,Asher  Warkentin,2020-05-09,2020,5,9,658,Canada,CA-AB-TR,Alberta,Fort MacLeod,Beauvais Lake Provincial Park,49.4134861,-114.1087675,"",,Unspecified,"","",,,,,,,S68743582,"",,,,,Branta canadensis,cangoo,Species,330,,4.60,10,,3000,4000
124194021,Photo,Canada Goose,Branta canadensis,,Robert Bochenek,2018-10-12,2018,10,12,954,United States,US-MI-125,Michigan,Oakland,Pontiac Lake SRA,42.6690260,-83.4400892,"",,Unspecified,"","",,,,,,,S49139543,"",,,,,Branta canadensis,cangoo,Species,330,,4.26,19,,3098,4127
471531551,Photo,Canada Goose,Branta canadensis,,Zealon Wight-Maier,2022-07-26,2022,7,26,607,United States,US-OH-007,Ohio,Ashtabula,Geneva SP,41.8494499,-80.9704828,"",,Unspecified,"","",,,,,,,S115787399,"",,,,1 flock of 11 way out over the lake. Weird,Branta canadensis,cangoo,Species,330,,4.67,9,,1422,2048
209708921,Photo,Canada Goose,Branta canadensis,,Maxwell Ramey,2020-02-15,2020,2,15,1000,United States,US-MD-019,Maryland,Dorchester,Cambridge--Oakley Street - Belvedere Ave.,38.5797081,-76.0774040,"",,Unspecified,"","",,,,,,,S64559578,"",,,,,Branta canadensis,cangoo,Species,330,,4.25,16,,3581,5371
566612861,Photo,Canada Goose,Branta canadensis,,Steve Rappaport,2023-05-03,2023,5,3,1603,United States,US-NY-119,New York,Westchester,Yorktown Bike Path Wetlands,41.2690600,-73.7808800,"",,Unspecified,"","",,,,,,,S135984985,"",,,,,Branta canadensis,cangoo,Species,330,,4.75,8,,3712,5568
440370981,Photo,Canada Goose,Branta canadensis,,Cody Bassindale,2022-04-21,2022,4,21,1815,Canada,CA-ON-HA,Ontario,Hamilton,Hamilton--Royal Botanical Gardens (Arboretum),43.2843130,-79.9041653,"",,Unspecified,"","",,,,,,,S107678250,"",,,,,Branta canadensis,cangoo,Species,330,,4.75,8,,3157,4735
391706621,Photo,Canada Goose,Branta canadensis,,Michael Stubblefield,2021-11-07,2021,11,7,654,United States,US-GA-135,Georgia,Gwinnett,George Pierce Park,34.0592720,-84.0515040,Adult,"Flying; Foraging or Eating",Unspecified,"","",,,,,,,S97245485,"",,,"Canada Goose (Branta canadensis canadensis), Atlantic subspecies, adult in flight in George Pierce Park, Suwanee, Georgia.",,Branta canadensis,cangoo,Species,330,,4.75,8,Habitat,2555,3830
335023911,Photo,Canada Goose,Branta canadensis,,Sam Zhang,2021-05-07,2021,5,7,528,United States,US-MA-017,Massachusetts,Middlesex,Great Meadows NWR--Concord Unit,42.4751409,-71.3295084,"",,Unspecified,"","",,,,,,,S87322113,"",,,,Rather intense brawl among the youngsters,Branta canadensis,cangoo,Species,330,,4.75,8,,2825,4238
161755261,Photo,Canada Goose,Branta canadensis,,Peter Kennerley,2019-05-12,2019,5,12,722,Canada,CA-ON-ES,Ontario,Essex,Hillman Marsh CA (general location),42.0389667,-82.5091267,"",,Unspecified,"","",,,,,,,S56173117,"",,,"Long & thin neck structure (and also range), should be B. c. interior",Adults including pair with crèche of 30+ goslings,Branta canadensis,cangoo,Species,330,,4.75,8,,2482,3723
344399941,Photo,Canada Goose,Branta canadensis,,Robert Bochenek,2021-05-25,2021,5,25,640,United States,US-MI-125,Michigan,Oakland,Robert H. Long Park,42.5271345,-83.4507015,"",,Unspecified,"","",,,,,,,S88948999,"",,,"10th round  is ""no mas"" and fleeing under startled parent",Disclaimer warning: graphic fight photos of two goslings,Branta canadensis,cangoo,Species,330,,4.35,17,,2972,4796
344399911,Photo,Canada Goose,Branta canadensis,,Robert Bochenek,2021-05-25,2021,5,25,640,United States,US-MI-125,Michigan,Oakland,Robert H. Long Park,42.5271345,-83.4507015,"",,Unspecified,"","",,,,,,,S88948999,"",,,9th round has opponent working the wing hard,Disclaimer warning: graphic fight photos of two goslings,Branta canadensis,cangoo,Species,330,,4.35,17,,2028,2736
559312061,Photo,Canada Goose,Branta canadensis,,Amber Joseph,2023-04-15,2023,4,15,900,United States,US-WI-027,Wisconsin,Dodge,Horicon NWR--Visitor Center,43.5679543,-88.6109161,"",,Unspecified,"","",,,,,,,S133897549,"",,,,,Branta canadensis,cangoo,Species,330,,4.50,12,,,
124193261,Photo,Canada Goose,Branta canadensis,,Robert Bochenek,2018-10-12,2018,10,12,954,United States,US-MI-125,Michigan,Oakland,Pontiac Lake SRA,42.6690260,-83.4400892,Adult,,Unspecified,"","",,,,,,,S49139543,"",,,A major disagreement,,Branta canadensis,cangoo,Species,330,,4.28,18,,2814,4962
329697221,Photo,Canada Goose,Branta canadensis,,Brad Imhoff,2021-04-24,2021,4,24,645,United States,US-OH-089,Ohio,Licking,Buckeye Lake (Licking Co.),39.9335322,-82.4561477,"",,Unspecified,"","",,,,,,,S86227951,"",,,,,Branta canadensis,cangoo,Species,330,,4.45,11,,4077,6113
78346221,Photo,Canada Goose,Branta canadensis,,Sheila and Ed Bremer,2017-12-16,2017,12,16,1015,United States,US-OH-049,Ohio,Franklin,Ohio State University--Drake Center at Olentangy River,40.0002022,-83.0229950,"",,Unspecified,"","",,,,,,,S41137710,"",,,Canada Goose,,Branta canadensis,cangoo,Species,330,,4.04,26,,1463,2048
315007451,Photo,Canada Goose,Branta canadensis,,Robert Bochenek,2021-03-08,2021,3,8,1412,United States,US-MI-125,Michigan,Oakland,Robert H. Long Park,42.5271345,-83.4507015,"",,Unspecified,"","",,,,,,,S83029919,"",,,,,Branta canadensis,cangoo,Species,330,,4.33,18,,668,1103
313923621,Photo,Canada Goose,Branta canadensis,,Robert Bochenek,2021-03-05,2021,3,5,1223,United States,US-MI-125,Michigan,Oakland,Kensington Metropark--general (Oakland Co. only),42.5284410,-83.6706485,"",,Unspecified,"","",,,,,,,S82809417,"",,,,,Branta canadensis,cangoo,Species,330,,4.33,18,,2630,4772
313923581,Photo,Canada Goose,Branta canadensis,,Robert Bochenek,2021-03-05,2021,3,5,1223,United States,US-MI-125,Michigan,Oakland,Kensington Metropark--general (Oakland Co. only),42.5284410,-83.6706485,"",,Unspecified,"","",,,,,,,S82809417,"",,,,,Branta canadensis,cangoo,Species,330,,4.33,18,,2630,4772
320146251,Photo,Canada Goose,Branta canadensis,,Robert Bochenek,2021-03-26,2021,3,26,1437,United States,US-MI-125,Michigan,Oakland,Robert H. Long Park,42.5271345,-83.4507015,"",,Unspecified,"","",,,,,,,S84139702,"",,,,,Branta canadensis,cangoo,Species,330,,4.26,19,,2990,3743
320146221,Photo,Canada Goose,Branta canadensis,,Robert Bochenek,2021-03-26,2021,3,26,1437,United States,US-MI-125,Michigan,Oakland,Robert H. Long Park,42.5271345,-83.4507015,"",,Unspecified,"","",,,,,,,S84139702,"",,,,,Branta canadensis,cangoo,Species,330,,4.26,19,,2778,3690
314721271,Photo,Canada Goose,Branta canadensis,,Robert Bochenek,2021-03-07,2021,3,7,1715,United States,US-MI-125,Michigan,Oakland,Robert H. Long Park,42.5271345,-83.4507015,"",,Unspecified,"","",,,,,,,S82976309,"",,,,,Branta canadensis,cangoo,Species,330,,4.26,19,,3160,3510
140837071,Photo,Canada Goose,Branta canadensis,,Ian Hearn,2019-02-12,2019,2,12,1600,United States,US-ID-027,Idaho,Canyon,Wilson Spring Ponds,43.5349380,-116.5531469,Adult,,Unspecified,"","",,,,,,,S52638297,"",,,,,Branta canadensis,cangoo,Species,330,,4.50,10,,3712,5568
615103649,Photo,Canada Goose,Branta canadensis,,Susan Szeszol,2024-02-20,2024,2,20,900,United States,US-IL-043,Illinois,DuPage,Bensenville Ditch,41.9430427,-87.9301588,"",,Unspecified,"","",,,,,,,S162386174,"",,,,"As I was leaving, more and more Canada Geese were arriving.",Branta canadensis,cangoo,Species,330,,4.75,8,,4000,6000
217992791,Photo,Canada Goose,Branta canadensis,,Brad Imhoff,2020-03-25,2020,3,25,931,United States,US-OH-089,Ohio,Licking,"T. J. Evans Park, Newark",40.0925184,-82.4187469,"",,Unspecified,"","",,,,,,,S66197256,"",,,,,Branta canadensis,cangoo,Species,330,,4.75,8,,1828,2742
105238821,Photo,Canada Goose,Branta canadensis,,Hannes Leonard,2018-06-15,2018,6,15,1706,United States,US-NM-001,New Mexico,Bernalillo,ABQ BioPark--Tingley Lagoon,35.0864029,-106.6737442,"",,Unspecified,"","",,,,,,,S46572854,"",,,,,Branta canadensis,cangoo,Species,330,,4.75,8,,3695,5535
102591541,Photo,Canada Goose,Branta canadensis,,Drew Weber,2018-05-30,2018,5,30,805,United States,US-NY-109,New York,Tompkins,Sapsucker Woods--Fuller Wetlands,42.4812919,-76.4510491,Immature,,Unspecified,"","",,,,,,,S46152627,"",,,,,Branta canadensis,cangoo,Species,330,,4.75,8,,2000,3000
65651231,Photo,Canada Goose,Branta canadensis,,Anne Jacobs,2015-03-29,2015,3,29,1020,United States,US-PA-039,Pennsylvania,Crawford,Pymatuning SP--Spillway,41.6314023,-80.4395771,Adult,,Unspecified,"","",,,,,,,S38566876,"",,,,,Branta canadensis,cangoo,Species,330,,4.75,8,,3648,5472
45383341,Photo,Canada Goose,Branta canadensis,,Ian Hearn,2016-08-16,2016,8,16,1500,United States,US-ID-001,Idaho,Ada,Ann Morrison Park,43.6139526,-116.2242673,Adult,,Unspecified,"","",,,,,,,S33659722,"",,,,,Branta canadensis,cangoo,Species,330,,4.29,14,,3000,4000
124437891,Photo,Canada Goose,Branta canadensis,,Ian Hearn,2018-11-16,2018,11,16,1600,United States,US-PA-071,Pennsylvania,Lancaster,Muddy Run Reservoir,39.8202713,-76.2972593,Adult,,Unspecified,"","",,,,,,,S49995351,"",,,,,Branta canadensis,cangoo,Species,330,,4.24,17,,2668,4173
82465671,Photo,Canada Goose,Branta canadensis,,Elizabeth Winter,2018-01-18,2018,1,18,1200,United States,US-NE-055,Nebraska,Douglas,Lakeside Park,41.2377644,-96.1858422,"",,Unspecified,"","",,,,,,,S42053887,"",,,,,Branta canadensis,cangoo,Species,330,,4.33,15,,3573,4665
617584451,Photo,Canada Goose,Branta canadensis,,Christine Andrews,2024-04-18,2024,4,18,1230,Canada,CA-ON-DR,Ontario,Durham,Ajax--Rotary Park,43.8175601,-79.0322972,"",,Unspecified,"","",,,,,,,S169207990,"",,,,,Branta canadensis,cangoo,Species,330,,4.86,7,,1365,2048
614966390,Photo,Canada Goose,Branta canadensis,,James Tornetta,2024-02-17,2024,2,17,1336,United States,US-PA-101,Pennsylvania,Philadelphia,Manayunk Canal,40.0363551,-75.2402759,"",,Unspecified,"","",,,,,,,S161909648,"",,,,,Branta canadensis,cangoo,Species,330,,4.86,7,,2372,3556
561969751,Photo,Canada Goose,Branta canadensis,,Andrew Thomas 🦅🪶,2023-04-22,2023,4,22,1030,United States,US-WA-063,Washington,Spokane,Saltese Flats,47.6402533,-117.1261561,"",,Unspecified,"","",,,,,,,S134805051,"",,,,,Branta canadensis,cangoo,Species,330,,4.86,7,,3472,2320
518247201,Photo,Canada Goose,Branta canadensis,,Elizabeth Seddon,2022-12-29,2022,12,29,740,United Kingdom,GB-ENG-MAN,England,Manchester,Elton Reservoir,53.5811472,-2.3186779,Adult – 1,,Unspecified,"","",,,,,,,S124832957,"",,,,,Branta canadensis,cangoo,Species,330,,4.86,7,,2941,3921
474620711,Photo,Canada Goose,Branta canadensis,,Braxton Landsman,2022-08-11,2022,8,11,1512,United States,US-CA-059,California,Orange,Doheny State Beach,33.4615743,-117.6806331,"",,Unspecified,"","",,,,,,,S116777298,"",,,,,Branta canadensis,cangoo,Species,330,,4.86,7,,3290,5128
435066271,Photo,Canada Goose,Branta canadensis,,Ed McGinty,2022-04-13,2022,4,13,649,United States,US-MN-053,Minnesota,Hennepin,Lake Rebecca Park Reserve,45.0645794,-93.7510908,"",,Unspecified,"","",,,,,,,S106938648,"",,,,,Branta canadensis,cangoo,Species,330,,4.86,7,,3257,4560
415355161,Photo,Canada Goose,Branta canadensis,,Lucie Dobiášová,2020-02-28,2020,2,28,1644,Czech Republic,CZ-PR,Hlavní město Praha,,Vltava (úsek Jiráskův most–Mánesův most),50.0832864,14.4111122,"",,Unspecified,"","",,,,,,,S102483091,"",,,,,Branta canadensis,cangoo,Species,330,,4.86,7,,3456,4608
404174811,Photo,Canada Goose,Branta canadensis,,Anonymous,2022-01-09,2022,1,9,830,United States,US-GA-089,Georgia,DeKalb,Constitution Lakes,33.6825503,-84.3445086,"",,Unspecified,"","",,,,,,,S100452156,"",,,,,Branta canadensis,cangoo,Species,330,,4.86,7,,1679,2519
338754931,Photo,Canada Goose,Branta canadensis,,Andrew Thomas 🦅🪶,2021-05-15,2021,5,15,600,United States,US-WA-063,Washington,Spokane,Saltese--Church Pond,47.6389037,-117.1360343,Adult – 2,Flying,Unspecified,"","",,,,,,,S88185502,"",,,,Goslings in distant view form other Geese.,Branta canadensis,cangoo,Species,330,,4.86,7,"",749,1051
337552801,Photo,Canada Goose,Branta canadensis,,Tim Emmerzaal,2021-05-12,2021,5,12,638,United States,US-MN-109,Minnesota,Olmsted,Quarry Hill Nature Center,44.0297050,-92.4296570,"Juvenile – 7; Unknown – 2","",Unspecified,"","",,,,,,,S87897651,"",,,,,Branta canadensis,cangoo,Species,330,,4.86,7,Habitat,4315,6469
330227921,Photo,Canada Goose,Branta canadensis,,Anonymous,2021-04-25,2021,4,25,751,United States,US-CA-059,California,Orange,Huntington Central Park,33.7010644,-118.0063820,"",,Unspecified,"","",,,,,,,S86362986,"",,,,Several pairs with goslings.,Branta canadensis,cangoo,Species,330,,4.86,7,,2174,3000
321603561,Photo,Canada Goose,Branta canadensis,,Ethan Denton,2021-03-31,2021,3,31,1055,Canada,CA-AB-FN,Alberta,Banff,Canmore--Mallard Pond,51.0873339,-115.3552142,"",,Unspecified,"","",,,,,,,S84481175,"",,,,,Branta canadensis,cangoo,Species,330,,4.86,7,,2159,3241
315511381,Photo,Canada Goose,Branta canadensis,,Zealon Wight-Maier,2021-03-10,2021,3,10,1628,United States,US-WV-049,West Virginia,Marion,Pricketts Fort SP,39.5171355,-80.0947956,"",,Unspecified,"","",,,,,,,S83162257,"",,,,,Branta canadensis,cangoo,Species,330,,4.86,7,,3456,3649
315413591,Photo,Canada Goose,Branta canadensis,,Matthew Plante,2021-03-10,2021,3,10,658,United States,US-OH-089,Ohio,Licking,Hebron Fish Hatchery and Wetlands,39.9350130,-82.5143623,"",,Unspecified,"","",,,,,,,S83142844,"",,,,,Branta canadensis,cangoo,Species,330,,4.86,7,,2385,3578
286426031,Photo,Canada Goose,Branta canadensis,,Ad Konings,2020-12-08,2020,12,8,712,United States,US-TX-141,Texas,El Paso,Ascarate Park/Lake,31.7532135,-106.4023923,"",,Unspecified,"","",,,,,,,S77242502,"",,,,,Branta canadensis,cangoo,Species,330,,4.86,7,,1402,2000
160964591,Photo,Canada Goose,Branta canadensis,,Woodward H. Pufflequins III,2019-05-26,2019,5,26,908,United States,US-VA-121,Virginia,Montgomery,Virginia Tech--Duck Pond,37.2251344,-80.4286551,Juvenile,,Unspecified,"","",,,,,,,S56750566,"",,,,,Branta canadensis,cangoo,Species,330,,4.86,7,,1080,1620
160176001,Photo,Canada Goose,Branta canadensis,,Denny Swaby,2019-05-21,2019,5,21,1530,United States,US-CO-069,Colorado,Larimer,Lake Estes,40.3758792,-105.4963017,"",,Unspecified,"","",,,,,,,S56607979,"",,,,,Branta canadensis,cangoo,Species,330,,4.86,7,,1719,2500
132593621,Photo,Canada Goose,Branta canadensis,,Josiah Huff,2019-01-02,2019,1,2,850,United States,US-GA-113,Georgia,Fayette,Shamrock park,33.4776516,-84.5928297,"",,Unspecified,"","",,,,,,,S51210104,"",,,,,Branta canadensis,cangoo,Species,330,,4.86,7,,4000,6000
71205001,Photo,Canada Goose,Branta canadensis,,Liron Gertsman,2017-02-13,2017,2,13,1405,Canada,CA-BC-GV,British Columbia,Metro Vancouver,Burnaby Lake--Piper Spit,49.2420768,-122.9354453,"",,Unspecified,"","",,,,,,,S34352341,"",,,,,Branta canadensis,cangoo,Species,330,,4.86,7,,1003,1500
408894061,Photo,Canada Goose,Branta canadensis,,Neil Rucker,2022-01-23,2022,1,23,715,United States,US-AZ-013,Arizona,Maricopa,Salt River--Alma School Rd ponds (from road only),33.4503510,-111.8572515,"",,Unspecified,"","",,,,,,,S101293769,"",,,,Large amount of Canada Goose spending the night in the pond and heading to fields on the reservation at sun up.,Branta canadensis,cangoo,Species,330,,4.86,7,,2652,3978
371024081,Photo,Canada Goose,Branta canadensis,,Tomáš Grim,2021-09-19,2021,9,19,1052,Czech Republic,CZ-JM,Jihomoravský kraj,,Mutěnické rybníky,48.9040500,17.0569070,"",,Unspecified,"","",,,,,,,S94923781,"",,,,,Branta canadensis,cangoo,Species,330,,4.86,7,,1184,2000
318535201,Photo,Canada Goose,Branta canadensis,,Matthew Plante,2021-03-21,2021,3,21,742,United States,US-OH-089,Ohio,Licking,Evans Park,39.9663371,-82.5018769,"",,Unspecified,"","",,,,,,,S83809360,"",,,,,Branta canadensis,cangoo,Species,330,,4.86,7,,3433,5150
217727271,Photo,Canada Goose,Branta canadensis,,Adam Sell,2020-03-24,2020,3,24,731,United States,US-IL-097,Illinois,Lake,Waukegan Beach,42.3640000,-87.8139000,Adult – 1,,Unspecified,"","",,,,,,,S66160296,"",,,,,Branta canadensis,cangoo,Species,330,,4.86,7,,2646,3782
205961551,Photo,Canada Goose (canadensis Group),Branta canadensis [canadensis Group],,Lars Petersson | My World of Bird Photography,2015-04-06,2015,4,6,0,Sweden,SE-O,Västra Götalands län [SE-14],,Hornborgasjön,58.3136181,13.5429706,"",Flying,Unspecified,"","",,IBC1316952,,,,,S65190641,"",,,"Canada Goose in flight. Go to www.larsfoto.se for more than 4200 species of Birds on photo from Sweden and all over the World!. Elevation: 119 m. Date added to IBC: December 22, 2016.",IBC scientific name: Branta canadensis canadensis.,Branta canadensis,cangoo1,Group,337,,4.86,7,"",690,1000
90769121,Photo,Canada Goose,Branta canadensis,,Cassandre Crawford,2018-03-21,2018,3,21,1036,United States,US-OH-061,Ohio,Hamilton,Fernald Preserve (Hamilton Co.),39.2976424,-84.6927452,"",,Unspecified,"","",,,,,,,S43833958,"",,,,,Branta canadensis,cangoo,Species,330,,4.86,7,,2828,3535
56080281,Photo,Canada Goose,Branta canadensis,,Ian Hearn,2017-04-26,2017,4,26,730,United States,US-ID-001,Idaho,Ada,Esther Simplot Park,43.6281234,-116.2303734,Juvenile,,Unspecified,"","",,,,,,,S36374641,"",,,,,Branta canadensis,cangoo,Species,330,,4.86,7,,3000,4000
627070759,Photo,Canada Goose,Branta canadensis,,Shori Velles,2024-12-03,2024,12,3,1225,United States,US-CT-013,Connecticut,Tolland,Lower Bolton Lake,41.8021662,-72.4323998,"",,Unspecified,"","",,,,,,,S204399749,"",,,,,Branta canadensis,cangoo,Species,330,,4.67,9,,2068,3102
427016261,Photo,Canada Goose,Branta canadensis,,Dimitris Salas,2022-03-19,2022,3,19,1300,United States,US-NY-081,New York,Queens,Kissena Park,40.7462409,-73.8080852,Adult – 1,,Unspecified,"","",,,,,,,S105158014,"",,,,,Branta canadensis,cangoo,Species,330,,4.67,9,,4000,6000
313374781,Photo,Canada Goose,Branta canadensis,,Matt Boley,2021-03-03,2021,3,3,1410,United States,US-WI-025,Wisconsin,Dane,"Fish Camp Park, Lake Kegonsa",42.9821682,-89.2631046,"",,Unspecified,"","",,,,,,,S82697285,"",,,,,Branta canadensis,cangoo,Species,330,,4.50,10,,3263,4350
