ML Catalog Number,Format,Common Name,Scientific Name,Background Species,Recordist,Date,Year,Month,Day,Time,Country,Country-State-County,State,County,Locality,Latitude,Longitude,Age/Sex,Behaviors,Playback,Captive,Collected,Specimen ID,Home Archive Catalog Number,Recorder,Microphone,Accessory,Partner Institution,eBird Checklist ID,Unconfirmed,Air Temp(°C),Water Temp(°C),Media notes,Observation Details,Parent Species,eBird Species Code,Taxon Category,Taxonomic Sort,Recordist 2,Average Community Rating,Number of Ratings,Asset Tags,Original Image Height,Original Image Width
371283491,Photo,Common Raven,Corvus corax,,Yeray Seminario,2010-11-11,2010,11,11,0,Spain,ES-CN-PAL,Canarias,La Palma,Monumento al Infinito,28.7505661,-17.8352005,"",,Unspecified,"","",,,,,,,S94963255,"",,,,,Corvus corax,comrav,Species,21400,,4.96,159,,1280,1920
394617871,Photo,Common Raven,Corvus corax,,Bryan Calk,2021-10-01,2021,10,1,730,United States,US-WY-029,Wyoming,Park,Yellowstone NP--Roaring Mountain,44.7801749,-110.7385397,"",Vocalizing,Unspecified,"","",,,,,,,S98670155,"",,,,,Corvus corax,comrav,Species,21400,,4.89,683,"",3006,4509
52495321,Photo,Common Raven,Corvus corax,,Darren Clark,2016-10-13,2016,10,13,0,United States,US-WY-029,Wyoming,Park,Yellowstone NP--Grand Canyon of Yellowstone,44.7215516,-110.4869270,"",,Unspecified,"","",,,,,,,S35462748,"",,,,,Corvus corax,comrav,Species,21400,,4.92,121,,1786,2500
171431281,Photo,Common Raven,Corvus corax,,Christopher Lindsey,2016-12-16,2016,12,16,1035,United States,US-UT-019,Utah,Grand,Arches NP,38.6748562,-109.5874214,"",,Unspecified,"","",,,,,,,S33050992,"",,,,,Corvus corax,comrav,Species,21400,,4.91,119,,1365,2048
374986401,Photo,Common Raven,Corvus corax,,Aidan Brubaker,2021-10-03,2021,10,3,1521,United States,US-CA-041,California,Marin,Hawk Hill,37.8281456,-122.4991411,"",,Unspecified,"","",,,,,,,S95567915,"",,,,,Corvus corax,comrav,Species,21400,,4.92,111,,3379,4643
617460175,Photo,Common Raven,Corvus corax,,TJ Hastings,2024-04-15,2024,4,15,1713,United States,US-CA-037,California,Los Angeles,Occidental College,34.1286626,-118.2116890,"",,Unspecified,"","",,,,,,,S168848914,"",,,,,Corvus corax,comrav,Species,21400,,4.92,87,,2933,4400
314510451,Photo,Common Raven,Corvus corax,,Will Sweet,2021-03-07,2021,3,7,1031,United States,US-CA-037,California,Los Angeles,Colorado Lagoon,33.7711322,-118.1334941,"",,Unspecified,"","",,,,,,,S82957915,"",,,,,Corvus corax,comrav,Species,21400,,4.82,102,,3648,5472
134347671,Photo,Common Raven,Corvus corax,,Jack  Bushong,2019-01-01,2019,1,1,930,United States,US-WY-039,Wyoming,Teton,Yellowstone NP--Lone Star Geyser trail,44.4313896,-110.8133733,"",,Unspecified,"","",,,,,,,S51322528,"",,,,,Corvus corax,comrav,Species,21400,,4.73,163,,1640,3185
402427911,Photo,Common Raven,Corvus corax,,Tim Healy,2021-12-31,2021,12,31,836,United States,US-AZ-005,Arizona,Coconino,Grand Canyon NP--South Rim Trail,36.0582586,-112.1273446,"",,Unspecified,"","",,,,,,,S99762378,"",,,,"Patrolling the rim, mostly in pairs. Observed one pair tearing into unattended gear in the back of a pickup truck",Corvus corax,comrav,Species,21400,,4.75,109,,3712,5568
55245761,Photo,Common Raven,Corvus corax,,Javi Elorriaga,2017-04-10,2017,4,10,837,Spain,ES-CN-FVT,Canarias,Fuerteventura,Llanos de Tindaya,28.6052461,-14.0010023,Adult,,Unspecified,"","",,,,,,,S35840691,"",,,,,Corvus corax,comrav,Species,21400,,4.81,62,,800,1200
27299051,Photo,Common Raven,Corvus corax,,Brian Sullivan,2007-01-14,2007,1,14,0,United States,US-CA-081,California,San Mateo,"Pescadero Marsh and Natural Preserve--(North pond,lagoon and marsh trails east of Hwy 1)",37.2681846,-122.4079944,Adult,,Unspecified,"","",,,,,,,S2645796,"",,,,,Corvus corax,comrav,Species,21400,,4.80,56,,2400,4000
299626671,Photo,Common Raven,Corvus corax,,Marc Gálvez,2021-01-19,2021,1,19,1200,Spain,ES-CT-LD,Cataluña,Lleida,El Codó,42.3018078,0.9065941,"",,Unspecified,"","",,,,,,,S79585100,"",,,,,Corvus corax,comrav,Species,21400,,4.74,80,,2724,4086
135739871,Photo,Common Raven,Corvus corax,,Kyle Lima,2017-03-10,2017,3,10,1205,United States,US-CA-081,California,San Mateo,Sharp Park Beaches and Golf Course Perimeter,37.6295275,-122.4951553,"",,Unspecified,"","",,,,,,,S35090478,"",,,,,Corvus corax,comrav,Species,21400,,4.73,79,,3456,5184
51940101,Photo,Common Raven,Corvus corax,,Caroline Lambert,2017-03-21,2017,3,21,1549,Canada,CA-AB-FN,Alberta,Banff,Banff National Park--Bow Lake,51.6702130,-116.4559364,"",,Unspecified,"","",,,,,,,S35342913,"",,,,,Corvus corax,comrav,Species,21400,,4.84,44,,3050,4619
216297751,Photo,Common Raven,Corvus corax,,Matthew Gerlach,2020-03-13,2020,3,13,700,United States,US-UT-037,Utah,San Juan,Canyonlands NP--Grand View Point Overlook,38.3107164,-109.8567769,"",,Unspecified,"","",,,,,,,S65920409,"",,,,,Corvus corax,comrav,Species,21400,,4.74,68,,2265,3393
292338241,Photo,Common Raven,Corvus corax,,Ethan Denton,2020-12-28,2020,12,28,853,Canada,CA-AB-SI,Alberta,Calgary,Grand Valley Road (between Bow Valley Trail & Township Rd 272),51.2455147,-114.5765825,"",Foraging or Eating,Unspecified,"","",,,,,,,S78164476,"",,,,,Corvus corax,comrav,Species,21400,,4.67,85,"",2803,4205
482241081,Photo,Common Raven,Corvus corax,,Mason Maron,2022-07-16,2022,7,16,1709,United States,US-WA-009,Washington,Clallam,"Olympic NP--Meadow Loop Trail, Hurricane Ridge",47.9707773,-123.4978502,"",,Unspecified,"","",,,,,,,S115223968,"",,,,,Corvus corax,comrav,Species,21400,,4.78,46,,3013,4821
614628385,Photo,Common Raven,Corvus corax,,Timothy Piranian,2024-02-08,2024,2,8,1545,United States,US-AK-020,Alaska,Anchorage Municipality,Anchorage--Northern Lights & Arctic,61.1949236,-149.8983841,"","",Unspecified,"","",,,,,,,S161068026,"",,,,"- many around the area - white raven at McDonald's and Spenard Roadhouse -",Corvus corax,comrav,Species,21400,,4.87,31,Aberrant individual,4841,6918
208991431,Photo,Common Raven,Corvus corax,,Ian Wiist,2020-02-13,2020,2,13,1102,United States,US-AZ-001,Arizona,Apache,Petrified Forest NP,35.0640148,-109.7847412,"",,Unspecified,"","",,,,,,,S64422111,"",,,,,Corvus corax,comrav,Species,21400,,4.72,50,,2716,3762
192513941,Photo,Common Raven,Corvus corax,,"Mike ""mlovest"" Miller",2019-12-08,2019,12,8,810,United States,US-CA-037,California,Los Angeles,Ocean Trails Reserve and golf course trails,33.7282655,-118.3402327,"",,Unspecified,"","",,,,,,,S62164417,"",,,,,Corvus corax,comrav,Species,21400,,4.70,60,,2911,4401
610528607,Photo,Common Raven,Corvus corax,Calidris mauri -- Western Sandpiper,Rajan Rao,2023-10-28,2023,10,28,859,United States,US-CA-041,California,Marin,Pt. Reyes--Abbotts Lagoon,38.1190611,-122.9522467,"",,Unspecified,"","",,,,,,,S153289496,"",,,,,Corvus corax,comrav,Species,21400,,4.73,44,,3213,4820
618252515,Photo,Common Raven,Corvus corax,,Ruslan Balagansky,2024-04-27,2024,4,27,1618,United States,US-CA-073,California,San Diego,San Diego Zoo Safari Park,33.0973669,-116.9981978,"",Carrying Food,Unspecified,"","",,,,,,,S170637121,"",,,,,Corvus corax,comrav,Species,21400,,4.83,30,"",1896,2844
504885391,Photo,Common Raven,Corvus corax,,Grigory Heaton,2022-10-14,2022,10,14,927,United States,US-CA-083,California,Santa Barbara,Santa Cruz Island--Scorpion Canyon Campgrounds,34.0484615,-119.5645389,Adult – 1,,Unspecified,"","",,,,,,,S120678769,"",,,,,Corvus corax,comrav,Species,21400,,4.95,21,,3226,4839
364970271,Photo,Common Raven,Corvus corax,,Yannick Fleury,2021-08-29,2021,8,29,942,Canada,CA-QC-SAG,Quebec,Saguenay,"Canton-Tremblay, Chemin Nil-Jean",48.4846240,-71.1619878,"",,Unspecified,"","",,,,,,,S93910712,"",,,,,Corvus corax,comrav,Species,21400,,4.70,43,,2230,3806
199045481,Photo,Common Raven,Corvus corax,,Christian Hagenlocher,2020-01-12,2020,1,12,1347,United States,US-MT-031,Montana,Gallatin,West Yellowstone (Town),44.6620808,-111.1003135,"",,Unspecified,"","",,,,,,,S63341488,"",,,,,Corvus corax,comrav,Species,21400,,4.73,33,,4000,6000
589008541,Photo,Common Raven,Corvus corax,,Grigory Heaton,2023-02-03,2023,2,3,1126,United States,US-CA-065,California,Riverside,Indian Canyons--Palm Canyon,33.7379378,-116.5386343,"",,Unspecified,"","",,,,,,,S127555977,"",,,,,Corvus corax,comrav,Species,21400,,5.00,19,,3115,4673
400140651,Photo,Common Raven,Corvus corax,,Olivier Langrand,2021-12-29,2021,12,29,1426,Spain,ES-CN-FVT,Canarias,Fuerteventura,Jandia PNat--La Pared,28.1908158,-14.2346764,Adult – 1,,Unspecified,"","",,,,,,,S99651053,"",,,,,Corvus corax,comrav,Species,21400,,4.81,27,,2907,4360
133160041,Photo,Common Raven,Corvus corax,,Ian Hearn,2019-01-02,2019,1,2,1035,Canada,CA-BC-EK,British Columbia,East Kootenay,Kootenay National Park--Numa Falls,51.1322051,-116.1318076,Adult,,Unspecified,"","",,,,,,,S51254547,"",,,,,Corvus corax,comrav,Species,21400,,4.63,52,,3000,4000
350493771,Photo,Common Raven,Corvus corax,,mark daly,2021-06-24,2021,6,24,653,Canada,CA-BC-GV,British Columbia,Metro Vancouver,"2308–2380 Cypress Bowl Ln, West Vancouver CA-BC 49.34924, -123.19877",49.3492360,-123.1987710,"Adult – 1; Juvenile – 1",,Unspecified,"","",,,,,,,S90702679,"",,,natureasart.photoshelter.com,Incl family of 4,Corvus corax,comrav,Species,21400,,4.84,25,,2456,5289
295772111,Photo,Common Raven,Corvus corax,,Daniel Campeau,2021-01-08,2021,1,8,830,Canada,CA-QC-CB,Quebec,La Côte-de-Beaupré,RNF du Cap-Tourmente,47.0780936,-70.7855538,"",Flying,Unspecified,"","",,,,,,,S78894313,"",,,,,Corvus corax,comrav,Species,21400,,4.77,31,"",1767,2650
160350441,Photo,Common Raven,Corvus corax,,Nick Balachanoff,2019-05-22,2019,5,22,1115,Canada,CA-BC-OS,British Columbia,Okanagan-Similkameen,Manning Park--Lodge,49.0636111,-120.7852778,"",,Unspecified,"","",,,,,,,S56639602,"",,,,"very tame, not too scared of people",Corvus corax,comrav,Species,21400,,4.67,45,,2711,4819
592891931,Photo,Common Raven,Corvus corax,,Grigory Heaton,2023-07-01,2023,7,1,838,United States,US-CA-037,California,Los Angeles,Apollo Park,34.7421591,-118.2011104,Adult – 1,,Unspecified,"","",,,,,,,S143239943,"",,,,,Corvus corax,comrav,Species,21400,,4.74,35,,3606,5408
516319101,Photo,Common Raven,Corvus corax,,Derek Lecy,2022-12-23,2022,12,23,1105,United States,US-CA-041,California,Marin,Pt. Reyes--Pt. Reyes Beach North,38.0754286,-122.9742192,"",,Unspecified,"","",,,,,,,S124554268,"",,,,Parking lot.,Corvus corax,comrav,Species,21400,,4.85,26,,3387,5080
504855011,Photo,Common Raven,Corvus corax,,Eric Konkol,2022-10-22,2022,10,22,1512,United States,US-CA-043,California,Mariposa,Yosemite NP--Crane Flat,37.7550490,-119.7984409,"",,Unspecified,"","",,,,,,,S121145317,"",,,,,Corvus corax,comrav,Species,21400,,4.95,19,,1365,2048
105047271,Photo,Common Raven,Corvus corax,,Kalin Ocaña,2018-06-16,2018,6,16,650,Canada,CA-BC-OS,British Columbia,Okanagan-Similkameen,Manning Park--Cascade Lookout,49.0704988,-120.7643193,"",,Unspecified,"","",,,,,,,S46686218,"",,,,,Corvus corax,comrav,Species,21400,,4.79,28,,3456,4608
416152701,Photo,Common Raven,Corvus corax,,Corey Finger,2022-02-14,2022,2,14,910,United States,US-NY-081,New York,Queens,Flushing Meadows Corona Park--Meadow Lake,40.7351876,-73.8404751,"",,Unspecified,"","",,,,,,,S102628014,"",,,,,Corvus corax,comrav,Species,21400,,4.64,44,,1858,2500
390534541,Photo,Common Raven,Corvus corax,,Ethan Denton,2021-11-23,2021,11,23,1110,Canada,CA-AB-ST,Alberta,Fort McMurray,Fort McMurray -- Town,56.7239771,-111.3713194,"",,Unspecified,"","",,,,,,,S97993007,"",,,,,Corvus corax,comrav,Species,21400,,4.68,37,,2797,4195
628756078,Photo,Common Raven,Corvus corax,,Cello Caruso-Turiello 🐦‍⬛,2025-01-06,2025,1,6,833,United States,US-CA-081,California,San Mateo,Holy Cross Cemetery (SM Co.),37.6682213,-122.4465490,"",,Unspecified,"","",,,,,,,S208295020,"",,,,,Corvus corax,comrav,Species,21400,,4.61,44,,5203,7804
609159936,Photo,Common Raven,Corvus corax,,Matt Mason,2023-09-12,2023,9,12,1500,United States,US-WY-039,Wyoming,Teton,Yellowstone NP--Old Faithful area,44.4584125,-110.8293915,"",,Unspecified,"","",,,,,,,S149796576,"",,,,,Corvus corax,comrav,Species,21400,,5.00,17,,4099,6240
565559601,Photo,Common Raven,Corvus corax,,Grigory Heaton,2023-04-30,2023,4,30,842,United States,US-CA-073,California,San Diego,I-5 Vista Point rest stop (southbound),33.3141896,-117.4824607,Adult – 1,,Unspecified,"","",,,,,,,S135561454,"",,,,,Corvus corax,comrav,Species,21400,,5.00,17,,3321,4981
38286561,Photo,Common Raven,Corvus corax,,Brian Sullivan,2016-10-20,2016,10,20,937,United States,US-MN-137,Minnesota,St. Louis,Hawk Ridge Nature Reserve--The Summit,46.8525610,-92.0280710,Immature,,Unspecified,"","",,,,,,,S32136926,"",,,,,Corvus corax,comrav,Species,21400,,4.71,28,,1500,2500
479888261,Photo,Common Raven,Corvus corax,,Aseem Kothiala,2022-06-04,2022,6,4,713,India,IN-LA-LE,Ladakh,Leh,North Pullu,34.3325217,77.6477623,Adult – 1,,Unspecified,"","",,,,,,,S112753307,"",,,,,Corvus corax,comrav,Species,21400,,4.69,32,,1200,1800
128411801,Photo,Common Raven,Corvus corax,,Juan Parra Caceres,2017-03-29,2017,3,29,1000,Spain,ES-CL-AV,Castilla y León,Ávila,"Unnamed Road, San Pascual, Castilla y León, ES (40,866, -4,774)",40.8659508,-4.7736602,"",,Unspecified,"","",,,,,,,S43055013,"",,,,,Corvus corax,comrav,Species,21400,,4.78,23,,750,1000
280360751,Photo,Common Raven,Corvus corax,,Blair Dudeck,2020-11-05,2020,11,5,901,Canada,CA-ON-NP,Ontario,Nipissing,Algonquin Provincial Park--Mizzy Lake Trail (Old Railway bed),45.5750595,-78.6843395,"",,Unspecified,"","",,,,,,,S75878799,"",,,,,Corvus corax,comrav,Species,21400,,4.94,17,,3273,4909
268664521,Photo,Common Raven,Corvus corax,,Vasura Jayaweera,2020-10-03,2020,10,3,815,Canada,CA-ON-NP,Ontario,Nipissing,Algonquin Provincial Park--Mizzy Lake Trail (Old Railway bed),45.5750595,-78.6843395,"",,Unspecified,"","",,,,,,,S74439579,"",,,,,Corvus corax,comrav,Species,21400,,4.77,22,,1432,2000
553869211,Photo,Common Raven,Corvus corax,,Peter Alexander,2023-04-05,2023,4,5,834,Spain,ES-CL-ZM,Castilla y León,Zamora,Near Fariza.,41.4414710,-6.2370910,"",,Unspecified,"","",,,,,,,S132755906,"",,,,,Corvus corax,comrav,Species,21400,,4.89,18,,2224,3954
168539461,Photo,Common Raven,Corvus corax,,Janine Schutt,2019-07-12,2019,7,12,1330,United States,US-WA-059,Washington,Skamania,Mt. St. Helens -- Johnston Ridge Observatory,46.2756468,-122.2169566,"",,Unspecified,"","",,,,,,,S58228738,"",,,,,Corvus corax,comrav,Species,21400,,4.58,40,,2343,3514
133160031,Photo,Common Raven,Corvus corax,,Ian Hearn,2019-01-02,2019,1,2,1035,Canada,CA-BC-EK,British Columbia,East Kootenay,Kootenay National Park--Numa Falls,51.1322051,-116.1318076,Adult,,Unspecified,"","",,,,,,,S51254547,"",,,,,Corvus corax,comrav,Species,21400,,4.57,37,,3000,4000
617672363,Photo,Common Raven,Corvus corax,,Terry McBurnie,2024-04-20,2024,4,20,909,Canada,CA-ON-TO,Ontario,Toronto,Tommy Thompson Park,43.6282673,-79.3291670,"",,Unspecified,"","",,,,,,,S169473853,"",,,,,Corvus corax,comrav,Species,21400,,4.77,22,,1365,2048
299633591,Photo,Common Raven,Corvus corax,,Marc Gálvez,2021-01-19,2021,1,19,1100,Spain,ES-CT-LD,Cataluña,Lleida,El Codó,42.3018078,0.9065941,"",,Unspecified,"","",,,,,,,S79584104,"",,,,,Corvus corax,comrav,Species,21400,,4.94,16,,2778,4168
303501341,Photo,Common Raven,Corvus corax,,Ethan Denton,2021-01-31,2021,1,31,1530,Canada,CA-AB-FN,Alberta,Banff,Banff National Park--Lake Louise,51.4165800,-116.2162900,"",,Unspecified,"","",,,,,,,S80238859,"",,,,,Corvus corax,comrav,Species,21400,,4.66,29,,1796,2873
368546601,Photo,Common Raven,Corvus corax,,Miguel Rouco,2021-09-09,2021,9,9,955,Spain,ES-CL-SL,Castilla y León,Salamanca,Lagunilla--Sierra de Lagunilla,40.3188927,-6.0055516,"",,Unspecified,"","",,,,,,,S94515510,"",,,,,Corvus corax,comrav,Species,21400,,4.80,20,,1667,2500
338400101,Photo,Common Raven,Corvus corax,,Anonymous,2021-05-14,2021,5,14,908,United States,US-CA-073,California,San Diego,Mission Trails Regional Park--Northeast Section,32.8409188,-117.0389764,"",,Unspecified,"","",,,,,,,S88092922,"",,,,"Eating a rabbit's face.",Corvus corax,comrav,Species,21400,,4.55,47,,1663,2343
392903841,Photo,Common Raven,Corvus corax,,Yoav Perlman,2021-12-03,2021,12,3,637,Israel,IL-D,HaDarom,,Mt. Amasa (Tel Krayot NR) שמורת תל קריות (הר עמשא),31.3458368,35.1114819,"",Vocalizing,Unspecified,"","",,,,,,,S98392148,"",,,,,Corvus corax,comrav,Species,21400,,4.73,22,"",800,1200
465305391,Photo,Common Raven,Corvus corax,,Davin MacAskill,2022-06-23,2022,6,23,1230,Canada,CA-AB-FN,Alberta,Banff,Banff-Jasper National Park--Sunwapta Pass,52.2129400,-117.1613964,"",,Unspecified,"","",,,,,,,S114522052,"",,,,,Corvus corax,comrav,Species,21400,,4.81,21,,1365,2048
51388291,Photo,Common Raven,Corvus corax,,Evan Lipton,2015-09-27,2015,9,27,1033,United States,US-MA-001,Massachusetts,Barnstable,"High Head, Pilgrim Heights",42.0563031,-70.1161194,"",,Unspecified,"","",,,,,,,S25219696,"",,,,,Corvus corax,comrav,Species,21400,,4.63,30,,1971,2956
275910271,Photo,Common Raven,Corvus corax,,Steve Wickliffe,2020-10-30,2020,10,30,917,United States,US-MT-023,Montana,Deer Lodge,"Georgetown Lake - East Shore, Grassy Point FA to Red Bridge FA",46.1841510,-113.2672370,"",,Unspecified,"","",,,,,,,S75619690,"",,,,,Corvus corax,comrav,Species,21400,,5.00,14,,3888,5184
386528571,Photo,Common Raven,Corvus corax,,Sunny Zhang,2021-11-08,2021,11,8,1100,Canada,CA-BC-GV,British Columbia,Metro Vancouver,Delta--Fields and area near Burns Dr and 96th St,49.0925584,-122.9574372,"",,Unspecified,"","",,,,,,,S97326103,"",,,,,Corvus corax,comrav,Species,21400,,4.43,51,,3023,4463
133160001,Photo,Common Raven,Corvus corax,,Ian Hearn,2019-01-02,2019,1,2,1035,Canada,CA-BC-EK,British Columbia,East Kootenay,Kootenay National Park--Numa Falls,51.1322051,-116.1318076,Adult,,Unspecified,"","",,,,,,,S51254547,"",,,,,Corvus corax,comrav,Species,21400,,4.53,38,,3000,4000
300782101,Photo,Common Raven,Corvus corax,,Uku Paal,2009-03-07,2009,3,7,0,Spain,ES-CN-FVT,Canarias,Fuerteventura,Betancuria,28.4243744,-14.0569991,"",,Unspecified,"","",,,,,,,S28634805,"",,,,,Corvus corax,comrav,Species,21400,,4.88,16,,1280,2048
386176871,Photo,Common Raven,Corvus corax,,Thomas Galewski,2010-04-23,2010,4,23,0,Spain,ES-CN-FVT,Canarias,Fuerteventura,Rosa de los Negrines,28.6331723,-13.9550045,"",Flying,Unspecified,"","",,,,,,,S97270938,"",,,,,Corvus corax,comrav,Species,21400,,4.83,18,"",2198,3296
196469201,Photo,Common Raven,Corvus corax,,Daniel Irons,2019-06-05,2019,6,5,1608,United States,US-WY-039,Wyoming,Teton,Grand Teton NP--Signal Mt.,43.8459410,-110.5754614,Adult – 1,,Unspecified,"","",,,,,,,S57119802,"",,,,,Corvus corax,comrav,Species,21400,,4.76,21,,2000,3000
516319031,Photo,Common Raven,Corvus corax,,Derek Lecy,2022-12-23,2022,12,23,1105,United States,US-CA-041,California,Marin,Pt. Reyes--Pt. Reyes Beach North,38.0754286,-122.9742192,"",,Unspecified,"","",,,,,,,S124554268,"",,,,Parking lot.,Corvus corax,comrav,Species,21400,,5.00,13,,3314,4971
171059121,Photo,Common Raven,Corvus corax,,August Davidson-Onsgard,2019-07-09,2019,7,9,1218,United States,US-AK-068,Alaska,Denali Borough,Denali NP&P--Savage River Camp,63.7141505,-149.2544174,"",,Unspecified,"","",,,,,,,S58059284,"",,,,,Corvus corax,comrav,Species,21400,,5.00,13,,3427,5141
540199791,Photo,Common Raven,Corvus corax,,Mac Aragon,2023-02-27,2023,2,27,1423,Spain,ES-CL-LN,Castilla y León,León,"LE-321, Valdelugueros ES-León 43.03903, -5.47314",43.0390330,-5.4731450,"",,Unspecified,"","",,,,,,,S129767412,"",,,,,Corvus corax,comrav,Species,21400,,4.74,19,,1282,1923
622543861,Photo,Common Raven,Corvus corax,,Kiah R. Jasper,2024-08-03,2024,8,3,1933,Canada,CA-ON-NP,Ontario,Nipissing,"Algonquin PP, West Rose Lake",45.5715128,-78.6806209,"",,Unspecified,"","",,,,,,,S191543337,"",,,,,Corvus corax,comrav,Species,21400,,4.93,14,,2785,4178
428470781,Photo,Common Raven,Corvus corax,,Noam Markus,2022-03-25,2022,3,25,805,Canada,CA-ON-TO,Ontario,Toronto,"Toronto--Ashbridge's Bay Park",43.6599861,-79.3093553,"",,Unspecified,"","",,,,,,,S105534668,"",,,,,Corvus corax,comrav,Species,21400,,4.93,14,,2158,3665
113603281,Photo,Common Raven,Corvus corax,,Uğur Demirtaş,2018-08-18,2018,8,18,1700,Türkiye,TR-14,Bolu,,Dörtdivan Akbaba Gözlem Merkezi,40.7521987,32.0464969,"",,Unspecified,"","",,,,,,,S48295682,"",,,,,Corvus corax,comrav,Species,21400,,4.67,21,,999,1500
280360941,Photo,Common Raven,Corvus corax,,Blair Dudeck,2020-11-05,2020,11,5,901,Canada,CA-ON-NP,Ontario,Nipissing,Algonquin Provincial Park--Mizzy Lake Trail (Old Railway bed),45.5750595,-78.6843395,"",,Unspecified,"","",,,,,,,S75878799,"",,,,,Corvus corax,comrav,Species,21400,,4.74,19,,3178,4767
469746741,Photo,Common Raven,Corvus corax,,Mason Maron,2022-07-16,2022,7,16,1709,United States,US-WA-009,Washington,Clallam,"Olympic NP--Meadow Loop Trail, Hurricane Ridge",47.9707773,-123.4978502,"",,Unspecified,"","",,,,,,,S115223968,"",,,walking through the meadow at Olympic NP,,Corvus corax,comrav,Species,21400,,4.92,13,,2857,4572
48837401,Photo,Common Raven,Corvus corax,,Drew Weber,2017-02-11,2017,2,11,1012,United States,US-PA-011,Pennsylvania,Berks,Fleetwood-Lyons Farmland,40.4771171,-75.8090115,"",,Unspecified,"","",,,,,,,S34293815,"",,,,On dead raccoon.,Corvus corax,comrav,Species,21400,,4.62,21,,3456,5184
350492651,Photo,Common Raven,Corvus corax,,mark daly,2021-06-24,2021,6,24,653,Canada,CA-BC-GV,British Columbia,Metro Vancouver,"2308–2380 Cypress Bowl Ln, West Vancouver CA-BC 49.34924, -123.19877",49.3492360,-123.1987710,"Adult – 1; Juvenile – 1",Vocalizing,Unspecified,"","",,,,,,,S90702679,"",,,natureasart.photoshelter.com,Incl family of 4,Corvus corax,comrav,Species,21400,,4.86,14,"",2404,5031
405861721,Photo,Common Raven,Corvus corax,,Sean Crockett,2022-01-14,2022,1,14,900,United States,US-WY-039,Wyoming,Teton,Yellowstone NP--Firehole Canyon,44.6280461,-110.8622646,"",,Unspecified,"","",,,,,,,S100747716,"",,,,,Corvus corax,comrav,Species,21400,,4.76,17,,3400,5100
217911111,Photo,Common Raven,Corvus corax,Tyrannus verticalis -- Western Kingbird,Alex Lamoreaux,2019-06-26,2019,6,26,1454,United States,US-OR-045,Oregon,Malheur,Burns Junction,42.7768814,-117.8535604,"",Flying,Unspecified,"","",,,,,,,S57721098,"",,,,Photos,Corvus corax,comrav,Species,21400,,4.54,24,"",2483,3725
592232081,Photo,Common Raven,Corvus corax,,Braxton Landsman,2023-07-08,2023,7,8,919,United States,US-CA-037,California,Los Angeles,Apollo Park,34.7421591,-118.2011104,"",,Unspecified,"","",,,,,,,S143921688,"",,,,,Corvus corax,comrav,Species,21400,,5.00,11,,4404,6161
572596151,Photo,Common Raven,Corvus corax,,Justin Flint,2023-05-08,2023,5,8,1228,United States,US-AK-110,Alaska,Juneau City and Borough,"2–28 Marine Way, Juneau US-AK 58.29958, -134.40737",58.2995850,-134.4073690,"Adult Female – 1; Adult Male – 1","Courtship, Display, or Copulation",Unspecified,"","",,,,,,,S137887886,"",,,,,Corvus corax,comrav,Species,21400,,5.00,11,"",1493,2272
172696291,Photo,Common Raven,Corvus corax,,David M. Bell,2019-01-26,2019,1,26,1151,Canada,CA-AB-FN,Alberta,Banff,CA--AB--Banff--Jasper NP--Sunwapta Falls,52.5322436,-117.6455421,"",,Unspecified,"","",,,,,,,S52083134,"",,,,,Corvus corax,comrav,Species,21400,,4.92,12,,3712,5568
320363611,Photo,Common Raven,Corvus corax,,Paul Prior,2021-03-27,2021,3,27,700,Canada,CA-ON-TO,Ontario,Toronto,Tommy Thompson Park,43.6282673,-79.3291670,"",,Unspecified,"","",,,,,,,S84216659,"",,,,"Feeding on roadkill raccoon, just outside Park entrance.",Corvus corax,comrav,Species,21400,,4.79,14,,2317,3715
257886381,Photo,Common Raven,Corvus corax,,Bryan Calk,2020-08-22,2020,8,22,908,United States,US-NM-043,New Mexico,Sandoval,Valles Caldera,35.8890630,-106.4979990,"",,Unspecified,"","",,,,,,,S72702306,"",,,,,Corvus corax,comrav,Species,21400,,4.79,14,,1813,2720
268923881,Photo,Common Raven,Corvus corax,,Cameron Eckert,2019-12-28,2019,12,28,1312,Canada,CA-YT-YT,Yukon Territory,Yukon,Whitehorse--Quartz Rd marsh (CWS #602),60.7344655,-135.0668031,Unknown – 1,,Unspecified,"","",,,,,,,S62714877,"",,,,,Corvus corax,comrav,Species,21400,,4.60,20,,3648,5472
235743571,Photo,Common Raven,Corvus corax,,Ric Else,2020-05-15,2020,5,15,930,United Kingdom,GB-NIR-ANT,Northern Ireland,Antrim,Rathlin Island--RSPB West Light Seabird Centre,55.3003966,-6.2799454,Adult – 1,,Unspecified,"","",,,,,,,S69165727,"",,,Raven carrying the egg of a Common Guillemot,,Corvus corax,comrav,Species,21400,,4.83,12,,1543,2319
617952963,Photo,Common Raven,Corvus corax,,Barbara Wise,2024-04-25,2024,4,25,758,United States,US-CA-073,California,San Diego,Chollas Reservoir,32.7370366,-117.0633017,"",,Unspecified,"","",,,,,,,S170303753,"",,,,,Corvus corax,comrav,Species,21400,,4.91,11,,2433,4176
93034551,Photo,Common Raven,Corvus corax,,Cassandre Crawford,2018-03-28,2018,3,28,1136,United States,US-UT-011,Utah,Davis,Antelope Island SP,41.0465405,-112.2383881,"",,Unspecified,"","",,,,,,,S44045210,"",,,,,Corvus corax,comrav,Species,21400,,4.91,11,,3873,2582
399230301,Photo,Common Raven,Corvus corax,,Kyle  Swanson,2021-12-22,2021,12,22,1030,Canada,CA-ON-NP,Ontario,Nipissing,Algonquin Provincial Park--Mizzy Lake Trail,45.5552783,-78.6829003,"",,Unspecified,"","",,,,,,,S99488815,"",,,,,Corvus corax,comrav,Species,21400,,5.00,10,,3157,4742
350492581,Photo,Common Raven,Corvus corax,,mark daly,2021-06-24,2021,6,24,653,Canada,CA-BC-GV,British Columbia,Metro Vancouver,"2308–2380 Cypress Bowl Ln, West Vancouver CA-BC 49.34924, -123.19877",49.3492360,-123.1987710,Juvenile – 1,"Foraging or Eating; Vocalizing",Unspecified,"","",,,,,,,S90702679,"",,,natureasart.photoshelter.com,Incl family of 4,Corvus corax,comrav,Species,21400,,5.00,10,"",2877,4600
397436051,Photo,Common Raven,Corvus corax,,Alex Lizano,2021-12-19,2021,12,19,1646,Spain,ES-CL-LN,Castilla y León,León,Sierra de Ancares ZEPA--Peñarrubia,42.7695033,-6.8976546,"",,Unspecified,"","",,,,,,,S99132484,"",,,,,Corvus corax,comrav,Species,21400,,4.67,15,,2786,1904
275911011,Photo,Common Raven,Corvus corax,,Steve Wickliffe,2020-10-30,2020,10,30,917,United States,US-MT-023,Montana,Deer Lodge,"Georgetown Lake - East Shore, Grassy Point FA to Red Bridge FA",46.1841510,-113.2672370,"",,Unspecified,"","",,,,,,,S75619690,"",,,,,Corvus corax,comrav,Species,21400,,4.77,13,,3368,4490
625042070,Photo,Common Raven,Corvus corax,,Chaiby Leiman,2024-09-04,2024,9,4,900,United States,US-WY-029,Wyoming,Park,Yellowstone NP--Hayden Valley,44.6430767,-110.4559043,"",,Unspecified,"","",,,,,,,S193966587,"",,,,,Corvus corax,comrav,Species,21400,,4.73,15,,3448,5104
350492561,Photo,Common Raven,Corvus corax,,mark daly,2021-06-24,2021,6,24,653,Canada,CA-BC-GV,British Columbia,Metro Vancouver,"2308–2380 Cypress Bowl Ln, West Vancouver CA-BC 49.34924, -123.19877",49.3492360,-123.1987710,Juvenile – 1,"Foraging or Eating; Vocalizing",Unspecified,"","",,,,,,,S90702679,"",,,natureasart.photoshelter.com,Incl family of 4,Corvus corax,comrav,Species,21400,,4.77,13,"",2778,4500
200294881,Photo,Common Raven,Corvus corax,,Darren Clark,2020-01-18,2020,1,18,1503,United States,US-ID-043,Idaho,Fremont,Ashton (Town),44.0716879,-111.4519659,"",,Unspecified,"","",,,,,,,S63527070,"",,,,,Corvus corax,comrav,Species,21400,,4.64,14,,2860,5084
404235561,Photo,Common Raven,Corvus corax,,Brock Gunter-Smith,2022-01-09,2022,1,9,1032,Canada,CA-MB-EL,Manitoba,Winnipeg,Winnipeg--Brady Road Landfill,49.7655218,-97.2114944,"",Flying,Unspecified,"","",,,,,,,S100426499,"",,,,,Corvus corax,comrav,Species,21400,,4.82,11,"",3015,4522
153278351,Photo,Common Raven,Corvus corax,,Bob Walker,2019-04-23,2019,4,23,904,United States,US-NM-028,New Mexico,Los Alamos,6th Street Pond,35.8786940,-106.2918904,Adult,,Unspecified,"","",,,,,,,S55298355,"",,,,,Corvus corax,comrav,Species,21400,,4.82,11,,,
522844651,Photo,Common Raven,Corvus corax,,Nick  Park,2023-01-10,2023,1,10,926,Canada,CA-BC-GV,British Columbia,Metro Vancouver,Delta--Brunswick Point,49.0656400,-123.1541500,"",,Unspecified,"","",,,,,,,S125892697,"",,,,,Corvus corax,comrav,Species,21400,,4.90,10,,2780,4633
404234481,Photo,Common Raven,Corvus corax,,Brock Gunter-Smith,2022-01-09,2022,1,9,1032,Canada,CA-MB-EL,Manitoba,Winnipeg,Winnipeg--Brady Road Landfill,49.7655218,-97.2114944,"",Flying,Unspecified,"","",,,,,,,S100426499,"",,,,,Corvus corax,comrav,Species,21400,,4.90,10,"",2159,3238
380916821,Photo,Common Raven,Corvus corax,,Paul Dufour,2021-02-10,2021,2,10,1744,Spain,ES-CN-FVT,Canarias,Fuerteventura,"Unnamed Road, La Oliva, Canarias, ES (28,665, -14,013)",28.6646774,-14.0132028,"",,Unspecified,"","",,,,,,,S80765122,"",,,,,Corvus corax,comrav,Species,21400,,4.90,10,,2437,3668
350492671,Photo,Common Raven,Corvus corax,,mark daly,2021-06-24,2021,6,24,653,Canada,CA-BC-GV,British Columbia,Metro Vancouver,"2308–2380 Cypress Bowl Ln, West Vancouver CA-BC 49.34924, -123.19877",49.3492360,-123.1987710,Juvenile – 1,"Foraging or Eating; Vocalizing",Unspecified,"","",,,,,,,S90702679,"",,,natureasart.photoshelter.com,Incl family of 4,Corvus corax,comrav,Species,21400,,4.90,10,"",2499,4500
216297811,Photo,Common Raven,Corvus corax,,Matthew Gerlach,2020-03-13,2020,3,13,700,United States,US-UT-037,Utah,San Juan,Canyonlands NP--Grand View Point Overlook,38.3107164,-109.8567769,"",,Unspecified,"","",,,,,,,S65920409,"",,,,,Corvus corax,comrav,Species,21400,,4.90,10,,3322,4977
199045491,Photo,Common Raven,Corvus corax,,Christian Hagenlocher,2020-01-12,2020,1,12,1347,United States,US-MT-031,Montana,Gallatin,West Yellowstone (Town),44.6620808,-111.1003135,"",,Unspecified,"","",,,,,,,S63341488,"",,,,,Corvus corax,comrav,Species,21400,,4.40,20,,4000,6000
615160875,Photo,Common Raven,Corvus corax,,Sarah Sharp,2024-02-21,2024,2,21,936,Canada,CA-ON-NP,Ontario,Nipissing,Algonquin Provincial Park--Visitor Centre,45.5836201,-78.3596206,"",,Unspecified,"","",,,,,,,S162489810,"",,,,Stonking views in car park,Corvus corax,comrav,Species,21400,,5.00,9,,5000,4000
609152166,Photo,Common Raven,Corvus corax,,Geoffrey Newell,2023-09-19,2023,9,19,830,Canada,CA-BC-CP,British Columbia,Capital,Victoria--Mt. Tolmie Park,48.4577471,-123.3238292,"",,Unspecified,"","",,,,,,,S150293751,"",,,,,Corvus corax,comrav,Species,21400,,5.00,9,,1836,2754
513422721,Photo,Common Raven,Corvus corax,,Zak Pohlen,2021-09-23,2021,9,23,905,United States,US-AK-016,Alaska,Aleutians West Census Area,Shemya Island--Eareckson AS (restricted access),52.7207244,174.1123276,"",Flying,Unspecified,"","",,,,,,,S97138212,"",,,,,Corvus corax,comrav,Species,21400,,5.00,9,"",1800,3000
217911101,Photo,Common Raven,Corvus corax,Tyrannus verticalis -- Western Kingbird,Alex Lamoreaux,2019-06-26,2019,6,26,1454,United States,US-OR-045,Oregon,Malheur,Burns Junction,42.7768814,-117.8535604,"",Flying,Unspecified,"","",,,,,,,S57721098,"",,,,Photos,Corvus corax,comrav,Species,21400,,5.00,9,"",2173,3259
375075181,Photo,Common Raven,Corvus corax,,Christopher T,2021-10-04,2021,10,4,1235,United States,US-PA-003,Pennsylvania,Allegheny,Home (old),40.4244017,-79.8131134,"",,Unspecified,"","",,,,,,,S95597675,"",,,,,Corvus corax,comrav,Species,21400,,4.82,11,,2456,3178
26658741,Photo,Common Raven,Corvus corax,,Gates Dupont,2016-03-30,2016,3,30,1750,United States,US-AZ-019,Arizona,Pima,Ajo Sewage Ponds,32.3856344,-112.8541522,"",,Unspecified,"","",,,,,,,S28668664,"",,,,,Corvus corax,comrav,Species,21400,,4.26,31,,3456,5184
275910191,Photo,Common Raven,Corvus corax,,Steve Wickliffe,2020-10-30,2020,10,30,917,United States,US-MT-023,Montana,Deer Lodge,"Georgetown Lake - East Shore, Grassy Point FA to Red Bridge FA",46.1841510,-113.2672370,"",,Unspecified,"","",,,,,,,S75619690,"",,,,,Corvus corax,comrav,Species,21400,,4.64,14,,1503,2004
105047291,Photo,Common Raven,Corvus corax,,Kalin Ocaña,2018-06-16,2018,6,16,650,Canada,CA-BC-OS,British Columbia,Okanagan-Similkameen,Manning Park--Cascade Lookout,49.0704988,-120.7643193,"",,Unspecified,"","",,,,,,,S46686218,"",,,,,Corvus corax,comrav,Species,21400,,4.50,18,,3456,4608
132826661,Photo,Common Raven,Corvus corax,,William Hearn,2019-01-02,2019,1,2,1035,Canada,CA-BC-EK,British Columbia,East Kootenay,Kootenay National Park--Numa Falls,51.1322051,-116.1318076,Adult,,Unspecified,"","",,,,,,,S51254689,"",,,,,Corvus corax,comrav,Species,21400,,4.31,29,,3648,5472
383039781,Photo,Common Raven,Corvus corax,,Liam Ragan,2021-09-26,2021,9,26,927,Canada,CA-BC-OS,British Columbia,Okanagan-Similkameen,Manning Park--Lodge,49.0636111,-120.7852778,Adult – 1,,Unspecified,"","",,,,,,,S95203521,"",,,,,Corvus corax,comrav,Species,21400,,4.73,11,,3526,4928
272030031,Photo,Common Raven,Corvus corax,,Brian Sullivan,2020-10-11,2020,10,11,904,United States,US-CA-045,California,Mendocino,MacKerricher SP--Glass Beach,39.4534671,-123.8126918,"",,Unspecified,"","",,,,,,,S74723082,"",,,,,Corvus corax,comrav,Species,21400,,4.73,11,,3000,5000
296161301,Photo,Common Raven,Corvus corax,,Daniel Eslake,2021-01-09,2021,1,9,920,Canada,CA-BC-SL,British Columbia,Squamish-Lillooet,Owl Ridge Home (D),50.3542097,-122.7134228,"",,Unspecified,"","",,,,,,,S78957808,"",,,,,Corvus corax,comrav,Species,21400,,4.67,12,,1365,2048
45349491,Photo,Common Raven,Corvus corax,,John Reynolds,2017-01-13,2017,1,13,1400,Canada,CA-BC-GV,British Columbia,Metro Vancouver,Pitt Meadows--Grant Narrows,49.3484152,-122.6190970,"",,Unspecified,"","",,,,,,,S33650690,"",,,,,Corvus corax,comrav,Species,21400,,4.67,12,,1139,1709
314641861,Photo,Common Raven,Corvus corax,,Brian Stahls,2021-03-07,2021,3,7,635,Canada,CA-ON-TO,Ontario,Toronto,Tommy Thompson Park,43.6282673,-79.3291670,"",,Unspecified,"","",,,,,,,S82986822,"",,,,,Corvus corax,comrav,Species,21400,,4.73,11,,1935,2902
23356331,Photo,Common Raven,Corvus corax,,Caroline Lambert,2016-01-16,2016,1,16,1315,United States,US-CA-081,California,San Mateo,Seal Point Park,37.5738685,-122.3003840,"",,Unspecified,"","",,,,,,,S26981398,"",,,,,Corvus corax,comrav,Species,21400,,4.39,18,,813,1000
611637392,Photo,Common Raven,Corvus corax,,Nathan Wall,2023-11-27,2023,11,27,719,United States,US-WA-033,Washington,King,Discovery Park,47.6638680,-122.4215317,Adult – 1,Vocalizing,Unspecified,"","",,,,,,,S155330534,"",,,,Photos:,Corvus corax,comrav,Species,21400,,4.89,9,"",3900,5850
492660511,Photo,Common Raven,Corvus corax,,Andrew Thomas 🦅🪶,2022-10-07,2022,10,7,845,United States,US-WA-063,Washington,Spokane,"Pine Bluff, Chattaroy",47.8648362,-117.3219439,"",,Unspecified,"","",,,,,,,S120433795,"",,,,,Corvus corax,comrav,Species,21400,,4.89,9,,4752,3168
397758691,Photo,Common Raven,Corvus corax,,Marky Mutchler,2021-10-07,2021,10,7,743,United States,US-CA-037,California,Los Angeles,Occidental College,34.1286626,-118.2116890,"",,Unspecified,"","",,,,,,,S95727708,"",,,,,Corvus corax,comrav,Species,21400,,4.89,9,,3767,5987
344325931,Photo,Common Raven,Corvus corax,,Brad Imhoff,2021-06-01,2021,6,1,441,United States,US-AZ-025,Arizona,Yavapai,Sedona Real Inn & Suites,34.8608190,-111.8161260,"",,Unspecified,"","",,,,,,,S89409108,"",,,,,Corvus corax,comrav,Species,21400,,4.89,9,,3799,5695
247311011,Photo,Common Raven,Corvus corax,,mark daly,2019-11-11,2019,11,11,800,Canada,CA-BC-GV,British Columbia,Metro Vancouver,Cypress Provincial Park,49.3950964,-123.2030355,Adult – 1,"Flying; Foraging or Eating; Vocalizing",Unspecified,"","",,,,,,,S71101196,"",,,https://natureasart.photoshelter.com,,Corvus corax,comrav,Species,21400,,4.89,9,"",2709,4300
204592941,Photo,Common Raven,Corvus corax,,Marco Valentini,2015-03-31,2015,3,31,0,Norway,NO-20,Finnmark,,Vardø--Hornøya,70.3876772,31.1566901,"",Flying,Unspecified,"","",,IBC1087393,,,,,S64994954,"",,,"Soaring over sea cliff. Elevation: 28 m. Date added to IBC: June 22, 2016.",,Corvus corax,comrav,Species,21400,,4.89,9,"",2332,3780
338400131,Photo,Common Raven,Corvus corax,,Anonymous,2021-05-14,2021,5,14,908,United States,US-CA-073,California,San Diego,Mission Trails Regional Park--Northeast Section,32.8409188,-117.0389764,"",,Unspecified,"","",,,,,,,S88092922,"",,,,"Eating a rabbit's face.",Corvus corax,comrav,Species,21400,,4.33,27,,4218,6122
350492521,Photo,Common Raven,Corvus corax,,mark daly,2021-06-24,2021,6,24,653,Canada,CA-BC-GV,British Columbia,Metro Vancouver,"2308–2380 Cypress Bowl Ln, West Vancouver CA-BC 49.34924, -123.19877",49.3492360,-123.1987710,Adult – 1,"Feeding Young; Foraging or Eating; Vocalizing",Unspecified,"","",,,,,,,S90702679,"",,,natureasart.photoshelter.com,Incl family of 4,Corvus corax,comrav,Species,21400,,4.80,10,"",2890,4400
140574641,Photo,Common Raven,Corvus corax,,Bryan Calk,2019-02-12,2019,2,12,908,United States,US-NM-001,New Mexico,Bernalillo,"Atrisco Vista Blvd, from I-40 North",35.1277780,-106.7857380,"",,Unspecified,"","",,,,,,,S52631496,"",,,,,Corvus corax,comrav,Species,21400,,4.80,10,,2884,1923
299889181,Photo,Common Raven,Corvus corax,,Roy Chatburn,2021-01-21,2021,1,21,950,Canada,CA-ON-SC,Ontario,Simcoe,Collingwood Arboretum trails,44.5042401,-80.2283009,Adult – 1,"Flying; Nest Building",Unspecified,"","",,,,,,,S79645339,"",,,Call that a twig........,"Minimum of two pairs actively nest building, one or more of the nests in the terminal building.",Corvus corax,comrav,Species,21400,,4.54,13,Watermark,1000,1250
620499012,Photo,Common Raven,Corvus corax,,Barbara Wise,2024-06-16,2024,6,16,759,United States,US-CA-073,California,San Diego,Chollas Reservoir,32.7370366,-117.0633017,Immature – 1,,Unspecified,"","",,,,,,,S181889583,"",,,,2 adults with 3 immatures.,Corvus corax,comrav,Species,21400,,5.00,8,,1723,2933
616299296,Photo,Common Raven,Corvus corax,,Matthew Pendleton,2024-03-21,2024,3,21,833,United States,US-UT-035,Utah,Salt Lake,Little Cottonwood Canyon--Alta Town Office Feeders,40.5904976,-111.6372748,"",,Unspecified,"","",,,,,,,S165502125,"",,,,,Corvus corax,comrav,Species,21400,,5.00,8,,3672,5141
612437040,Photo,Common Raven,Corvus corax,,Naresh Satyan,2023-12-19,2023,12,19,1400,United States,US-CA-037,California,Los Angeles,Cabrillo Beach Park,33.7120446,-118.2839732,"",,Unspecified,"","",,,,,,,S156712887,"",,,,,Corvus corax,comrav,Species,21400,,5.00,8,,3337,5000
612405219,Photo,Common Raven,Corvus corax,,nitay haiun,2023-12-18,2023,12,18,1125,Israel,IL-D,HaDarom,,Ein Gedi Fieldschool בית ספר שדה עין גדי,31.4697170,35.3945480,"",,Unspecified,"","",,,,,,,S156665993,"",,,,,Corvus corax,comrav,Species,21400,,5.00,8,,2596,3894
611637371,Photo,Common Raven,Corvus corax,,Nathan Wall,2023-11-27,2023,11,27,719,United States,US-WA-033,Washington,King,Discovery Park,47.6638680,-122.4215317,Adult – 1,,Unspecified,"","",,,,,,,S155330534,"",,,,Photos:,Corvus corax,comrav,Species,21400,,5.00,8,,4050,6075
609221350,Photo,Common Raven,Corvus corax,,Michael Stubblefield,2023-09-14,2023,9,14,722,United States,US-CA-041,California,Marin,Pt. Reyes--Abbotts Lagoon Trailhead,38.1233660,-122.9353027,Adult – 1,,Unspecified,"","",,,,,,,S150367054,"",,,"Common Raven (Corvus corax sinuatus), adult resting on a fence at Abbotts Lagoon Trailhead, Point Reyes National Seashore, Marin County, California.",,Corvus corax,comrav,Species,21400,,5.00,8,,3747,5620
314083001,Photo,Common Raven,Corvus corax,,Allen Schenck,2021-03-06,2021,3,6,915,United States,US-RI-007,Rhode Island,Providence,"Stillwater Scenic Trail, Smithfield, Rhode Island, US (41.907, -71.539)",41.9073066,-71.5391256,"",,Unspecified,"","",,,,,,,S82857056,"",,,,,Corvus corax,comrav,Species,21400,,5.00,8,,2538,3807
299563551,Photo,Common Raven,Corvus corax,,Marc Gálvez,2021-01-19,2021,1,19,1100,Spain,ES-CT-LD,Cataluña,Lleida,El Codó,42.3018078,0.9065941,"",,Unspecified,"","",,,,,,,S79584104,"",,,,,Corvus corax,comrav,Species,21400,,5.00,8,,2458,3687
247481441,Photo,Common Raven,Corvus corax,,mark daly,2018-12-10,2018,12,10,0,Canada,CA-BC-GV,British Columbia,Metro Vancouver,Cypress Provincial Park,49.3950964,-123.2030355,Adult – 1,Foraging or Eating,Unspecified,"","",,,,,,,S71133948,"",,,https://natureasart.photoshelter.com,,Corvus corax,comrav,Species,21400,,5.00,8,"",2601,4000
219768631,Photo,Common Raven,Corvus corax,,Anthony VanSchoor,2020-03-31,2020,3,31,1000,United States,US-MD-027,Maryland,Howard,Patapsco Valley SP--Woodstock Area downstream of Woodstock Rd.,39.3306605,-76.8669810,"",,Unspecified,"","",,,,,,,S66467978,"",,,,,Corvus corax,comrav,Species,21400,,5.00,8,,1409,1817
211987071,Photo,Common Raven,Corvus corax,,Richard Littauer,2020-02-17,2020,2,17,1434,United States,US-CA-075,California,San Francisco,Ocean Beach (SF Co.),37.7561942,-122.5100899,Adult – 1,,Unspecified,"","",,,,,,,S64677864,"",,,,,Corvus corax,comrav,Species,21400,,5.00,8,,1365,2048
88262151,Photo,Common Raven,Corvus corax,,"Mike ""mlovest"" Miller",2018-03-03,2018,3,3,830,United States,US-CA-037,California,Los Angeles,Ocean Trails Reserve and golf course trails,33.7282655,-118.3402327,"",,Unspecified,"","",,,,,,,S43354169,"",,,,Large conspiracy of Ravens due to a dead dolphin on the beach.,Corvus corax,comrav,Species,21400,,5.00,8,,3274,4297
246461071,Photo,Common Raven,Corvus corax,,Alexander Hagge,2020-06-25,2020,6,25,630,Poland,PL-MA,Malopolskie,,"Tatra National Park--green trail, Kuźnice, Kasprowy Wierch, Kondratowa Glade, Czerwone Wierchy",49.2692327,19.9817920,"",,Unspecified,"","",,,,,,,S70825111,"",,,,"juv & ad seen around Świnica and Świnicka przełęcz, juvenile bird extraordinarily tame",Corvus corax,comrav,Species,21400,,4.47,17,,3456,5184
243675941,Photo,Common Raven,Corvus corax,,Simon Boivin,2020-06-13,2020,6,13,924,Canada,CA-QC-FS,Quebec,Le Fjord-du-Saguenay,"960 Rue du Quai, Sainte-Rose-du-Nord CA-QC 48.40730, -70.57748",48.4073020,-70.5774770,"",,Unspecified,"","",,,,,,,S70380641,"",,,,,Corvus corax,comrav,Species,21400,,4.19,36,,2944,4700
85268021,Photo,Common Raven,Corvus corax,,Ryan Schain,2018-02-09,2018,2,9,1425,Iceland,IS-8,Suðurland,,Gullfoss,64.3264500,-20.1253223,"",,Unspecified,"","",,,,,,,S42614269,"",,,,,Corvus corax,comrav,Species,21400,,4.25,20,,2160,3492
348622431,Photo,Common Raven,Corvus corax,,Matt Mason,2021-06-17,2021,6,17,1658,United States,US-OH-067,Ohio,Harrison,Busby Rd.,40.1993394,-81.0657737,"",,Unspecified,"","",,,,,,,S90371557,"",,,,3 shortly there after followed by 2,Corvus corax,comrav,Species,21400,,4.39,18,,1317,2056
610718247,Photo,Common Raven,Corvus corax,,Michael Yablick,2023-11-03,2023,11,3,1104,United States,US-CA-075,California,San Francisco,Alcatraz Island,37.8259411,-122.4221980,"",,Unspecified,"","",,,,,,,S153671677,"",,,,,Corvus corax,comrav,Species,21400,,4.78,9,,3381,5069
402427941,Photo,Common Raven,Corvus corax,,Tim Healy,2021-12-31,2021,12,31,836,United States,US-AZ-005,Arizona,Coconino,Grand Canyon NP--South Rim Trail,36.0582586,-112.1273446,"",,Unspecified,"","",,,,,,,S99762378,"",,,,"Patrolling the rim, mostly in pairs. Observed one pair tearing into unattended gear in the back of a pickup truck",Corvus corax,comrav,Species,21400,,4.78,9,,3712,5568
397644001,Photo,Common Raven,Corvus corax,,Michael Erb,2017-11-12,2017,11,12,1412,United States,US-AZ-005,Arizona,Coconino,Walnut Canyon NM,35.1717762,-111.5094022,"",,Unspecified,"","",,,,,,,S99083384,"",,,,"One of the ravens I observed was trying to break pieces of limestone off of a larger rock to swallow.  You can see a video here: https://www.youtube.com/watch?vPIR4kAyA5_k.  I'd never seen this before, so I thought it was quite cool!",Corvus corax,comrav,Species,21400,,4.78,9,,2151,3247
299633341,Photo,Common Raven,Corvus corax,,Marc Gálvez,2021-01-19,2021,1,19,1100,Spain,ES-CT-LD,Cataluña,Lleida,El Codó,42.3018078,0.9065941,"",,Unspecified,"","",,,,,,,S79584104,"",,,,,Corvus corax,comrav,Species,21400,,4.78,9,,3047,3235
165813491,Photo,Common Raven,Corvus corax,,Steve Wickliffe,2019-06-24,2019,6,24,644,United States,US-MT-023,Montana,Deer Lodge,"Stumptown Road - Anaconda, MT",46.1469378,-113.0228028,"",,Unspecified,"","",,,,,,,S57658759,"",,,,,Corvus corax,comrav,Species,21400,,4.78,9,,2780,3641
303499161,Photo,Common Raven,Corvus corax,,Ethan Denton,2021-01-31,2021,1,31,1530,Canada,CA-AB-FN,Alberta,Banff,Banff National Park--Lake Louise,51.4165800,-116.2162900,"",,Unspecified,"","",,,,,,,S80238859,"",,,,,Corvus corax,comrav,Species,21400,,4.70,10,,2153,3228
208991461,Photo,Common Raven,Corvus corax,,Ian Wiist,2020-02-13,2020,2,13,1102,United States,US-AZ-001,Arizona,Apache,Petrified Forest NP,35.0640148,-109.7847412,"",,Unspecified,"","",,,,,,,S64422111,"",,,,,Corvus corax,comrav,Species,21400,,4.70,10,,3600,5408
294685231,Photo,Common Raven,Corvus corax,,Tim Healy,2021-01-02,2021,1,2,1000,United States,US-NY-059,New York,Nassau,Jones Beach SP--Field 10,40.6017384,-73.5144666,"",,Unspecified,"","",,,,,,,S78693145,"",,,,"Same bird seen along the Bay Parkway earlier, flew in and began feasting upon a roadkill pigeon in the parking lot. Quite cooperative while it was gorging itself on gore. Protested loudly when an oblivious driver parked right next to its meal, and it took off to the west shortly thereafter",Corvus corax,comrav,Species,21400,,4.37,19,,1880,2989
63390501,Photo,Common Raven,Corvus corax,,Tommy Quarles,2017-06-18,2017,6,18,1232,United States,US-AZ-015,Arizona,Mohave,Grand Canyon West--Skywalk,36.0121070,-113.8114232,"",,Unspecified,"","",,,,,,,S37668872,"",,,,,Corvus corax,comrav,Species,21400,,4.78,9,,3648,5472
625325164,Photo,Common Raven,Corvus corax,,Matthew Addicks,2024-10-14,2024,10,14,1230,United States,US-PA-107,Pennsylvania,Schuylkill,Hawk Mountain Sanctuary--North Lookout,40.6416072,-75.9914862,"",,Unspecified,"","",,,,,,,S199997153,"",,,,,Corvus corax,comrav,Species,21400,,4.88,8,,2550,3826
625117668,Photo,Common Raven,Corvus corax,,Patrick Maurice,2024-09-11,2024,9,11,1410,United States,US-MT-029,Montana,Flathead,Glacier NP--Hidden Lake,48.6839212,-113.7560892,"",,Unspecified,"","",,,,,,,S195246171,"",,,,,Corvus corax,comrav,Species,21400,,4.88,8,,1428,1567
586036921,Photo,Common Raven,Corvus corax,,Annie Lavoie,2023-06-18,2023,6,18,832,Canada,CA-QC-FS,Quebec,Le Fjord-du-Saguenay,Saint-Félix D’Otis- Chemin de l’Anse aux Érables,48.3240720,-70.6292840,"",,Unspecified,"","",,,,,,,S141940259,"",,,,,Corvus corax,comrav,Species,21400,,4.88,8,,1767,2725
425673481,Photo,Common Raven,Corvus corax,,Zebedee Muller,2020-08-21,2020,8,21,534,United States,US-AZ-005,Arizona,Coconino,Grand Canyon NP--South Rim,36.0160000,-112.0900000,"",,Unspecified,"","",,,,,,,S72671214,"",,,,,Corvus corax,comrav,Species,21400,,4.88,8,,3652,5542
424261901,Photo,Common Raven,Corvus corax,,Greg Miller,2022-03-11,2022,3,11,1500,United States,US-NJ-031,New Jersey,Passaic,Garret Mountain Reservation (Park),40.8995168,-74.1791808,"",,Unspecified,"","",,,,,,,S104638209,"",,,,Continuing behind boathouse near deer carcass. They kept flying off & coming back so could have been more but only saw 2 at once today.,Corvus corax,comrav,Species,21400,,4.88,8,,4025,5912
397026431,Photo,Common Raven,Corvus corax,,Michael Erb,2017-11-12,2017,11,12,1412,United States,US-AZ-005,Arizona,Coconino,Walnut Canyon NM,35.1717762,-111.5094022,"",,Unspecified,"","",,,,,,,S99083384,"",,,"Interestingly, this raven has tiny white feathers above its eye.","One of the ravens I observed was trying to break pieces of limestone off of a larger rock to swallow.  You can see a video here: https://www.youtube.com/watch?vPIR4kAyA5_k.  I'd never seen this before, so I thought it was quite cool!",Corvus corax,comrav,Species,21400,,4.88,8,,1692,2555
321779431,Photo,Common Raven,Corvus corax,,James Maley,2021-03-28,2021,3,28,822,United States,US-CA-059,California,Orange,Irvine Regional Park,33.7968382,-117.7532673,"",,Unspecified,"","",,,,,,,S84290405,"",,,,,Corvus corax,comrav,Species,21400,,4.88,8,,3239,4319
275685661,Photo,Common Raven,Corvus corax,,Joachim Bertrands | Ornis Birding Expeditions,2020-10-29,2020,10,29,1330,Canada,CA-BC-KS,British Columbia,Kitimat-Stikine,Kitimat - Hospital Beach,53.9843830,-128.6984825,"",,Unspecified,"","",,,,,,,S75570172,"",,,,,Corvus corax,comrav,Species,21400,,4.88,8,,2654,3874
200294691,Photo,Common Raven,Corvus corax,,Darren Clark,2020-01-18,2020,1,18,1503,United States,US-ID-043,Idaho,Fremont,Ashton (Town),44.0716879,-111.4519659,"",,Unspecified,"","",,,,,,,S63527070,"",,,,,Corvus corax,comrav,Species,21400,,4.88,8,,2978,4467
141486081,Photo,Common Raven,Corvus corax,,Josh Davidson,2019-02-18,2019,2,18,1542,United States,US-OH-085,Ohio,Lake,Painesville Township Park,41.7662864,-81.2329102,"",,Unspecified,"","",,,,,,,S52892703,"",,,,"Flew right over us, one banked and checked us out while giving a soft croak, other one flew over the ice.",Corvus corax,comrav,Species,21400,,4.88,8,,2757,4135
105596281,Photo,Common Raven,Corvus corax,,Dave Bengston,2018-06-19,2018,6,19,1504,United States,US-WY-039,Wyoming,Teton,Yellowstone NP--Old Faithful area,44.4584125,-110.8293915,Adult,,Unspecified,"","",,,,,,,S46803172,"",,,Common Raven,,Corvus corax,comrav,Species,21400,,4.88,8,,1439,2015
134969551,Photo,Common Raven,Corvus corax,,Ian Hearn,2019-01-02,2019,1,2,1035,Canada,CA-BC-EK,British Columbia,East Kootenay,Kootenay National Park--Numa Falls,51.1322051,-116.1318076,Adult,,Unspecified,"","",,,,,,,S51254547,"",,,,,Corvus corax,comrav,Species,21400,,4.46,13,,3000,4000
62957701,Photo,Common Raven,Corvus corax,,Howard King,2017-07-09,2017,7,9,730,United States,US-CA-071,California,San Bernardino,Prado Regional Park,33.9463861,-117.6506138,"",,Unspecified,"","",,,,,,,S38054756,"",,,,,Corvus corax,comrav,Species,21400,,3.96,51,,2296,2500
628867063,Photo,Common Raven,Corvus corax,,Levent Uysal,2025-01-08,2025,1,8,1400,Türkiye,TR-34,İstanbul,,Kömürcüoda Katı Atık Bertaraf Tesisleri,41.1420148,29.3693411,"",,Unspecified,"","",,,,,,,S208682143,"",,,,,Corvus corax,comrav,Species,21400,,5.00,7,,2681,4019
628701037,Photo,Common Raven,Corvus corax,,Enrique Mejía,2023-04-01,2023,4,1,1500,Honduras,HN-OC,Ocotepeque,,Finca 9 Pozas,14.4590698,-88.8458052,Adult – 1,Flying,Unspecified,"","",,,,,,,S132603336,"",,,,,Corvus corax,comrav,Species,21400,,5.00,7,"",2529,3793
625216577,Photo,Common Raven,Corvus corax,,Jen Sanford,2024-10-19,2024,10,19,1652,United States,US-OR-041,Oregon,Lincoln,Trillium Cottage,44.9875427,-123.9988424,"",,Unspecified,"","",,,,,,,S199572446,"",,,,,Corvus corax,comrav,Species,21400,,5.00,7,,1595,2392
624516360,Photo,Common Raven,Corvus corax,,Jack Belleghem,2024-10-03,2024,10,3,1251,Canada,CA-ON-NP,Ontario,Nipissing,Algonquin Provincial Park--Mizzy Lake Trail (Old Railway bed),45.5750595,-78.6843395,"",,Unspecified,"","",,,,,,,S197402376,"",,,,,Corvus corax,comrav,Species,21400,,5.00,7,,3331,4997
622952197,Photo,Common Raven,Corvus corax,,Arijit Banerjee,2024-08-25,2024,8,25,708,India,IN-RJ-CR,Rajasthan,Churu,Tal Chhapar WLS--Gaushala Area,27.8074984,74.4498610,Adult – 1,Foraging or Eating,Unspecified,"","",,,,,,,S192658092,"",,,,Photographed. I have reported this species last year October 2023,Corvus corax,comrav,Species,21400,,5.00,7,Habitat,4113,6170
615866132,Photo,Common Raven,Corvus corax,,Amirmahdi Keykha,2024-03-07,2024,3,7,717,Iran,IR-26,Qom,,Morreh Wetlands--تالاب مره,35.0004161,51.3441238,"",,Unspecified,"","",,,,,,,S163945248,"",,,Sitting on a camel,,Corvus corax,comrav,Species,21400,,5.00,7,,2772,3695
614550202,Photo,Common Raven,Corvus corax,,Nathan Wall,2024-02-05,2024,2,5,1342,United States,US-AZ-013,Arizona,Maricopa,McDowell Sonoran Preserve--Lost Dog Wash Area,33.6023094,-111.8108471,Adult – 1,Vocalizing,Unspecified,"","",,,,,,,S160750554,"",,,,Photo:,Corvus corax,comrav,Species,21400,,5.00,7,"",2443,3665
612437039,Photo,Common Raven,Corvus corax,,Naresh Satyan,2023-12-19,2023,12,19,1400,United States,US-CA-037,California,Los Angeles,Cabrillo Beach Park,33.7120446,-118.2839732,"",,Unspecified,"","",,,,,,,S156712887,"",,,,,Corvus corax,comrav,Species,21400,,5.00,7,,3335,5000
611879690,Photo,Common Raven,Corvus corax,,Richard Li,2023-11-24,2023,11,24,1046,United States,US-CA-073,California,San Diego,Anza-Borrego Desert SP--Palm Canyon & Campground,33.2698067,-116.4183164,"",,Unspecified,"","",,,,,,,S155510873,"",,,,,Corvus corax,comrav,Species,21400,,5.00,7,,3443,5164
609221351,Photo,Common Raven,Corvus corax,,Michael Stubblefield,2023-09-14,2023,9,14,722,United States,US-CA-041,California,Marin,Pt. Reyes--Abbotts Lagoon Trailhead,38.1233660,-122.9353027,Adult – 1,,Unspecified,"","",,,,,,,S150367054,"",,,"Common Raven (Corvus corax sinuatus), adult resting on a fence at Abbotts Lagoon Trailhead, Point Reyes National Seashore, Marin County, California.",,Corvus corax,comrav,Species,21400,,5.00,7,,3451,5177
584190601,Photo,Common Raven,Corvus corax,,Sam Zhang,2023-06-09,2023,6,9,540,United States,US-CA-037,California,Los Angeles,Apollo Park,34.7421591,-118.2011104,Juvenile – 1,Vocalizing,Unspecified,"","",,,,,,,S141405502,"",,,,,Corvus corax,comrav,Species,21400,,5.00,7,"",2013,3018
572596131,Photo,Common Raven,Corvus corax,,Justin Flint,2023-05-08,2023,5,8,1228,United States,US-AK-110,Alaska,Juneau City and Borough,"2–28 Marine Way, Juneau US-AK 58.29958, -134.40737",58.2995850,-134.4073690,"Adult Female – 1; Adult Male – 1","Courtship, Display, or Copulation",Unspecified,"","",,,,,,,S137887886,"",,,,,Corvus corax,comrav,Species,21400,,5.00,7,"",1555,2073
539798951,Photo,Common Raven,Corvus corax,,Amy Rangel,2023-02-26,2023,2,26,814,United States,US-CA-037,California,Los Angeles,Elysian Park--Chavez Ravine,34.0819259,-118.2473737,"",,Unspecified,"","",,,,,,,S129699148,"",,,,,Corvus corax,comrav,Species,21400,,5.00,7,,1365,2048
497847081,Photo,Common Raven,Corvus corax,,Andy Wilson,2022-10-26,2022,10,26,1644,United States,US-MD-021,Maryland,Frederick,"8841 Willowbrook Rd, Frederick US-MD (39.4768,-77.4174)",39.4768050,-77.4174180,"",,Unspecified,"","",,,,,,,S121362745,"",,,,,Corvus corax,comrav,Species,21400,,5.00,7,,4029,5372
472597271,Photo,Common Raven,Corvus corax,,Grigory Heaton,2022-07-31,2022,7,31,1530,United States,US-CA-051,California,Mono,Tioga Lake,37.9224329,-119.2549074,Adult – 1,,Unspecified,"","",,,,,,,S116335949,"",,,,,Corvus corax,comrav,Species,21400,,5.00,7,,3752,5628
426840941,Photo,Common Raven,Corvus corax,,Itamar Donitza,2022-03-12,2022,3,12,1602,Israel,IL-D,HaDarom,,רמת דבשון,30.8428958,34.7846946,"",,Unspecified,"","",,,,,,,S104678460,"",,,,,Corvus corax,comrav,Species,21400,,5.00,7,,2682,4023
275685981,Photo,Common Raven,Corvus corax,,Joachim Bertrands | Ornis Birding Expeditions,2020-10-29,2020,10,29,1330,Canada,CA-BC-KS,British Columbia,Kitimat-Stikine,Kitimat - Hospital Beach,53.9843830,-128.6984825,"",,Unspecified,"","",,,,,,,S75570172,"",,,,,Corvus corax,comrav,Species,21400,,5.00,7,,3648,5472
256262891,Photo,Common Raven,Corvus corax,,Liam Huber,2020-08-17,2020,8,17,1005,United States,US-CA-007,California,Butte,Nelson Rd--East of Nelson,39.5612934,-121.7463010,"",,Unspecified,"","",,,,,,,S72509431,"",,,,,Corvus corax,comrav,Species,21400,,5.00,7,,2409,3017
215274131,Photo,Common Raven,Corvus corax,,William Richards,2020-03-13,2020,3,13,1020,United States,US-UT-011,Utah,Davis,Antelope Island SP,41.0465405,-112.2383881,"",,Unspecified,"","",,,,,,,S65762566,"",,,,,Corvus corax,comrav,Species,21400,,5.00,7,,2022,2905
466168501,Photo,Common Raven,Corvus corax,,Steve Rappaport,2022-06-16,2022,6,16,515,Canada,CA-QC-MT,Quebec,La Matanie,"Station d'épuration, Ste-Félicité",48.8954083,-67.3461021,"",,Unspecified,"","",,,,,,,S113039619,"",,,,,Corvus corax,comrav,Species,21400,,4.60,10,,2861,4291
138421001,Photo,Common Raven,Corvus corax,,Juan Miguel Artigas Azas,2019-02-01,2019,2,1,1343,United States,US-TX-243,Texas,Jeff Davis,Davis Mountains  SP (FWTX 23),30.5962706,-103.9347249,"",,Unspecified,"","",,,,,,,S52275405,"",,,,,Corvus corax,comrav,Species,21400,,4.60,10,,533,800
232923431,Photo,Common Raven,Corvus corax,,Forest Botial-Jarvis,2020-05-09,2020,5,9,1701,United States,US-MI-089,Michigan,Leelanau,"Sleeping Bear Dunes National Lakeshore, Glen Arbor US-MI 44.89625, -86.00316",44.8962480,-86.0031560,"",,Unspecified,"","",,,,,,,S68725447,"",,,,,Corvus corax,comrav,Species,21400,,4.60,10,,1409,2400
338400121,Photo,Common Raven,Corvus corax,,Anonymous,2021-05-14,2021,5,14,908,United States,US-CA-073,California,San Diego,Mission Trails Regional Park--Northeast Section,32.8409188,-117.0389764,"",,Unspecified,"","",,,,,,,S88092922,"",,,,"Eating a rabbit's face.",Corvus corax,comrav,Species,21400,,4.25,24,,1566,2171
135242131,Photo,Common Raven,Corvus corax,,Ian Hearn,2019-01-02,2019,1,2,1035,Canada,CA-BC-EK,British Columbia,East Kootenay,Kootenay National Park--Numa Falls,51.1322051,-116.1318076,Adult,,Unspecified,"","",,,,,,,S51254547,"",,,,,Corvus corax,comrav,Species,21400,,4.60,10,,3000,4000
230746881,Photo,Common Raven,Corvus corax,,Kyle Tansley,2020-05-03,2020,5,3,1503,United States,US-VT-007,Vermont,Chittenden,Lone Rock Point / North Beach,44.4910591,-73.2469056,Juvenile – 1,"",Unspecified,"","",,,,,,,S68334790,"",,,,All three young still in nest. Adult stopped by briefly,Corvus corax,comrav,Species,21400,,4.33,15,Nest,1365,2048
625117672,Photo,Common Raven,Corvus corax,,Patrick Maurice,2024-09-11,2024,9,11,1410,United States,US-MT-029,Montana,Flathead,Glacier NP--Hidden Lake,48.6839212,-113.7560892,"",,Unspecified,"","",,,,,,,S195246171,"",,,,,Corvus corax,comrav,Species,21400,,4.67,9,,5504,5407
135242121,Photo,Common Raven,Corvus corax,,Ian Hearn,2019-01-02,2019,1,2,1035,Canada,CA-BC-EK,British Columbia,East Kootenay,Kootenay National Park--Numa Falls,51.1322051,-116.1318076,Adult,,Unspecified,"","",,,,,,,S51254547,"",,,,,Corvus corax,comrav,Species,21400,,4.38,13,,3000,4000
320365521,Photo,Common Raven,Corvus corax,,Paul Prior,2021-03-27,2021,3,27,700,Canada,CA-ON-TO,Ontario,Toronto,Tommy Thompson Park,43.6282673,-79.3291670,"",,Unspecified,"","",,,,,,,S84216659,"",,,,"Feeding on roadkill raccoon, just outside Park entrance.",Corvus corax,comrav,Species,21400,,4.75,8,,1775,2679
93481771,Photo,Common Raven,Corvus corax,,Bryan Calk,2018-03-28,2018,3,28,1400,United States,US-NM-001,New Mexico,Bernalillo,Cibola NF--Sandia Crest,35.2103004,-106.4487000,"",,Unspecified,"","",,,,,,,S44368296,"",,,,,Corvus corax,comrav,Species,21400,,4.75,8,,1612,2419
611074864,Photo,Common Raven,Corvus corax,,Ali Mousavi,2023-10-06,2023,10,6,708,Iran,IR-21,Mazandaran,,Bardena--Galugah Raptor Count Site--سایت شمارش پرندگان شکاری,36.7124120,53.8154697,Adult – 1,Flying,Unspecified,"","",,,,,,,S151556981,"",,,,,Corvus corax,comrav,Species,21400,,4.75,8,"",1103,1544
608763578,Photo,Common Raven,Corvus corax,,John Alexander,2023-09-12,2023,9,12,1034,Canada,CA-NL-ON,Newfoundland and Labrador,"Avalon Peninsula-St. John's",NL--Cape Spear,47.5216036,-52.6246846,Adult – 1,,Unspecified,"","",,,,,,,S149713018,"",,,,"2 Adults, 2 Juveniles",Corvus corax,comrav,Species,21400,,4.75,8,,3747,6015
536132501,Photo,Common Raven,Corvus corax,,Derek Hudgins,2019-04-21,2019,4,21,1112,United States,US-CO-057,Colorado,Jackson,Rabbit Ears Pass--Old Columbine Trailhead,40.3914202,-106.6027403,Adult – 1,Flying,Unspecified,"","",,,,,,,S55392562,"",,,,,Corvus corax,comrav,Species,21400,,4.75,8,"",1183,1774
302063671,Photo,Common Raven,Corvus corax,,Miguel Rouco,2021-01-28,2021,1,28,915,Spain,ES-CL-SL,Castilla y León,Salamanca,Gomecello--Centro de Tratamiento de Residuos (acceso restringido),41.0138167,-5.5346583,"",,Unspecified,"","",,,,,,,S80018610,"",,,,,Corvus corax,comrav,Species,21400,,4.75,8,,1667,2500
541722521,Photo,Common Raven,Corvus corax,,Mac Aragon,2023-01-20,2023,1,20,1200,Spain,ES-CL-LN,Castilla y León,León,Crémenes--Pueblo y alrededores,42.9034331,-5.1434514,"",,Unspecified,"","",,,,,,,S130061605,"",,,,,Corvus corax,comrav,Species,21400,,4.02,43,,3446,5169
626846030,Photo,Common Raven,Corvus corax,,Simon Valdez-Juarez,2017-05-24,2017,5,24,0,Canada,CA-BC-OS,British Columbia,Okanagan-Similkameen,Manning Park--Lodge,49.0636111,-120.7852778,"",,Unspecified,"","",,,,,,,S203914056,"",,,,,Corvus corax,comrav,Species,21400,,4.75,8,,3867,5810
209233831,Photo,Common Raven,Corvus corax,,Timothy Piranian,2020-02-14,2020,2,14,1300,United States,US-AK-170,Alaska,Matanuska-Susitna Borough,Wasilla shopping center,61.5812980,-149.4339731,Adult – 1,,Unspecified,"","",,,,,,,S64485218,"",,,in front of mountain,,Corvus corax,comrav,Species,21400,,4.25,16,,2245,2994
146820631,Photo,Common Raven,Corvus corax,,Andrew Simon,2019-03-02,2019,3,2,911,United States,US-CA-073,California,San Diego,Cuyamaca Rancho SP--Paso Picacho Campground,32.9589400,-116.5807700,"",,Unspecified,"","",,,,,,,S53286949,"",,,,,Corvus corax,comrav,Species,21400,,4.24,17,,1631,2436
625325165,Photo,Common Raven,Corvus corax,,Matthew Addicks,2024-10-14,2024,10,14,1230,United States,US-PA-107,Pennsylvania,Schuylkill,Hawk Mountain Sanctuary--North Lookout,40.6416072,-75.9914862,"",,Unspecified,"","",,,,,,,S199997153,"",,,,,Corvus corax,comrav,Species,21400,,4.86,7,,2487,3730
610238158,Photo,Common Raven,Corvus corax,,nitay haiun,2023-10-18,2023,10,18,1050,Israel,IL-D,HaDarom,,Wadi David NR שמורת נחל דוד,31.4685970,35.3928370,"",,Unspecified,"","",,,,,,,S152812163,"",,,,,Corvus corax,comrav,Species,21400,,4.86,7,,2890,4335
608353352,Photo,Common Raven,Corvus corax,,Michael Stubblefield,2013-12-23,2013,12,23,1030,United States,US-CA-041,California,Marin,Las Gallinas Valley Sanitary District,38.0274109,-122.5155830,Adult – 1,"Flying; Foraging or Eating",Unspecified,"","",,,,,,,S62991699,"",,,"Common Raven (Corvus corax sinuatus), Southwestern subspecies, adult in flight over the Las Gallinas Wildlife Ponds, Marin, California.",,Corvus corax,comrav,Species,21400,,4.86,7,"",1548,2323
487835941,Photo,Common Raven,Corvus corax,,Kevin Hughes,2022-09-07,2022,9,7,0,Spain,ES-CM-TD,Castilla-La Mancha,Toledo,Calera y Chozas--estepas,39.9031000,-5.0092000,"",,Unspecified,"","",,,,,,,S118536448,"",,,,,Corvus corax,comrav,Species,21400,,4.86,7,,2700,3600
485036721,Photo,Common Raven,Corvus corax,,Noam Markus,2022-09-17,2022,9,17,935,United States,US-AK-110,Alaska,Juneau City and Borough,Juneau (town),58.3022738,-134.4198704,"",,Unspecified,"","",,,,,,,S118925691,"",,,,,Corvus corax,comrav,Species,21400,,4.86,7,,3034,4457
433302101,Photo,Common Raven,Corvus corax,,Ched Whitney,2022-04-05,2022,4,5,741,United States,US-NV-003,Nevada,Clark,Desert NWR--Corn Creek (Field Station),36.4387970,-115.3595660,"",,Unspecified,"","",,,,,,,S106341400,"",,,,,Corvus corax,comrav,Species,21400,,4.86,7,,1673,2048
429294171,Photo,Common Raven,Corvus corax,,Nathan Dubrow,2022-03-24,2022,3,24,1324,United States,US-ME-009,Maine,Hancock,Acadia NP--Otter Point,44.3072668,-68.1901217,"",Flying,Unspecified,"","",,,,,,,S105492620,"",,,,,Corvus corax,comrav,Species,21400,,4.86,7,"",2437,3569
386124431,Photo,Common Raven,Corvus corax,,Daniel Eslake,2021-11-07,2021,11,7,835,Canada,CA-BC-SL,British Columbia,Squamish-Lillooet,Owl Ridge Home,50.3539430,-122.7133180,"",,Unspecified,"","",,,,,,,S97261029,"",,,,,Corvus corax,comrav,Species,21400,,4.86,7,,1365,2048
245967621,Photo,Common Raven,Corvus corax,,Vivek Saggar,2020-06-27,2020,6,27,1716,India,IN-PB-RU,Punjab,Rupnagar,"Rup Nagar, Rupnagar IN-Punjab 30.93116, 76.67162",30.9311550,76.6716190,"","",Unspecified,"","",,,,,,,S70868061,"",,,,Was a big bird as compared to large billed crow. Size can be calculated & measured from bricks on which it is perched. Plus a slightly curved beak and hair beneath the beak.,Corvus corax,comrav,Species,21400,,4.86,7,Watermark,3109,4663
143211131,Photo,Common Raven,Corvus corax,,Dale Clark,2019-03-01,2019,3,1,838,United States,US-AZ-013,Arizona,Maricopa,Gilbert and Chandler Heights Rds. pond,33.2386696,-111.7912853,"",,Unspecified,"","",,,,,,,S53252850,"",,,,,Corvus corax,comrav,Species,21400,,4.86,7,,2474,3009
139214681,Photo,Common Raven,Corvus corax,,Brad Vissia,2019-02-05,2019,2,5,1550,Canada,CA-BC-CO,British Columbia,Central Okanagan,West Kelowna Carrington Rd,49.8321569,-119.6180677,"",,Unspecified,"","",,,,,,,S52422412,"",,,,,Corvus corax,comrav,Species,21400,,4.86,7,,2466,3688
93733821,Photo,Common Raven,Corvus corax,,Alex Lamoreaux,2017-10-16,2017,10,16,710,United States,US-MN-137,Minnesota,St. Louis,Hawk Ridge Nature Reserve,46.8469659,-92.0315212,Unknown – 1,Flying,Unspecified,"","",,,,,,,S39962882,"",,,,Multiple flocks of migrants,Corvus corax,comrav,Species,21400,,4.86,7,"",2007,3014
415635651,Photo,Common Raven,Corvus corax,,Scott Stafford,2022-02-12,2022,2,12,803,United States,US-DC-001,District of Columbia,District of Columbia,C&O Canal--Chain Bridge,38.9304370,-77.1127800,"",,Unspecified,"","",,,,,,,S102482637,"",,,,On Chain Bridge post.  Vocalizing occasionally. Flew up under bridge a couple times but could not locate spot.,Corvus corax,comrav,Species,21400,,4.86,7,,2903,4355
204802461,Photo,Common Raven,Corvus corax,,Martin  Flack,2018-04-10,2018,4,10,1030,United States,US-CA-083,California,Santa Barbara,Santa Cruz Island--Prisoners Harbor,34.0187319,-119.6821404,"",,Unspecified,"","",,IBC1510298,,,,,S65005884,"",,,"Adult perched on a metal post. Elevation: 3 m. Date added to IBC: July 28, 2018.",,Corvus corax,comrav,Species,21400,,4.86,7,,2941,4412
204612711,Photo,Common Raven,Corvus corax,,Pavel Štěpánek,2016-06-22,2016,6,22,0,Bulgaria,BG-09,Kardzhali,,Kardzhali,41.6337936,25.3785601,"",,Unspecified,"","",,IBC1599036,,,,,S64998451,"",,,"Common Raven (Corvus corax). Elevation: 651 m. Date added to IBC: August 1, 2019.",,Corvus corax,comrav,Species,21400,,4.86,7,,2500,3800
175423361,Photo,Common Raven,Corvus corax,,Jared Keyes,2019-08-09,2019,8,9,728,United States,US-VT-013,Vermont,Grand Isle,"Stevens Camp, North Hero, VT",44.7754379,-73.3241701,Juvenile,,Unspecified,"","",,,,,,,S58870374,"",,,,Three CORA being hounded by a murder of crows. And later same ravens were hounding turkey vultures. Clearly another day of flight training across multiple species. Perfect southwest wind creating updraft as it strikes cliffs.,Corvus corax,comrav,Species,21400,,4.86,7,,3285,4928
540213041,Photo,Common Raven,Corvus corax,,Manuel Fernandez-Bermejo,2023-02-27,2023,2,27,1423,Spain,ES-CL-LN,Castilla y León,León,"LE-321, Valdelugueros ES-León 43.03903, -5.47314",43.0390330,-5.4731450,"",,Unspecified,"","",,,,,,,S129767413,"",,,,,Corvus corax,comrav,Species,21400,,4.50,10,,1402,2103
207531021,Photo,Common Raven,Corvus corax,,Alex Lamoreaux,2020-01-27,2020,1,27,1546,Mexico,MX-OAX-024,Oaxaca,Tlacolula,Presa Piedra Azul,17.0437158,-96.5152336,"","Carrying Food; Flying",Unspecified,"","",,,,,,,S63861917,"",,,,,Corvus corax,comrav,Species,21400,,4.50,10,"",2473,3709
52886751,Photo,Common Raven,Corvus corax,,Lew Johnson,2017-03-30,2017,3,30,1000,United States,US-TX-453,Texas,Travis,Lago Vista,30.4602000,-97.9883900,"",,Unspecified,"","",,,,,,,S35549561,"",,,,,Corvus corax,comrav,Species,21400,,3.71,189,,2554,3830
471277401,Photo,Common Raven,Corvus corax,,Will Sweet,2022-07-30,2022,7,30,833,United States,US-UT-019,Utah,Grand,Arches NP--Broken Arch Trail,38.7730231,-109.5802546,"",,Unspecified,"","",,,,,,,S116020920,"",,,,,Corvus corax,comrav,Species,21400,,4.56,9,,2305,3811
38286571,Photo,Common Raven,Corvus corax,,Brian Sullivan,2016-10-20,2016,10,20,937,United States,US-MN-137,Minnesota,St. Louis,Hawk Ridge Nature Reserve--The Summit,46.8525610,-92.0280710,Immature,,Unspecified,"","",,,,,,,S32136926,"",,,,,Corvus corax,comrav,Species,21400,,4.56,9,,1500,2500
517232921,Photo,Common Raven,Corvus corax,,Brad Imhoff,2022-12-27,2022,12,27,1045,United States,US-MI-033,Michigan,Chippewa,"S. Hantz Rd. (46.18657, -84.55087)",46.1865740,-84.5508700,"",,Unspecified,"","",,,,,,,S124711974,"",,,,,Corvus corax,comrav,Species,21400,,4.60,10,,3506,3506
89707181,Photo,Common Raven,Corvus corax,,Dobrin Botev,2018-03-10,2018,3,10,1427,Greece,GR-G-39,Western Greece,Ileia,Lake Kaiafa (Λίμνη Καϊάφα),37.5043537,21.6071205,"",,Unspecified,"","",,,,,,,S43523975,"",,,,,Corvus corax,comrav,Species,21400,,4.36,11,,914,1199
204548911,Photo,Common Raven,Corvus corax,,Pierandrea Brichetti,1975-04-23,1975,4,23,0,Croatia,HR-08,Primorsko-goranska županija,,"Cres Island (44.939, 14.3893)",44.9390000,14.3893000,"","",Unspecified,"","",,IBC1043001,,,,,S64996875,"",,,"Common Raven newly hatched nestlings in a nest lined with hair sheep. Elevation: 25 m. Date added to IBC: June 21, 2016.",,Corvus corax,comrav,Species,21400,,4.36,11,Nest,843,1200
239229551,Photo,Common Raven,Corvus corax,,Nicolas Main,2020-05-27,2020,5,27,1839,United States,US-CT-005,Connecticut,Litchfield,"Raven Nest Russell St, Litchfield",41.7414920,-73.1960440,"",,Unspecified,"","",,,,,,,S69739333,"",,,,"These birds nest under a pavilion in a state lot for gravel, sand, rocks etc. They like to hang around for a while before leaving the area for good. This gives me a chance to drive up and watch them closely. I’ve always loved ravens, how smart and charismatic they are, always putting on a show. Hopping around and chasing each other. 5 young birds along with two nearby adults. Nice to see these birds nesting in ct as they aren’t the most common breeders around!",Corvus corax,comrav,Species,21400,,4.29,14,,2848,4272
624529301,Photo,Common Raven,Corvus corax,,Ranjeet Singh,2024-10-05,2024,10,5,650,India,IN-RJ-CR,Rajasthan,Churu,Tal Chhapar WLS--Gaushala Area,27.8074984,74.4498610,"",,Unspecified,"","",,,,,,,S197540985,"",,,,,Corvus corax,comrav,Species,21400,,5.00,6,,3456,4608
618252516,Photo,Common Raven,Corvus corax,,Ruslan Balagansky,2024-04-27,2024,4,27,1618,United States,US-CA-073,California,San Diego,San Diego Zoo Safari Park,33.0973669,-116.9981978,"",Carrying Food,Unspecified,"","",,,,,,,S170637121,"",,,,,Corvus corax,comrav,Species,21400,,5.00,6,"",2996,4494
618103150,Photo,Common Raven,Corvus corax,,Iker Fernández Martínez,2024-03-28,2024,3,28,1617,Spain,ES-CN-GRC,Canarias,Gran Canaria,Bailico,27.9610496,-15.5895138,"",,Unspecified,"","",,,,,,,S166252621,"",,,,,Corvus corax,comrav,Species,21400,,5.00,6,,2638,3957
614628377,Photo,Common Raven,Corvus corax,,Timothy Piranian,2024-02-08,2024,2,8,1545,United States,US-AK-020,Alaska,Anchorage Municipality,Anchorage--Northern Lights & Arctic,61.1949236,-149.8983841,"","",Unspecified,"","",,,,,,,S161068026,"",,,,"- many around the area - white raven at McDonald's and Spenard Roadhouse -",Corvus corax,comrav,Species,21400,,5.00,6,Aberrant individual,4437,5804
582324941,Photo,Common Raven,Corvus corax,,Landon Roberts,2023-06-03,2023,6,3,954,United States,US-CA-041,California,Marin,Pt. Reyes--Lighthouse,37.9960000,-123.0220000,"",,Unspecified,"","",,,,,,,S140357473,"",,,,,Corvus corax,comrav,Species,21400,,5.00,6,,3268,4902
572596141,Photo,Common Raven,Corvus corax,,Justin Flint,2023-05-08,2023,5,8,1228,United States,US-AK-110,Alaska,Juneau City and Borough,"2–28 Marine Way, Juneau US-AK 58.29958, -134.40737",58.2995850,-134.4073690,"Adult Female – 1; Adult Male – 1",,Unspecified,"","",,,,,,,S137887886,"",,,,,Corvus corax,comrav,Species,21400,,5.00,6,,1477,1970
572596121,Photo,Common Raven,Corvus corax,,Justin Flint,2023-05-08,2023,5,8,1228,United States,US-AK-110,Alaska,Juneau City and Borough,"2–28 Marine Way, Juneau US-AK 58.29958, -134.40737",58.2995850,-134.4073690,Adult – 1,,Unspecified,"","",,,,,,,S137887886,"",,,,,Corvus corax,comrav,Species,21400,,5.00,6,,1376,1771
549805291,Photo,Common Raven,Corvus corax,,Michael Stubblefield,2016-10-25,2016,10,25,1345,United States,US-NJ-003,New Jersey,Bergen,State Line Lookout,40.9882297,-73.9062139,Adult – 1,Flying,Unspecified,"","",,,,,,,S131835737,"",,,"Common Raven (Corvus corax principalis), adult in flight over the Hudson River at Palisades Interstate Park, State Line Lookout in Alpine, New Jersey.",,Corvus corax,comrav,Species,21400,,5.00,6,"",2140,3212
543836721,Photo,Common Raven,Corvus corax,,Cynthia  Case,2023-03-06,2023,3,6,1414,United States,US-CA-075,California,San Francisco,"Heron's Head Park",37.7381243,-122.3725462,"",,Unspecified,"","",,,,,,,S130353422,"",,,,W nesting material,Corvus corax,comrav,Species,21400,,5.00,6,,3377,5066
504885401,Photo,Common Raven,Corvus corax,,Grigory Heaton,2022-10-14,2022,10,14,927,United States,US-CA-083,California,Santa Barbara,Santa Cruz Island--Scorpion Canyon Campgrounds,34.0484615,-119.5645389,Adult – 1,,Unspecified,"","",,,,,,,S120678769,"",,,,,Corvus corax,comrav,Species,21400,,5.00,6,,3654,5480
487835721,Photo,Common Raven,Corvus corax,,Kevin Hughes,2022-09-07,2022,9,7,0,Spain,ES-CM-TD,Castilla-La Mancha,Toledo,Calera y Chozas--estepas,39.9031000,-5.0092000,"",,Unspecified,"","",,,,,,,S118536448,"",,,,,Corvus corax,comrav,Species,21400,,5.00,6,,4400,5866
485506501,Photo,Common Raven,Corvus corax,,Omer Toy,2022-09-18,2022,9,18,911,Türkiye,TR-34,İstanbul,,Toygartepe,41.1274536,29.1432738,"",,Unspecified,"","",,,,,,,S118969112,"",,,,,Corvus corax,comrav,Species,21400,,5.00,6,,667,1000
468216091,Photo,Common Raven,Corvus corax,,Sasha Cahill,2022-07-09,2022,7,9,700,United States,US-CA-059,California,Orange,Crystal Cove SP--El Moro,33.5662776,-117.8219211,"Adult Female – 1; Adult Male – 1",,Unspecified,"","",,,,,,,S114721964,"",,,1/1600 ISO 320 F/5.6,,Corvus corax,comrav,Species,21400,,5.00,6,,2633,3949
464295241,Photo,Common Raven,Corvus corax,,Michael Stubblefield,2022-04-22,2022,4,22,613,United States,US-CA-085,California,Santa Clara,Byxbee Park,37.4510644,-122.1055913,Adult – 1,,Unspecified,"","",,,,,,,S107709277,"",,,"Common Raven (Corvus corax sinuatus), adult at Byxbee Park, Palo Alto, California.",,Corvus corax,comrav,Species,21400,,5.00,6,,4000,6000
464295231,Photo,Common Raven,Corvus corax,,Michael Stubblefield,2022-04-22,2022,4,22,613,United States,US-CA-085,California,Santa Clara,Byxbee Park,37.4510644,-122.1055913,Adult – 1,,Unspecified,"","",,,,,,,S107709277,"",,,"Common Raven (Corvus corax sinuatus), adult at Byxbee Park, Palo Alto, California.",,Corvus corax,comrav,Species,21400,,5.00,6,,4000,6000
462402681,Photo,Common Raven,Corvus corax,,Sylvain Reyt,2021-03-28,2021,3,28,850,Spain,ES-CN-FVT,Canarias,Fuerteventura,Jandia PNat--La Pared,28.1908158,-14.2346764,"",,Unspecified,"","",,,,,,,S84258650,"",,,,,Corvus corax,comrav,Species,21400,,5.00,6,,2404,3606
461699881,Photo,Common Raven,Corvus corax,,Marcin Dyduch,2022-05-24,2022,5,24,924,Poland,PL-PM,Pomorskie,,Kuźnica--raptor count point,54.7349068,18.5843132,"",,Unspecified,"","",,,,,,,S111148461,"",,,,,Corvus corax,comrav,Species,21400,,5.00,6,,1067,1600
431540671,Photo,Common Raven,Corvus corax,Corvus brachyrhynchos -- American Crow,Jefferson Ashby,2022-04-02,2022,4,2,909,United States,US-WA-073,Washington,Whatcom,Whatcom Falls Park,48.7535711,-122.4259262,"",Flying,Unspecified,"","",,,,,,,S106107115,"",,,Cool comparison of AMCR and CORA,,Corvus corax,comrav,Species,21400,,5.00,6,"",2290,3435
397395491,Photo,Common Raven,Corvus corax,,Steven Mlodinow,2021-12-18,2021,12,18,1219,United States,US-NE-165,Nebraska,Sioux,"US-20, near MM 18, e of Harrison",42.6589540,-103.6254080,Unknown – 1,Flying,Unspecified,"","",,,,,,,S99082938,"",,,,"Photos. At mile marker 18, and then flew west. Heard giving deep croak of CORA",Corvus corax,comrav,Species,21400,,5.00,6,"",2380,3000
277085801,Photo,Common Raven,Corvus corax,,Wouter Van Gasse,2020-11-03,2020,11,3,1047,Germany,DE-SN-FG,Sachsen,Mittelsachsen,Topfseifersdorf (Ortschaft),50.9975745,12.8656797,Adult – 1,"Flying; Vocalizing",Unspecified,"","",,,,,,,S75795764,"",,,,,Corvus corax,comrav,Species,21400,,5.00,6,"",3000,4800
274731191,Photo,Common Raven,Corvus corax,,Marc Gálvez,2020-10-24,2020,10,24,1231,Spain,ES-CT-LD,Cataluña,Lleida,El Codó,42.3018078,0.9065941,"",,Unspecified,"","",,,,,,,S75293263,"",,,,,Corvus corax,comrav,Species,21400,,5.00,6,,2818,4228
204560251,Photo,Common Raven,Corvus corax,,Marco Valentini,2016-04-08,2016,4,8,0,Spain,ES-CL-SL,Castilla y León,Salamanca,Campanarios de Azaba Biological Reserve,40.4975000,-6.7989000,"",Flying,Unspecified,"","",,IBC1118369,,,,,S64995344,"",,,"Flying. Elevation: 754 m. Date added to IBC: June 22, 2016.",,Corvus corax,comrav,Species,21400,,5.00,6,"",1600,2400
386528731,Photo,Common Raven,Corvus corax,,Sunny Zhang,2021-11-08,2021,11,8,1100,Canada,CA-BC-GV,British Columbia,Metro Vancouver,Delta--Fields and area near Burns Dr and 96th St,49.0925584,-122.9574372,"",,Unspecified,"","",,,,,,,S97326103,"",,,,,Corvus corax,comrav,Species,21400,,5.00,6,,3231,4585
375244041,Photo,Common Raven,Corvus corax,,Gizella Nyquist,2021-10-04,2021,10,4,700,United States,US-CA-059,California,Orange,Irvine Regional Park,33.8010410,-117.7559000,"",,Unspecified,"","",,,,,,,S95638794,"",,,,,Corvus corax,comrav,Species,21400,,5.00,6,,2213,3315
339650111,Photo,Common Raven,Corvus corax,,Gizella Nyquist,2021-05-07,2021,5,7,830,United States,US-CA-059,California,Orange,Irvine Regional Park,33.7968382,-117.7532673,"",,Unspecified,"","",,,,,,,S88425062,"",,,,,Corvus corax,comrav,Species,21400,,5.00,6,,1335,2000
206171551,Photo,Common Raven,Corvus corax,,Frédéric PELSY,2015-05-18,2015,5,18,0,Norway,NO-20,Finnmark,,Ekkerøya,70.0734000,30.1329000,"",,Unspecified,"","",,IBC1097876,,,,,S65201892,"",,,"An adult in the kittiwake colony. Elevation: 23 m. Date added to IBC: June 22, 2016.",IBC scientific name: Corvus corax corax.,Corvus corax,comrav,Species,21400,,5.00,6,,567,850
199045501,Photo,Common Raven,Corvus corax,,Christian Hagenlocher,2020-01-12,2020,1,12,1347,United States,US-MT-031,Montana,Gallatin,West Yellowstone (Town),44.6620808,-111.1003135,"",,Unspecified,"","",,,,,,,S63341488,"",,,,,Corvus corax,comrav,Species,21400,,4.13,15,,4000,6000
142607851,Photo,Common Raven,Corvus corax,,Blake Matheson,2019-02-19,2019,2,19,1115,United States,US-CA-053,California,Monterey,Looking Hill,36.5738019,-121.8989539,"",,Unspecified,"","",,,,,,,S53135640,"",,,,,Corvus corax,comrav,Species,21400,,4.62,8,,2607,3818
272030201,Photo,Common Raven,Corvus corax,,Brian Sullivan,2020-10-11,2020,10,11,904,United States,US-CA-045,California,Mendocino,MacKerricher SP--Glass Beach,39.4534671,-123.8126918,"",,Unspecified,"","",,,,,,,S74723082,"",,,,,Corvus corax,comrav,Species,21400,,4.62,8,,3333,5000
239229511,Photo,Common Raven,Corvus corax,,Nicolas Main,2020-05-27,2020,5,27,1839,United States,US-CT-005,Connecticut,Litchfield,"Raven Nest Russell St, Litchfield",41.7414920,-73.1960440,"",,Unspecified,"","",,,,,,,S69739333,"",,,,"These birds nest under a pavilion in a state lot for gravel, sand, rocks etc. They like to hang around for a while before leaving the area for good. This gives me a chance to drive up and watch them closely. I’ve always loved ravens, how smart and charismatic they are, always putting on a show. Hopping around and chasing each other. 5 young birds along with two nearby adults. Nice to see these birds nesting in ct as they aren’t the most common breeders around!",Corvus corax,comrav,Species,21400,,4.21,14,,2848,4272
246461021,Photo,Common Raven,Corvus corax,,Alexander Hagge,2020-06-25,2020,6,25,630,Poland,PL-MA,Malopolskie,,"Tatra National Park--green trail, Kuźnice, Kasprowy Wierch, Kondratowa Glade, Czerwone Wierchy",49.2692327,19.9817920,"","",Unspecified,"","",,,,,,,S70825111,"",,,,"juv & ad seen around Świnica and Świnicka przełęcz, juvenile bird extraordinarily tame",Corvus corax,comrav,Species,21400,,4.17,18,Habitat,1366,2048
208991491,Photo,Common Raven,Corvus corax,,Ian Wiist,2020-02-13,2020,2,13,1102,United States,US-AZ-001,Arizona,Apache,Petrified Forest NP,35.0640148,-109.7847412,"",,Unspecified,"","",,,,,,,S64422111,"",,,,,Corvus corax,comrav,Species,21400,,4.25,12,,2880,4320
262124001,Photo,Common Raven,Corvus corax,,Teresa Cohen,2020-09-09,2020,9,9,847,Portugal,PT-05-CB,Castelo Branco,Castelo Branco,PN Tejo Internacional--Monte Barata,39.7006493,-7.3162508,"",,Unspecified,"","",,,,,,,S73505679,"",,,,,Corvus corax,comrav,Species,21400,,4.40,10,,2999,4001
505976621,Photo,Common Raven,Corvus corax,,Andrés  Rojas Sánchez,2022-11-18,2022,11,18,1550,Spain,ES-AN-MG,Andalucía,Málaga,Casares--Castillo,36.4434126,-5.2735544,"","Flying; Vocalizing",Unspecified,"","",,,,,,,S122607756,"",,,,,Corvus corax,comrav,Species,21400,,4.62,8,"",2302,4096
239229571,Photo,Common Raven,Corvus corax,,Nicolas Main,2020-05-27,2020,5,27,1839,United States,US-CT-005,Connecticut,Litchfield,"Raven Nest Russell St, Litchfield",41.7414920,-73.1960440,"",,Unspecified,"","",,,,,,,S69739333,"",,,,"These birds nest under a pavilion in a state lot for gravel, sand, rocks etc. They like to hang around for a while before leaving the area for good. This gives me a chance to drive up and watch them closely. I’ve always loved ravens, how smart and charismatic they are, always putting on a show. Hopping around and chasing each other. 5 young birds along with two nearby adults. Nice to see these birds nesting in ct as they aren’t the most common breeders around!",Corvus corax,comrav,Species,21400,,4.23,13,,2848,4272
85200731,Photo,Common Raven,Corvus corax,,Jim Merritt,2018-02-08,2018,2,8,1041,United States,US-CO-041,Colorado,El Paso,Fountain Creek Regional Park--Nature Center/Cattail Marsh area,38.7133980,-104.7170105,"",,Unspecified,"","",,,,,,,S42596256,"",,,,,Corvus corax,comrav,Species,21400,,4.31,13,,1931,2048
521631191,Photo,Common Raven,Corvus corax,,Manny Salas,2023-01-05,2023,1,5,1412,United States,US-MI-033,Michigan,Chippewa,Dafter Dump,46.3341656,-84.4451183,"",,Unspecified,"","",,,,,,,S125482406,"",,,,,Corvus corax,comrav,Species,21400,,4.71,7,,2239,3359
515617161,Photo,Common Raven,Corvus corax,,Walt Anderson,2022-12-21,2022,12,21,1125,United States,US-AZ-025,Arizona,Yavapai,Fain Park & downstream,34.5745093,-112.3509709,Adult – 1,,Unspecified,"","",,,,,,,S124379055,"",,,,,Corvus corax,comrav,Species,21400,,4.71,7,,3648,5472
510169991,Photo,Common Raven,Corvus corax,,Charles Thomas,2022-12-02,2022,12,2,1638,United States,US-AZ-005,Arizona,Coconino,"Grand Canyon National Park South Rim, Grand Canyon Village US-AZ 36.05293, -112.14446",36.0529290,-112.1444630,"",,Unspecified,"","",,,,,,,S123357637,"",,,,,Corvus corax,comrav,Species,21400,,4.71,7,,2500,3750
290466321,Photo,Common Raven,Corvus corax,,William Legge,2020-12-23,2020,12,23,720,United States,US-CA-041,California,Marin,Rodeo Lagoon (including beach and offshore),37.8304863,-122.5329514,Adult – 1,,Unspecified,"","",,,,,,,S77893213,"",,,"Common Raven - Rodeo Lagoon, Marin County, California, USA - December 23, 2020",,Corvus corax,comrav,Species,21400,,4.71,7,,3888,5184
234114531,Photo,Common Raven,Corvus corax,,Simon Colenutt,2017-09-25,2017,9,25,645,United Kingdom,GB-ENG-DOR,England,Dorset,Portland Bill,50.5167012,-2.4552727,"",,Unspecified,"","",,,,,,,S68962385,"",,,,,Corvus corax,comrav,Species,21400,,4.71,7,,,
232923301,Photo,Common Raven,Corvus corax,,Forest Botial-Jarvis,2020-05-09,2020,5,9,1701,United States,US-MI-089,Michigan,Leelanau,"Sleeping Bear Dunes National Lakeshore, Glen Arbor US-MI 44.89625, -86.00316",44.8962480,-86.0031560,"",,Unspecified,"","",,,,,,,S68725447,"",,,,,Corvus corax,comrav,Species,21400,,4.71,7,,1416,2400
239229561,Photo,Common Raven,Corvus corax,,Nicolas Main,2020-05-27,2020,5,27,1839,United States,US-CT-005,Connecticut,Litchfield,"Raven Nest Russell St, Litchfield",41.7414920,-73.1960440,"",,Unspecified,"","",,,,,,,S69739333,"",,,,"These birds nest under a pavilion in a state lot for gravel, sand, rocks etc. They like to hang around for a while before leaving the area for good. This gives me a chance to drive up and watch them closely. I’ve always loved ravens, how smart and charismatic they are, always putting on a show. Hopping around and chasing each other. 5 young birds along with two nearby adults. Nice to see these birds nesting in ct as they aren’t the most common breeders around!",Corvus corax,comrav,Species,21400,,4.25,12,,2848,4272
208991421,Photo,Common Raven,Corvus corax,,Ian Wiist,2020-02-13,2020,2,13,1102,United States,US-AZ-001,Arizona,Apache,Petrified Forest NP,35.0640148,-109.7847412,"",,Unspecified,"","",,,,,,,S64422111,"",,,,,Corvus corax,comrav,Species,21400,,4.40,10,,2875,4319
64237961,Photo,Common Raven,Corvus corax,,Kim Moore,2017-07-24,2017,7,24,815,United States,US-CA-037,California,Los Angeles,Angeles NF--Buckhorn Campground,34.3457038,-117.9152620,"",,Unspecified,"","",,,,,,,S38304546,"",,,,,Corvus corax,comrav,Species,21400,,3.91,23,,1524,1519
150069311,Photo,Common Raven,Corvus corax,,Chris Wood,2019-04-09,2019,4,9,729,United States,US-CO-019,Colorado,Clear Creek,Idaho Springs (town),39.7423063,-105.5173302,Unknown,,Unspecified,"","",,,,,,,S54745316,"",,,,,Corvus corax,comrav,Species,21400,,4.71,7,,1855,3092
397395501,Photo,Common Raven,Corvus corax,,Steven Mlodinow,2021-12-18,2021,12,18,1219,United States,US-NE-165,Nebraska,Sioux,"US-20, near MM 18, e of Harrison",42.6589540,-103.6254080,Unknown – 1,Flying,Unspecified,"","",,,,,,,S99082938,"",,,,"Photos. At mile marker 18, and then flew west. Heard giving deep croak of CORA",Corvus corax,comrav,Species,21400,,4.71,7,"",2793,3000
626717616,Photo,Common Raven,Corvus corax,Larus smithsonianus -- American Herring Gull,Peter Mundale,2024-11-25,2024,11,25,1429,United States,US-MN-137,Minnesota,St. Louis,UMD--Bagley Nature Area,46.8231200,-92.0861200,"",Flying,Unspecified,"","",,,,,,,S203614571,"",,,*being mobbed by an AHGU,"*carrying the legs of a poor pigeon, and being mobbed by an AHGU",Corvus corax,comrav,Species,21400,,4.50,8,"",2321,3482
462914801,Photo,Common Raven,Corvus corax,,Annie Lavoie,2022-06-26,2022,6,26,1150,Canada,CA-QC-FS,Quebec,Le Fjord-du-Saguenay,"Saint-Félix-d'Otis - Chalet",48.2939438,-70.6373638,"",,Unspecified,"","",,,,,,,S113881927,"",,,"Une famille sortie récemment du nid, on les entend crier en longueur de journée. ",,Corvus corax,comrav,Species,21400,,4.83,6,,2886,5109
349152631,Photo,Common Raven,Corvus corax,,Kevin Krebs,2021-06-20,2021,6,20,818,Canada,CA-BC-GV,British Columbia,Metro Vancouver,Stanley Park,49.3029688,-123.1432629,Juvenile – 1,,Unspecified,"","",,,,,,,S90499151,"",,,,"2 juveniles - visible gape, pale eyes, bright pink inner mouth.",Corvus corax,comrav,Species,21400,,4.83,6,,1367,2048
296898091,Photo,Common Raven,Corvus corax,,mc coburn,2021-01-11,2021,1,11,937,Canada,CA-ON-TO,Ontario,Toronto,Tommy Thompson Park,43.6282673,-79.3291670,"",,Unspecified,"","",,,,,,,S79090245,"",,,,,Corvus corax,comrav,Species,21400,,4.83,6,,2068,3460
280360971,Photo,Common Raven,Corvus corax,,Blair Dudeck,2020-11-05,2020,11,5,901,Canada,CA-ON-NP,Ontario,Nipissing,Algonquin Provincial Park--Mizzy Lake Trail (Old Railway bed),45.5750595,-78.6843395,"",,Unspecified,"","",,,,,,,S75878799,"",,,,,Corvus corax,comrav,Species,21400,,4.83,6,,3648,5472
211144071,Photo,Common Raven,Corvus corax,,Jim Merritt,2020-02-22,2020,2,22,834,United States,US-CO-041,Colorado,El Paso,Red Rock Canyon Open Space,38.8473432,-104.8811263,"",,Unspecified,"","",,,,,,,S64857150,"",,,,,Corvus corax,comrav,Species,21400,,4.83,6,,8596,10000
204876081,Photo,Common Raven,Corvus corax,,Phillip Edwards,2016-06-05,2016,6,5,0,Canada,CA-BC-FF,British Columbia,Fraser-Fort George,Mount Robson Provincial Park,53.0338400,-119.2315700,Adult – 1,,Unspecified,"","",,IBC1337278,,,,,S65010061,"",,,"Adult. Elevation: 2504 m. Date added to IBC: February 27, 2017.",,Corvus corax,comrav,Species,21400,,4.83,6,,1333,2000
153278341,Photo,Common Raven,Corvus corax,,Bob Walker,2019-04-23,2019,4,23,904,United States,US-NM-028,New Mexico,Los Alamos,6th Street Pond,35.8786940,-106.2918904,Adult,,Unspecified,"","",,,,,,,S55298355,"",,,,,Corvus corax,comrav,Species,21400,,4.83,6,,,
93218541,Photo,Common Raven,Corvus corax,,Dale Pate,2018-04-06,2018,4,6,1130,United States,US-NM-028,New Mexico,Los Alamos,Fuller Lodge,35.8819729,-106.3020640,"",,Unspecified,"","",,,,,,,S44313155,"",,,,,Corvus corax,comrav,Species,21400,,4.83,6,,2204,3982
64900141,Photo,Common Raven,Corvus corax,,Christoph Moning,2011-04-05,2011,4,5,0,Norway,NO-20,Finnmark,,"seawatching near Kramvik, coast to Kiberg",70.2459142,30.8356817,Adult,,Unspecified,"","",,,,,,,S11661835,"",,,,,Corvus corax,comrav,Species,21400,,4.83,6,,2493,3734
613619650,Photo,Common Raven,Corvus corax,,Thomas Gibson,2024-01-07,2024,1,7,1256,Spain,ES-CN-FVT,Canarias,Fuerteventura,Mirador del Risco de las Peñas,28.3795257,-14.0952323,"",,Unspecified,"","",,,,,,,S158339465,"",,,,,Corvus corax,comrav,Species,21400,,4.83,6,,3447,5170
610214590,Photo,Common Raven,Corvus corax,,Amanda Aman,2023-10-21,2023,10,21,1338,United States,US-CA-075,California,San Francisco,Twin Peaks Natural Area,37.7539752,-122.4477291,"",,Unspecified,"","",,,,,,,S152770756,"",,,,,Corvus corax,comrav,Species,21400,,4.83,6,,4142,5997
512765541,Photo,Common Raven,Corvus corax,,Rui Pereira | Portugal Birding,2022-12-10,2022,12,10,830,Spain,ES-EX-BD,Extremadura,Badajoz,Sª de San Pedro--Torrico de San Pedro,39.4087745,-6.9891976,"",,Unspecified,"","",,,,,,,S123912718,"",,,,,Corvus corax,comrav,Species,21400,,4.83,6,,2013,3346
495616031,Photo,Common Raven,Corvus corax,,Gonzalo Astete Martín,2022-10-20,2022,10,20,837,Spain,ES-AN-MG,Andalucía,Málaga,Algaba de Ronda,36.7114532,-5.1789121,"",,Unspecified,"","",,,,,,,S120982020,"",,,,,Corvus corax,comrav,Species,21400,,4.83,6,,2213,3320
477088231,Photo,Common Raven,Corvus corax,,Rajkumar Das,2022-07-09,2022,7,9,915,India,IN-LA-LE,Ladakh,Leh,Changla Pass,34.0473335,77.9303349,"",,Unspecified,"","",,,,,,,S117336064,"",,,,,Corvus corax,comrav,Species,21400,,4.83,6,,2321,3482
386756911,Photo,Common Raven,Corvus corax,,Grace C,2021-06-25,2021,6,25,1229,United States,US-UT-017,Utah,Garfield,Bryce Canyon NP,37.6461898,-112.1660052,"",,Unspecified,"","",,,,,,,S97367106,"",,,,,Corvus corax,comrav,Species,21400,,4.83,6,,3238,4857
386476021,Photo,Common Raven,Corvus corax,,African Googre,2021-11-07,2021,11,7,1313,Ukraine,UA-12,"Dnipropetrovs'ka Oblast'",,Поплавок (Poplavok),48.4742140,35.0408170,Adult – 1,Flying,Unspecified,"","",,,,,,,S97236078,"",,,,,Corvus corax,comrav,Species,21400,,4.83,6,"",1304,1956
359351141,Photo,Common Raven,Corvus corax,,Josep del Hoyo,2021-07-25,2021,7,25,1721,Spain,ES-AR-ZG,Aragón,Zaragoza,Farlete--Partasona,41.6593481,-0.5430546,Adult – 1,,Unspecified,"","",,,,,,,S92293985,"",,,"A bird at the edge of a pond, with open beak. Videograb.",,Corvus corax,comrav,Species,21400,,4.83,6,,2160,3592
312847791,Photo,Common Raven,Corvus corax,,Connor Bowhay,2021-02-28,2021,2,28,1030,Canada,CA-AB-FN,Alberta,Banff,Jasper NP--Jasper (town),52.8750527,-118.0853033,Unknown – 1,,Unspecified,"","",,,,,,,S82607981,"",,,,,Corvus corax,comrav,Species,21400,,4.83,6,,2649,3974
288781481,Photo,Common Raven,Corvus corax,,Alex Lamoreaux,2020-07-29,2020,7,29,1007,United States,US-CA-075,California,San Francisco,"GGNRA--Land's End Trail/Hermit Rock Overlook (Historic Shipwrecks, 37.7839,-122.5096)",37.7839470,-122.5096120,Unknown – 1,Flying,Unspecified,"","",,,,,,,S71937191,"",,,,,Corvus corax,comrav,Species,21400,,4.83,6,"",2925,4387
288781451,Photo,Common Raven,Corvus corax,,Alex Lamoreaux,2020-07-29,2020,7,29,1007,United States,US-CA-075,California,San Francisco,"GGNRA--Land's End Trail/Hermit Rock Overlook (Historic Shipwrecks, 37.7839,-122.5096)",37.7839470,-122.5096120,Unknown – 1,Flying,Unspecified,"","",,,,,,,S71937191,"",,,,,Corvus corax,comrav,Species,21400,,4.83,6,"",2808,4212
280360871,Photo,Common Raven,Corvus corax,,Blair Dudeck,2020-11-05,2020,11,5,901,Canada,CA-ON-NP,Ontario,Nipissing,Algonquin Provincial Park--Mizzy Lake Trail (Old Railway bed),45.5750595,-78.6843395,"",,Unspecified,"","",,,,,,,S75878799,"",,,,,Corvus corax,comrav,Species,21400,,4.83,6,,3648,5472
182026601,Photo,Common Raven,Corvus corax,,Dean LaTray,2019-10-11,2019,10,11,800,United States,US-CA-041,California,Marin,Pt. Reyes--Outer Point,38.0087425,-122.9962349,"",,Unspecified,"","",,,,,,,S60539473,"",,,,,Corvus corax,comrav,Species,21400,,4.83,6,,2965,5270
167456821,Photo,Common Raven,Corvus corax,,Kevin McGowan,2019-06-29,2019,6,29,1210,United States,US-AK-020,Alaska,Anchorage Municipality,"Portage Glacier Rd, just west of tunnel",60.7895057,-148.8105022,Adult,,Unspecified,"","",,,,,,,S58033261,"",,,,"Intense begging to adult; juvenile fights.",Corvus corax,comrav,Species,21400,,4.83,6,,3648,5472
53450881,Photo,Common Raven,Corvus corax,,Jay McGowan,2017-03-26,2017,3,26,1614,United States,US-NY-109,New York,Tompkins,Stevenson Rd. Game Farm and Compost,42.4467995,-76.4406126,"",,Unspecified,"","",,,,,,,S35450449,"",,,,Eating an egg right along Stevenson.,Corvus corax,comrav,Species,21400,,4.83,6,,3477,5137
423292731,Photo,Common Raven,Corvus corax,,Sean HH,2022-03-08,2022,3,8,720,Canada,CA-ON-TO,Ontario,Toronto,Tommy Thompson Park,43.6282673,-79.3291670,"",,Unspecified,"","",,,,,,,S104428664,"",,,,,Corvus corax,comrav,Species,21400,,4.25,12,,2736,3648
157282151,Photo,Common Raven,Corvus corax,,Christoph Moning,2019-04-20,2019,4,20,1200,Georgia,GE-MM,"Mts'khet'a-Mt'ianet'i",,Valley of the Terek River,42.6737433,44.6418845,Adult,,Unspecified,"","",,,,,,,S55165338,"",,,,,Corvus corax,comrav,Species,21400,,4.17,12,,2613,4180
540199811,Photo,Common Raven,Corvus corax,,Mac Aragon,2023-02-27,2023,2,27,1423,Spain,ES-CL-LN,Castilla y León,León,"LE-321, Valdelugueros ES-León 43.03903, -5.47314",43.0390330,-5.4731450,"",,Unspecified,"","",,,,,,,S129767412,"",,,,,Corvus corax,comrav,Species,21400,,4.50,8,,1282,1923
404832641,Photo,Common Raven,Corvus corax,,Anne Spiers,2022-01-11,2022,1,11,1300,Canada,CA-BC-FF,British Columbia,Fraser-Fort George,Pidherny Trail System,53.9876129,-122.8331566,"",,Unspecified,"","",,,,,,,S100569964,"",,,,,Corvus corax,comrav,Species,21400,,4.50,8,,2469,1646
183153821,Photo,Common Raven,Corvus corax,,Rick Eckley,2019-10-06,2019,10,6,1118,Canada,CA-ON-NP,Ontario,Nipissing,Algonquin Provincial Park--Mizzy Lake Trail,45.5552783,-78.6829003,"",,Unspecified,"","",,,,,,,S60404962,"",,,,,Corvus corax,comrav,Species,21400,,4.50,8,,3892,5854
294685311,Photo,Common Raven,Corvus corax,,Tim Healy,2021-01-02,2021,1,2,1000,United States,US-NY-059,New York,Nassau,Jones Beach SP--Field 10,40.6017384,-73.5144666,"",,Unspecified,"","",,,,,,,S78693145,"",,,,"Same bird seen along the Bay Parkway earlier, flew in and began feasting upon a roadkill pigeon in the parking lot. Quite cooperative while it was gorging itself on gore. Protested loudly when an oblivious driver parked right next to its meal, and it took off to the west shortly thereafter",Corvus corax,comrav,Species,21400,,4.40,10,,2608,3913
62913051,Photo,Common Raven,Corvus corax,,Pavel Parkhaev,2017-02-23,2017,2,23,0,Russia,RU-TVE,Tver Oblast,,Скнятино (Sknyatino General Area),57.1101536,37.6841000,"","",Unspecified,"","",,,,,,,S38021254,"",,,,,Corvus corax,comrav,Species,21400,,3.66,87,Habitat,480,640
296146011,Photo,Common Raven,Corvus corax,,Terry Hurst,2021-01-09,2021,1,9,913,United States,US-CA-073,California,San Diego,Lake Cuyamaca,32.9880758,-116.5812492,"",,Unspecified,"","",,,,,,,S78968162,"",,,,,Corvus corax,comrav,Species,21400,,4.57,7,,3712,5295
526007361,Photo,Common Raven,Corvus corax,,Tim Lenz,2023-01-18,2023,1,18,1237,United States,US-AZ-025,Arizona,Yavapai,Posse Grounds Park,34.8689024,-111.7877145,"",Vocalizing,Unspecified,"","",,,,,,,S126445342,"",,,,,Corvus corax,comrav,Species,21400,,4.57,7,"",3706,5557
220209411,Photo,Common Raven,Corvus corax,,Aaron Graham,2020-03-11,2020,3,11,1624,United States,US-AZ-019,Arizona,Pima,Catalina SP,32.4244027,-110.9123905,"",,Unspecified,"","",,,,,,,S65699222,"",,,,,Corvus corax,comrav,Species,21400,,4.57,7,,3169,4749
38286541,Photo,Common Raven,Corvus corax,,Brian Sullivan,2016-10-20,2016,10,20,937,United States,US-MN-137,Minnesota,St. Louis,Hawk Ridge Nature Reserve--The Summit,46.8525610,-92.0280710,Immature,,Unspecified,"","",,,,,,,S32136926,"",,,,,Corvus corax,comrav,Species,21400,,4.57,7,,1500,2500
38251931,Photo,Common Raven,Corvus corax,,Wen & Steve Rockoff,2016-10-18,2016,10,18,1623,United States,US-CA-043,California,Mariposa,Yosemite Valley,37.7229354,-119.6371651,Adult,,Unspecified,"","",,,,,,,S32231852,"",,,,,Corvus corax,comrav,Species,21400,,4.57,7,,2432,3648
405383171,Photo,Common Raven,Corvus corax,,Christopher T,2022-01-13,2022,1,13,1056,United States,US-PA-003,Pennsylvania,Allegheny,Home (old),40.4244017,-79.8131134,"",,Unspecified,"","",,,,,,,S100652914,"",,,,Two flew by in close succession carrying something in their beaks. One flew back the other way a minute later with an empty beak. Nesting material?,Corvus corax,comrav,Species,21400,,4.30,10,,2402,3603
626665639,Photo,Common Raven,Corvus corax,,Mira Milovanović,2024-11-24,2024,11,24,906,Serbia,RS-00,Beograd,,Avala NR--Monument to the Unknown Hero (mountain top),44.6901068,20.5140228,"",,Unspecified,"","",,,,,,,S203448993,"",,,,,Corvus corax,comrav,Species,21400,,5.00,5,,3255,4882
624414858,Photo,Common Raven,Corvus corax,,Mike Thompson,2024-10-01,2024,10,1,1351,United States,US-CO-083,Colorado,Montezuma,Hesperus Mountain summit,37.4449070,-108.0891330,"",Flying,Unspecified,"","",,,,,,,S197179069,"",,,,,Corvus corax,comrav,Species,21400,,5.00,5,"",3436,5148
622543862,Photo,Common Raven,Corvus corax,,Kiah R. Jasper,2024-08-03,2024,8,3,1933,Canada,CA-ON-NP,Ontario,Nipissing,"Algonquin PP, West Rose Lake",45.5715128,-78.6806209,"",,Unspecified,"","",,,,,,,S191543337,"",,,,,Corvus corax,comrav,Species,21400,,5.00,5,,3712,5568
617661949,Photo,Common Raven,Corvus corax,,SONER SABIRLI,2024-02-25,2024,2,25,1500,Türkiye,TR-34,İstanbul,,Kömürcüoda Katı Atık Bertaraf Tesisleri,41.1420148,29.3693411,"",,Unspecified,"","",,,,,,,S162860480,"",,,,,Corvus corax,comrav,Species,21400,,5.00,5,,1080,1920
614628383,Photo,Common Raven,Corvus corax,,Timothy Piranian,2024-02-08,2024,2,8,1545,United States,US-AK-020,Alaska,Anchorage Municipality,Anchorage--Northern Lights & Arctic,61.1949236,-149.8983841,"","",Unspecified,"","",,,,,,,S161068026,"",,,,"- many around the area - white raven at McDonald's and Spenard Roadhouse -",Corvus corax,comrav,Species,21400,,5.00,5,Aberrant individual,4791,7255
614628381,Photo,Common Raven,Corvus corax,,Timothy Piranian,2024-02-08,2024,2,8,1545,United States,US-AK-020,Alaska,Anchorage Municipality,Anchorage--Northern Lights & Arctic,61.1949236,-149.8983841,"","",Unspecified,"","",,,,,,,S161068026,"",,,,"- many around the area - white raven at McDonald's and Spenard Roadhouse -",Corvus corax,comrav,Species,21400,,5.00,5,Aberrant individual,4704,6417
614628353,Photo,Common Raven,Corvus corax,,Timothy Piranian,2024-02-08,2024,2,8,1545,United States,US-AK-020,Alaska,Anchorage Municipality,Anchorage--Northern Lights & Arctic,61.1949236,-149.8983841,"","",Unspecified,"","",,,,,,,S161068026,"",,,,"- many around the area - white raven at McDonald's and Spenard Roadhouse -",Corvus corax,comrav,Species,21400,,5.00,5,Aberrant individual,4879,7443
613241043,Photo,Common Raven,Corvus corax,,Emily Horne,2024-01-07,2024,1,7,1542,Canada,CA-BC-SQ,British Columbia,Skeena-Queen Charlotte,"304 5th Avenue East, Prince Rupert, British Columbia, CA (54.315, -130.316)",54.3152835,-130.3163434,"",,Unspecified,"","",,,,,,,S158402869,"",,,,,Corvus corax,comrav,Species,21400,,5.00,5,,3461,5068
611637381,Photo,Common Raven,Corvus corax,,Nathan Wall,2023-11-27,2023,11,27,719,United States,US-WA-033,Washington,King,Discovery Park,47.6638680,-122.4215317,Adult – 1,,Unspecified,"","",,,,,,,S155330534,"",,,,Photos:,Corvus corax,comrav,Species,21400,,5.00,5,,4390,6585
611312359,Photo,Common Raven,Corvus corax,,Gregory Gough 🦚,2023-11-19,2023,11,19,701,United States,US-DC-001,District of Columbia,District of Columbia,Kenilworth Park and Aquatic Gardens,38.9133204,-76.9443433,"",,Unspecified,"","",,,,,,,S154774236,"",,,,,Corvus corax,comrav,Species,21400,,5.00,5,,1173,2085
611069537,Photo,Common Raven,Corvus corax,,Sam Zhang,2023-11-05,2023,11,5,938,United States,US-CA-083,California,Santa Barbara,Santa Cruz Island--Scorpion Canyon Campgrounds,34.0484615,-119.5645389,Juvenile – 1,Vocalizing,Unspecified,"","",,,,,,,S154347065,"",,,,,Corvus corax,comrav,Species,21400,,5.00,5,"",2956,4432
609221353,Photo,Common Raven,Corvus corax,,Michael Stubblefield,2023-09-14,2023,9,14,722,United States,US-CA-041,California,Marin,Pt. Reyes--Abbotts Lagoon Trailhead,38.1233660,-122.9353027,Adult – 1,,Unspecified,"","",,,,,,,S150367054,"",,,"Common Raven (Corvus corax sinuatus), adult resting on a fence at Abbotts Lagoon Trailhead, Point Reyes National Seashore, Marin County, California.",,Corvus corax,comrav,Species,21400,,5.00,5,,3451,5177
