ML Catalog Number,Format,Common Name,Scientific Name,Background Species,Recordist,Date,Year,Month,Day,Time,Country,Country-State-County,State,County,Locality,Latitude,Longitude,Age/Sex,Behaviors,Playback,Captive,Collected,Specimen ID,Home Archive Catalog Number,Recorder,Microphone,Accessory,Partner Institution,eBird Checklist ID,Unconfirmed,Air Temp(°C),Water Temp(°C),Media notes,Observation Details,Parent Species,eBird Species Code,Taxon Category,Taxonomic Sort,Recordist 2,Average Community Rating,Number of Ratings,Asset Tags,Original Image Height,Original Image Width
295900451,Photo,Great Blue Heron,Ardea herodias,,Carl Bergstrom,2021-01-06,2021,1,6,1416,United States,US-WA-033,Washington,King,Union Bay Natural Area/Montlake Fill,47.6542400,-122.2913700,"",,Unspecified,"","",,,,,,,S78801839,"",,,,,Ardea herodias,grbher3,Species,7658,,4.95,329,,2235,3973
295900421,Photo,Great Blue Heron,Ardea herodias,,Carl Bergstrom,2021-01-06,2021,1,6,1416,United States,US-WA-033,Washington,King,Union Bay Natural Area/Montlake Fill,47.6542400,-122.2913700,"",,Unspecified,"","",,,,,,,S78801839,"",,,,,Ardea herodias,grbher3,Species,7658,,4.95,219,,2292,4075
316983781,Photo,Great Blue Heron,Ardea herodias,,Andrew Newmark,2021-03-14,2021,3,14,1152,United States,US-CA-073,California,San Diego,Balboa Park--Marston House,32.7412537,-117.1579510,"",,Unspecified,"","",,,,,,,S83415679,"",,,,Hunting gophers,Ardea herodias,grbher3,Species,7658,,4.94,209,,3337,5006
537625101,Photo,Great Blue Heron,Ardea herodias,,Danielle Cooper,2023-02-20,2023,2,20,1232,Canada,CA-BC-GV,British Columbia,Metro Vancouver,Richmond--California Scrub-Jay Stakeout (2022-2023),49.1351110,-123.1024849,"",,Unspecified,"","",,,,,,,S129213562,"",,,,,Ardea herodias,grbher3,Species,7658,,4.90,210,,3537,5306
524228331,Photo,Great Blue Heron,Ardea herodias,,Michael Roper,2023-01-14,2023,1,14,751,United States,US-AZ-019,Arizona,Pima,Canoa Ranch Conservation Park,31.7948045,-111.0156226,"",,Unspecified,"","",,,,,,,S126178991,"",,,,,Ardea herodias,grbher3,Species,7658,,4.89,138,,1600,2400
312869271,Photo,Great Blue Heron (Great Blue),Ardea herodias [herodias Group],,Liam Ragan,2021-03-01,2021,3,1,1606,Canada,CA-BC-CP,British Columbia,Capital,Victoria--Swan Lake Nature Sanctuary,48.4645558,-123.3738041,Adult – 2,Flying,Unspecified,"","",,,,,,,S82604781,"",,,,,Ardea herodias,grbher,Group,7659,,4.90,104,"",2925,3692
365398221,Photo,Great Blue Heron (Great Blue),Ardea herodias [herodias Group],,Steve Kelling,2021-08-30,2021,8,30,1428,United States,US-NY-045,New York,Jefferson,Raptor Survey Town of Cape Vincent,44.1768530,-76.1680830,"",Foraging or Eating,Unspecified,"","",,,,,,,S93954317,"",,,,,Ardea herodias,grbher,Group,7659,,4.85,158,"",1500,2500
363802431,Photo,Great Blue Heron,Ardea herodias,,jean-francois franche,2021-08-24,2021,8,24,600,Canada,CA-QC-MR,Quebec,Montréal,Parc Anjou-sur-le-lac,45.6083723,-73.5932708,"",,Unspecified,"","",,,,,,,S93695947,"",,,,,Ardea herodias,grbher3,Species,7658,,4.93,76,,1365,2048
612634598,Photo,Great Blue Heron,Ardea herodias,,Matthew Dolkart,2023-12-14,2023,12,14,1400,United States,US-IL-031,Illinois,Cook,West Ridge Nature Park,41.9889067,-87.6886654,"",,Unspecified,"","",,,,,,,S156400539,"",,,,,Ardea herodias,grbher3,Species,7658,,4.98,56,,5110,7665
108895521,Photo,Great Blue Heron,Ardea herodias,,William Higgins,2018-07-19,2018,7,19,700,United States,US-VA-059,Virginia,Fairfax,Accotink Bay Wildlife Refuge,38.6855823,-77.1548367,"",,Unspecified,"","",,,,,,,S47325126,"",,,,,Ardea herodias,grbher3,Species,7658,,4.87,78,,3712,5568
48533621,Photo,Great Blue Heron,Ardea herodias,,Linda Chittum,2016-12-23,2016,12,23,747,United States,US-VA-153,Virginia,Prince William,Occoquan Bay NWR,38.6455061,-77.2361183,Adult,"",Unspecified,"","",,,,,,,S33162869,"",,,,,Ardea herodias,grbher3,Species,7658,,4.76,157,Watermark,2902,3627
61340771,Photo,Great Blue Heron,Ardea herodias,,Gates Dupont,2015-04-01,2015,4,1,1730,United States,US-MA-017,Massachusetts,Middlesex,Great Meadows NWR--Concord Unit,42.4751409,-71.3295084,"",,Unspecified,"","",,,,,,,S22632415,"",,,,,Ardea herodias,grbher3,Species,7658,,4.90,58,,3648,5472
167556031,Photo,Great Blue Heron (Great Blue),Ardea herodias [herodias Group],,Daniel Irons,2019-07-07,2019,7,7,556,United States,US-MD-035,Maryland,"Queen Anne's",Kent Point Marina,38.8382982,-76.3732617,Adult,,Unspecified,"","",,,,,,,S58011850,"",,,,,Ardea herodias,grbher,Group,7659,,4.84,81,,2000,3000
401919071,Photo,Great Blue Heron (Great Blue),Ardea herodias [herodias Group],,Ian Hearn,2021-12-30,2021,12,30,1125,United States,US-ID-001,Idaho,Ada,Barber Park,43.5674381,-116.1348224,Adult – 1,,Unspecified,"","",,,,,,,S99722183,"",,,,,Ardea herodias,grbher,Group,7659,,4.79,97,,3712,5568
131778841,Photo,Great Blue Heron,Ardea herodias,,Dorian Anderson,2018-12-24,2018,12,24,700,United States,US-CA-037,California,Los Angeles,Malibu Lagoon--State Beach including Lagoon,34.0333857,-118.6822987,"",,Unspecified,"","",,,,,,,S51061992,"",,,,,Ardea herodias,grbher3,Species,7658,,4.90,49,,3199,4798
519000151,Photo,Great Blue Heron,Ardea herodias,,Janet Hix,2023-01-01,2023,1,1,729,United States,US-TX-439,Texas,Tarrant,Colleyville Nature Ctr. (PPW-W 082),32.8763434,-97.1664548,"",,Unspecified,"","",,,,,,,S125075607,"",,,,,Ardea herodias,grbher3,Species,7658,,4.97,37,,2142,3734
430966411,Photo,Great Blue Heron,Ardea herodias,,Ryan Sanderson,2022-03-31,2022,3,31,731,United States,US-IN-097,Indiana,Marion,Eagle Creek Park,39.8751000,-86.3037000,Adult – 1,Flying,Unspecified,"","",,,,,,,S105954383,"",,,,,Ardea herodias,grbher3,Species,7658,,5.00,34,"",2179,3268
403117561,Photo,Great Blue Heron,Ardea herodias,,Grigory Heaton,2021-12-11,2021,12,11,1604,United States,US-CA-025,California,Imperial,Sonny Bono Salton Sea NWR--Vendel Rd.,33.0757606,-115.7096225,Adult – 1,Flying,Unspecified,"","",,,,,,,S98772365,"",,,,,Ardea herodias,grbher3,Species,7658,,4.89,46,"",2779,4168
150274411,Photo,Great Blue Heron,Ardea herodias,,Daniel Grossi,2019-04-09,2019,4,9,1725,United States,US-OH-093,Ohio,Lorain,Sandy Ridge Reservation,41.3944763,-82.0488911,Adult,,Unspecified,"","",,,,,,,S54782806,"",,,,,Ardea herodias,grbher3,Species,7658,,4.84,50,,3240,2160
611974186,Photo,Great Blue Heron,Ardea herodias,,Anne Inga,2023-12-07,2023,12,7,716,United States,US-FL-115,Florida,Sarasota,Nathan Benderson Park,27.3632302,-82.4475861,"",,Unspecified,"","",,,,,,,S155896710,"",,,,,Ardea herodias,grbher3,Species,7658,,5.00,30,,4337,2691
122610421,Photo,Great Blue Heron (Great Blue),Ardea herodias [herodias Group],,Ryan Schain,2018-11-08,2018,11,8,743,United States,US-MA-025,Massachusetts,Suffolk,Fenway Victory Gardens,42.3437644,-71.0928297,"",,Unspecified,"","",,,,,,,S49754043,"",,,,,Ardea herodias,grbher,Group,7659,,4.78,58,,2652,4704
93875541,Photo,Great Blue Heron,Ardea herodias,,Suzanne Labbé,2018-04-10,2018,4,10,1309,Canada,CA-QC-MR,Quebec,Montréal,Parc Angrignon,45.4445136,-73.6017311,"",,Unspecified,"","",,,,,,,S44439859,"",,,,,Ardea herodias,grbher3,Species,7658,,4.80,56,,1108,1600
173017921,Photo,Great Blue Heron (Great Blue),Ardea herodias [herodias Group],,Paul Fenwick,2019-08-17,2019,8,17,932,United States,US-CA-019,California,Fresno,"93622, Firebaugh US-CA (36.8556,-120.4731)",36.8555710,-120.4730790,"",,Unspecified,"","",,,,,,,S59057974,"",,,,,Ardea herodias,grbher,Group,7659,,4.84,44,,3648,5472
54859431,Photo,Great Blue Heron (Great White),Ardea herodias occidentalis,,Alex Wiebe,2017-04-06,2017,4,6,1506,United States,US-FL-087,Florida,Monroe,Everglades NP--Flamingo,25.1416000,-80.9255000,"",,Unspecified,"","",,,,,,,S35744685,"",,,,Foraging at the marina.,Ardea herodias,grwher,Group,7664,,4.94,32,,2916,5184
620349576,Photo,Great Blue Heron,Ardea herodias,,Dorian Anderson,2012-10-01,2012,10,1,0,United States,US-MA-017,Massachusetts,Middlesex,Mount Auburn Cemetery,42.3710000,-71.1460000,Adult – 1,,Unspecified,"","",,,,,,,S181090591,"",,,,,Ardea herodias,grbher3,Species,7658,,4.97,29,,2580,3870
439368331,Photo,Great Blue Heron,Ardea herodias,,Foster Wang,2022-04-24,2022,4,24,851,United States,US-DC-001,District of Columbia,District of Columbia,Theodore Roosevelt Island,38.8964407,-77.0639175,"",,Unspecified,"","",,,,,,,S107905276,"",,,,,Ardea herodias,grbher3,Species,7658,,4.97,29,,3380,5070
395561351,Photo,Great Blue Heron,Ardea herodias,,Brad Vissia,2021-12-12,2021,12,12,1005,Canada,CA-BC-OS,British Columbia,Okanagan-Similkameen,Penticton--SS Sicamous/Riverside Park,49.5015800,-119.6119416,"",,Unspecified,"","",,,,,,,S98818847,"",,,,,Ardea herodias,grbher3,Species,7658,,4.75,56,,3422,5122
505569281,Photo,Great Blue Heron,Ardea herodias,,Maxime Légaré-Vézina,2022-11-19,2022,11,19,800,Canada,CA-QC-QU,Quebec,Québec,Base de plein air de Ste-Foy,46.7906725,-71.3303447,"",,Unspecified,"","",,,,,,,S122735979,"",,,,,Ardea herodias,grbher3,Species,7658,,4.91,32,,5428,4343
323210471,Photo,Great Blue Heron,Ardea herodias,,Evan Larson,2021-04-05,2021,4,5,723,Canada,CA-BC-GV,British Columbia,Metro Vancouver,Vancouver--Jericho Park,49.2715915,-123.1943769,"",,Unspecified,"","",,,,,,,S84850435,"",,,,,Ardea herodias,grbher3,Species,7658,,4.83,41,,3110,5184
463504541,Photo,Great Blue Heron,Ardea herodias,,Mason Maron,2022-06-26,2022,6,26,1025,United States,US-WA-033,Washington,King,Barbee Mill Spit,47.5277642,-122.2047760,Adult – 1,Flying,Unspecified,"","",,,,,,,S113848295,"",,,,,Ardea herodias,grbher3,Species,7658,,4.80,41,"",2874,4598
627836751,Photo,Great Blue Heron (Great Blue),Ardea herodias [herodias Group],,Matt Felperin,2024-11-23,2024,11,23,658,United States,US-VA-059,Virginia,Fairfax,**HUNTLEY MEADOWS PARK,38.7576451,-77.0984124,"",,Unspecified,"","",,,,,,,S203346023,"",,,,,Ardea herodias,grbher,Group,7659,,5.00,24,,1780,2669
475841751,Photo,Great Blue Heron,Ardea herodias,,Brad Imhoff,2022-08-11,2022,8,11,733,United States,US-OH-089,Ohio,Licking,Buckeye Lake (Licking Co.),39.9335322,-82.4561477,"",Foraging or Eating,Unspecified,"","",,,,,,,S116714593,"",,,,,Ardea herodias,grbher3,Species,7658,,5.00,24,"",3334,4998
211583611,Photo,Great Blue Heron,Ardea herodias,,Hugh Whelan,2020-02-23,2020,2,23,800,United States,US-FL-001,Florida,Alachua,Paynes Prairie Preserve SP--La Chua Trail,29.6068756,-82.3031116,"",Foraging or Eating,Unspecified,"","",,,,,,,S65026064,"",,,,,Ardea herodias,grbher3,Species,7658,,4.79,42,"",3020,4530
618432290,Photo,Great Blue Heron,Ardea herodias,,Billy Tran,2024-05-04,2024,5,4,851,United States,US-PA-029,Pennsylvania,Chester,Marsh Creek SP--West Side,40.0641030,-75.7296680,"",Flying,Unspecified,"","",,,,,,,S171901756,"",,,This GBHE was a jetfighter in a past life.,,Ardea herodias,grbher3,Species,7658,,4.83,35,"",1366,2048
329711951,Photo,Great Blue Heron,Ardea herodias,,David Turgeon,2021-04-24,2021,4,24,735,Canada,CA-QC-HC,Quebec,La Haute-Côte-Nord,Pointe à Émile,48.5740020,-69.2013030,Adult – 1,,Unspecified,"","",,,,,,,S86222279,"",,,,,Ardea herodias,grbher3,Species,7658,,4.81,32,,2412,3618
620385585,Photo,Great Blue Heron,Ardea herodias,,Dorian Anderson,2012-10-01,2012,10,1,0,United States,US-MA-017,Massachusetts,Middlesex,Mount Auburn Cemetery,42.3710000,-71.1460000,Adult – 1,,Unspecified,"","",,,,,,,S181090591,"",,,,,Ardea herodias,grbher3,Species,7658,,5.00,21,,2792,4188
611341053,Photo,Great Blue Heron,Ardea herodias,,"Stu ""BritHikesOntario""  Hall",2020-08-02,2020,8,2,1045,Canada,CA-ON-KT,Ontario,Chatham-Kent,Keith McLean Conservation Lands,42.3401662,-81.8481430,"",,Unspecified,"","",,,,,,,S72070431,"",,,,,Ardea herodias,grbher3,Species,7658,,5.00,21,,3399,5098
574423851,Photo,Great Blue Heron,Ardea herodias,,Don Keffer,2023-05-19,2023,5,19,1150,United States,US-OH-155,Ohio,Trumbull,Mosquito Lake SP--Beach,41.3036905,-80.7622343,"",,Unspecified,"","",,,,,,,S138386249,"",,,,,Ardea herodias,grbher3,Species,7658,,5.00,20,,2963,3705
548278251,Photo,Great Blue Heron (Great Blue),Ardea herodias [herodias Group],,Michael Stubblefield,2017-09-15,2017,9,15,715,United States,US-AZ-013,Arizona,Maricopa,Riparian Preserve at Gilbert Water Ranch,33.3614502,-111.7339478,Juvenile – 1,Flying,Unspecified,"","",,,,,,,S131508970,"",,,"Great Blue Heron (Ardea herodias herodias), juvenile in flight at Riparian Preserve at Water Ranch, Gilbert, Arizona.",,Ardea herodias,grbher,Group,7659,,5.00,20,"",2681,4021
549877161,Photo,Great Blue Heron,Ardea herodias,,Alan Phipps,2023-03-25,2023,3,25,1520,United States,US-VA-810,Virginia,Virginia Beach,**Back Bay NWR,36.6721270,-75.9156610,"",,Unspecified,"","",,,,,,,S131807838,"",,,,,Ardea herodias,grbher3,Species,7658,,4.95,21,,2400,3000
39492471,Photo,Great Blue Heron,Ardea herodias,,Jeremiah Trimble,2013-01-06,2013,1,6,1243,United States,US-MA-001,Massachusetts,Barnstable,"Herring Pond, Eastham",41.8230296,-69.9879742,"",,Unspecified,"","",,,,,,,S12514499,"",,,,,Ardea herodias,grbher3,Species,7658,,4.65,49,,1120,1600
388204371,Photo,Great Blue Heron,Ardea herodias,,Anonymous,2021-11-14,2021,11,14,638,United States,US-CA-071,California,San Bernardino,Big Bear Lake--Boulder Bay Park,34.2384206,-116.9501710,"",,Unspecified,"","",,,,,,,S97568029,"",,,,,Ardea herodias,grbher3,Species,7658,,4.59,78,,3451,5323
442204421,Photo,Great Blue Heron,Ardea herodias,,Jeff Dyck,2022-04-30,2022,4,30,846,Canada,CA-BC-FF,British Columbia,Fraser-Fort George,Eaglet Lake (general location),54.0981038,-122.3000401,"",,Unspecified,"","",,,,,,,S108498674,"",,,,,Ardea herodias,grbher3,Species,7658,,4.75,32,,1600,1280
469683531,Photo,Great Blue Heron,Ardea herodias,,Kyle Tansley,2022-07-24,2022,7,24,530,United States,US-VT-007,Vermont,Chittenden,LaPlatte River and Marshes (S of Bay Road),44.3929279,-73.2312618,Adult – 1,,Unspecified,"","",,,,,,,S115666919,"",,,,,Ardea herodias,grbher3,Species,7658,,5.00,19,,2725,4096
87391461,Photo,Great Blue Heron,Ardea herodias,,Scott Martin,2016-01-27,2016,1,27,730,United States,US-TX-355,Texas,Nueces,Leonabelle Turnbull Birding Ctr. (CTC 057),27.8275297,-97.0789558,"",,Unspecified,"","",,,,,,,S42686911,"",,,,,Ardea herodias,grbher3,Species,7658,,4.76,33,,1237,2200
329697791,Photo,Great Blue Heron,Ardea herodias,,Brad Imhoff,2021-04-24,2021,4,24,645,United States,US-OH-089,Ohio,Licking,Buckeye Lake (Licking Co.),39.9335322,-82.4561477,"",,Unspecified,"","",,,,,,,S86227951,"",,,,,Ardea herodias,grbher3,Species,7658,,4.88,24,,5464,8192
329697651,Photo,Great Blue Heron,Ardea herodias,,Brad Imhoff,2021-04-24,2021,4,24,645,United States,US-OH-089,Ohio,Licking,Buckeye Lake (Licking Co.),39.9335322,-82.4561477,"",,Unspecified,"","",,,,,,,S86227951,"",,,,,Ardea herodias,grbher3,Species,7658,,4.88,24,,2998,4495
320296981,Photo,Great Blue Heron,Ardea herodias,,barbara taylor,2021-03-26,2021,3,26,902,United States,US-FL-095,Florida,Orange,Mead Botanical Gardens,28.5836000,-81.3586000,Adult – 1,"Carrying Food; Foraging or Eating",Unspecified,"","",,,,,,,S84139678,"",,,Photo by Laurence Taylor,,Ardea herodias,grbher3,Species,7658,,4.88,24,"",2723,3189
480394291,Photo,Great Blue Heron (Great White),Ardea herodias occidentalis,,Robert Bochenek,2022-08-31,2022,8,31,1303,United States,US-MI-149,Michigan,St. Joseph,Klinger Lake,41.8006088,-85.5503345,"",,Unspecified,"","",,,,,,,S117861951,"",,,,Observed and photographed.,Ardea herodias,grwher,Group,7664,,4.69,39,,1265,1410
613582605,Photo,Great Blue Heron,Ardea herodias,,J Tanner,2024-01-12,2024,1,12,1100,United States,US-CA-001,California,Alameda,MLK Jr. Regional Shoreline--Arrowhead Marsh,37.7421628,-122.2112274,"",,Unspecified,"","",,,,,,,S158741335,"",,,,,Ardea herodias,grbher3,Species,7658,,4.90,21,,2384,3576
469683551,Photo,Great Blue Heron,Ardea herodias,,Kyle Tansley,2022-07-24,2022,7,24,530,United States,US-VT-007,Vermont,Chittenden,LaPlatte River and Marshes (S of Bay Road),44.3929279,-73.2312618,Adult – 1,,Unspecified,"","",,,,,,,S115666919,"",,,,,Ardea herodias,grbher3,Species,7658,,5.00,18,,4096,2731
469683521,Photo,Great Blue Heron,Ardea herodias,,Kyle Tansley,2022-07-24,2022,7,24,530,United States,US-VT-007,Vermont,Chittenden,LaPlatte River and Marshes (S of Bay Road),44.3929279,-73.2312618,Adult – 1,Foraging or Eating,Unspecified,"","",,,,,,,S115666919,"",,,,,Ardea herodias,grbher3,Species,7658,,5.00,18,"",2725,4096
390174081,Photo,Great Blue Heron,Ardea herodias,,Ryan Shean,2021-11-21,2021,11,21,1621,United States,US-IN-097,Indiana,Marion,Eagle Creek Park--Coffer Dam,39.8749655,-86.3062012,"",,Unspecified,"","",,,,,,,S97900838,"",,,,,Ardea herodias,grbher3,Species,7658,,5.00,18,,4587,6880
402467001,Photo,Great Blue Heron (Great Blue),Ardea herodias [herodias Group],,Ian Hearn,2021-12-30,2021,12,30,1125,United States,US-ID-001,Idaho,Ada,Barber Park,43.5674381,-116.1348224,Adult – 1,,Unspecified,"","",,,,,,,S99722183,"",,,,,Ardea herodias,grbher,Group,7659,,4.52,67,,5568,3712
150170471,Photo,Great Blue Heron,Ardea herodias,,Henry Trombley,2019-04-10,2019,4,10,718,United States,US-VT-001,Vermont,Addison,Dead Creek WMA IBA--Brilyea Access,44.0745500,-73.3510000,"",,Unspecified,"","",,,,,,,S54774968,"",,,,,Ardea herodias,grbher3,Species,7658,,4.71,31,,1822,2718
619078656,Photo,Great Blue Heron (Great White),Ardea herodias occidentalis,,Andrew Simon,2023-12-14,2023,12,14,753,United States,US-FL-021,Florida,Collier,Eagle Lakes Community Park,26.0773686,-81.7141414,"",,Unspecified,"","",,,,,,,S156293163,"",,,,Continuing,Ardea herodias,grwher,Group,7664,,4.90,20,,2062,3080
475841741,Photo,Great Blue Heron,Ardea herodias,,Brad Imhoff,2022-08-11,2022,8,11,733,United States,US-OH-089,Ohio,Licking,Buckeye Lake (Licking Co.),39.9335322,-82.4561477,"",Foraging or Eating,Unspecified,"","",,,,,,,S116714593,"",,,,,Ardea herodias,grbher3,Species,7658,,5.00,17,"",3265,4895
289703611,Photo,Great Blue Heron (Great Blue),Ardea herodias [herodias Group],,Richard H,2020-12-20,2020,12,20,1633,United States,US-TX-439,Texas,Tarrant,Benbrook Lake--North Holiday Park (day use area),32.6510088,-97.4747562,"",,Unspecified,"","",,,,,,,S77765161,"",,,,,Ardea herodias,grbher,Group,7659,,4.71,28,,2659,4036
490438791,Photo,Great Blue Heron,Ardea herodias,,jean-francois franche,2022-10-04,2022,10,4,701,Canada,CA-QC-MR,Quebec,Montréal,Jardin botanique de Montréal (accès restreint),45.5596562,-73.5626078,"",,Unspecified,"","",,,,,,,S119948024,"",,,,,Ardea herodias,grbher3,Species,7658,,4.82,22,,3578,5368
45378191,Photo,Great Blue Heron,Ardea herodias,,S. K.  Jones,2016-12-24,2016,12,24,658,United States,US-FL-009,Florida,Brevard,"""Viera"" Ritch Grissom Memorial Wetlands",28.2285770,-80.7604659,"","",Unspecified,"","",,,,,,,S33178303,"",,,He had just delivered a stick to the nest.,,Ardea herodias,grbher3,Species,7658,,4.43,107,Nest,2838,3784
324221671,Photo,Great Blue Heron,Ardea herodias,,Nina Hale,2021-04-07,2021,4,7,905,United States,US-MN-053,Minnesota,Hennepin,Marshall Terrace Park,45.0190261,-93.2747519,"Adult Female – 1; Adult Male – 1","",Unspecified,"","",,,,,,,S85030316,"",,,,,Ardea herodias,grbher3,Species,7658,,4.89,19,Nest,5756,5757
211297441,Photo,Great Blue Heron,Ardea herodias,,Josephine Kalbfleisch,2020-02-15,2020,2,15,645,United States,US-FL-099,Florida,Palm Beach,Wakodahatchee Wetlands,26.4781984,-80.1447380,"",,Unspecified,"","",,,,,,,S64502375,"",,,,,Ardea herodias,grbher3,Species,7658,,4.63,35,,3043,4481
280428611,Photo,Great Blue Heron,Ardea herodias,,Garrett Hughes,2020-11-15,2020,11,15,1431,United States,US-WA-061,Washington,Snohomish,Lake Ballinger,47.7845834,-122.3263574,"",,Unspecified,"","",,,,,,,S76308764,"",,,,,Ardea herodias,grbher3,Species,7658,,4.68,28,,1286,2048
272485331,Photo,Great Blue Heron,Ardea herodias,,Leo Bix,2020-09-05,2020,9,5,1625,United States,US-MA-025,Massachusetts,Suffolk,Arnold Arboretum,42.3051491,-71.1226591,"",,Unspecified,"","",,,,,,,S73231959,"",,,,,Ardea herodias,grbher3,Species,7658,,4.77,22,,3438,4409
136710701,Photo,Great Blue Heron,Ardea herodias,,Bryan Calk,2019-01-08,2019,1,8,657,United States,US-NM-053,New Mexico,Socorro,Bosque del Apache NWR,33.8020000,-106.8800000,"",,Unspecified,"","",,,,,,,S51481197,"",,,,,Ardea herodias,grbher3,Species,7658,,4.65,31,,1489,2647
253346761,Photo,Great Blue Heron,Ardea herodias,,Mason Maron,2020-08-02,2020,8,2,1236,United States,US-WA-033,Washington,King,Marymoor Park,47.6625760,-122.1205200,Adult – 1,Flying,Unspecified,"","",,,,,,,S72053289,"",,,,,Ardea herodias,grbher3,Species,7658,,4.61,36,"",2330,4142
617561641,Photo,Great Blue Heron (Great Blue),Ardea herodias [herodias Group],,Ian Hearn,2024-04-15,2024,4,15,815,Ecuador,EC-W,Galápagos,,Santa Cruz--Playa Tortuga Bay (Playa Brava),-0.7616900,-90.3359300,Adult – 1,,Unspecified,"","",,,,,,,S168810044,"",,,,,Ardea herodias,grbher,Group,7659,,5.00,15,,2784,4176
612066339,Photo,Great Blue Heron (Great Blue),Ardea herodias [herodias Group],,Allison Matlock,2023-12-08,2023,12,8,1227,United States,US-NJ-025,New Jersey,Monmouth,Manasquan Reservoir IBA,40.1789389,-74.2084408,"",,Unspecified,"","",,,,,,,S156056083,"",,,,,Ardea herodias,grbher,Group,7659,,5.00,15,,,
610437939,Photo,Great Blue Heron,Ardea herodias,,Jack Belleghem,2023-10-23,2023,10,23,1617,Canada,CA-ON-KT,Ontario,Chatham-Kent,Keith McLean Conservation Lands,42.3401662,-81.8481430,"",,Unspecified,"","",,,,,,,S152948268,"",,,,,Ardea herodias,grbher3,Species,7658,,5.00,15,,2598,3897
614513054,Photo,Great Blue Heron,Ardea herodias,,Aquiles Brinco,2017-11-02,2017,11,2,900,Mexico,MX-SON-025,Sonora,Empalme,Playa El Cochorit,27.9176388,-110.7747495,Adult – 1,"",Unspecified,"","",,,,,,,S160837956,"",,,,,Ardea herodias,grbher3,Species,7658,,4.70,27,Habitat,1200,1600
617907393,Photo,Great Blue Heron,Ardea herodias,,Nina Hale,2024-04-24,2024,4,24,950,United States,US-MN-053,Minnesota,Hennepin,Marshall Terrace Park,45.0190261,-93.2747519,"",,Unspecified,"","",,,,,,,S170168933,"",,,,,Ardea herodias,grbher3,Species,7658,,4.75,24,,2648,4707
613580127,Photo,Great Blue Heron,Ardea herodias,,David Roberts,2024-01-15,2024,1,15,1412,United States,US-MD-031,Maryland,Montgomery,C&O Canal--Great Falls,39.0009076,-77.2482048,"",,Unspecified,"","",,,,,,,S159001064,"",,,,,Ardea herodias,grbher3,Species,7658,,4.88,17,,3245,4546
387818321,Photo,Great Blue Heron,Ardea herodias,,Mason Maron,2021-11-13,2021,11,13,1406,United States,US-WA-075,Washington,Whitman,"South Fork Palouse River Walkway, Pullman",46.7299903,-117.1774160,Adult – 1,Foraging or Eating,Unspecified,"","",,,,,,,S97538674,"",,,being harassed by BEKI,,Ardea herodias,grbher3,Species,7658,,4.73,22,"",2691,4117
557969531,Photo,Great Blue Heron,Ardea herodias,,Amy Hudechek,2023-04-14,2023,4,14,1829,United States,US-CO-077,Colorado,Mesa,Highline Lake SP,39.2741769,-108.8396124,"",,Unspecified,"","",,,,,,,S133773614,"",,,,,Ardea herodias,grbher3,Species,7658,,4.74,23,,3072,2048
611252412,Photo,Great Blue Heron,Ardea herodias,,Joshua Hogan,2023-11-17,2023,11,17,830,United States,US-AZ-013,Arizona,Maricopa,Riparian Preserve at Gilbert Water Ranch,33.3614502,-111.7339478,"",,Unspecified,"","",,,,,,,S154622362,"",,,,,Ardea herodias,grbher3,Species,7658,,5.00,14,,3016,5026
578726891,Photo,Great Blue Heron,Ardea herodias,,Zachary Vaughan,2023-05-29,2023,5,29,620,United States,US-PA-003,Pennsylvania,Allegheny,North Park--North Park Lake,40.5966189,-79.9981499,"",,Unspecified,"","",,,,,,,S139747256,"",,,,,Ardea herodias,grbher3,Species,7658,,5.00,14,,2821,2362
605439311,Photo,Great Blue Heron,Ardea herodias,,Chaiby Leiman,2023-07-20,2023,7,20,1554,United States,US-NJ-003,New Jersey,Bergen,Halifax Road,41.0852971,-74.1833380,"",,Unspecified,"","",,,,,,,S145146886,"",,,A unicorn!,,Ardea herodias,grbher3,Species,7658,,4.93,15,,2453,3679
456259601,Photo,Great Blue Heron,Ardea herodias,,Frederik Gustavsson,2022-05-28,2022,5,28,1433,Canada,CA-QC-MR,Quebec,Montréal,Domaine St-Paul,45.4546332,-73.5529532,"",,Unspecified,"","",,,,,,,S111536142,"",,,,,Ardea herodias,grbher3,Species,7658,,4.93,15,,2687,4073
192011741,Photo,Great Blue Heron,Ardea herodias,,Isaias Morataya,2019-12-07,2019,12,7,1537,Belize,BZ-TOL,Toledo,,Punta Gorda Town,16.1027220,-88.8007040,"",,Unspecified,"","",,,,,,,S62136055,"",,,,,Ardea herodias,grbher3,Species,7658,,4.54,39,,1779,2017
517272921,Photo,Great Blue Heron,Ardea herodias,,Kent Forward,2022-12-27,2022,12,27,1524,United States,US-CA-081,California,San Mateo,Pillar Point Harbor,37.5033407,-122.4819213,"",Foraging or Eating,Unspecified,"","",,,,,,,S124736254,"",,,I saw a Great Blue Heron snag a huge gopher from a grassy patch above HMB Kayak Beach. It flew off to the water with it and it was down the hatch!,I saw a Great Blue Heron snag a huge gopher from a grassy patch above HMB Kayak Beach. It flew off to the water with it and it was down the hatch!,Ardea herodias,grbher3,Species,7658,,4.88,16,"",1761,2641
457393011,Photo,Great Blue Heron,Ardea herodias,,Pitta Tours,2021-01-21,2021,1,21,1214,United States,US-UT-011,Utah,Davis,Farmington Bay WMA,40.9551410,-111.9191396,"",,Unspecified,"","",,,,,,,S79698790,"",,,,,Ardea herodias,grbher3,Species,7658,,4.59,27,,1296,2000
218803231,Photo,Great Blue Heron,Ardea herodias,,Jim Merritt,2020-03-27,2020,3,27,953,United States,US-CO-041,Colorado,El Paso,Cross Creek Regional Park,38.7130677,-104.6855476,"",,Unspecified,"","",,,,,,,S66276766,"",,,,,Ardea herodias,grbher3,Species,7658,,4.63,27,,8073,10000
414785931,Photo,Great Blue Heron,Ardea herodias,,Darren Clark,2022-02-03,2022,2,3,1545,United States,US-UT-011,Utah,Davis,Farmington Bay WMA,40.9551410,-111.9191396,"",,Unspecified,"","",,,,,,,S101982494,"",,,,Accurate count,Ardea herodias,grbher3,Species,7658,,4.88,16,,3971,5957
457419121,Photo,Great Blue Heron (Great Blue),Ardea herodias [herodias Group],,Braxton Landsman,2022-06-06,2022,6,6,1721,United States,US-CA-059,California,Orange,Doheny State Beach,33.4615743,-117.6806331,"",,Unspecified,"","",,,,,,,S112381706,"",,,,,Ardea herodias,grbher,Group,7659,,4.82,17,,3648,5042
198526281,Photo,Great Blue Heron,Ardea herodias,,Mason Maron,2020-01-08,2020,1,8,1452,United States,US-WA-057,Washington,Skagit,Skagit Wildlife Area--Fir Island Farm Reserve (Hayton Reserve),48.3356338,-122.4131659,"",,Unspecified,"","",,,,,,,S63183953,"",,,,,Ardea herodias,grbher3,Species,7658,,4.48,42,,3042,5049
627836749,Photo,Great Blue Heron (Great Blue),Ardea herodias [herodias Group],,Matt Felperin,2024-11-23,2024,11,23,658,United States,US-VA-059,Virginia,Fairfax,**HUNTLEY MEADOWS PARK,38.7576451,-77.0984124,"",,Unspecified,"","",,,,,,,S203346023,"",,,,,Ardea herodias,grbher,Group,7659,,5.00,13,,1944,2914
552721061,Photo,Great Blue Heron,Ardea herodias,,Cynthia Carlson,2023-04-02,2023,4,2,1201,United States,US-WI-025,Wisconsin,Dane,Harvey E. Schmidt Park,43.0447427,-89.4111693,"",,Unspecified,"","",,,,,,,S132528789,"",,,,,Ardea herodias,grbher3,Species,7658,,5.00,13,,1849,2776
450174921,Photo,Great Blue Heron,Ardea herodias,,Scott Martin,2020-02-26,2020,2,26,730,United States,US-FL-001,Florida,Alachua,Sweetwater Wetlands Park,29.6193055,-82.3285764,"",,Unspecified,"","",,,,,,,S65845138,"",,,,,Ardea herodias,grbher3,Species,7658,,5.00,13,,3272,4901
275433271,Photo,Great Blue Heron,Ardea herodias,,Liam Hutcheson,2020-10-28,2020,10,28,757,United States,US-WA-067,Washington,Thurston,Billy Frank Jr. Nisqually NWR,47.0812514,-122.7180576,"",Flying,Unspecified,"","",,,,,,,S75546856,"",,,,,Ardea herodias,grbher3,Species,7658,,4.58,26,"",3143,4503
427990541,Photo,Great Blue Heron,Ardea herodias,,Jim Merritt,2022-03-02,2022,3,2,746,United States,US-AZ-023,Arizona,Santa Cruz,Patagonia Lake State Park,31.4951992,-110.8566971,"",,Unspecified,"","",,,,,,,S104032928,"",,,,,Ardea herodias,grbher3,Species,7658,,4.70,20,,3076,5395
365398171,Photo,Great Blue Heron (Great Blue),Ardea herodias [herodias Group],,Steve Kelling,2021-08-30,2021,8,30,1428,United States,US-NY-045,New York,Jefferson,Raptor Survey Town of Cape Vincent,44.1768530,-76.1680830,"",Foraging or Eating,Unspecified,"","",,,,,,,S93954317,"",,,,,Ardea herodias,grbher,Group,7659,,4.93,14,"",1500,2500
110418621,Photo,Great Blue Heron (Great White),Ardea herodias occidentalis,,Jake Dingel,2018-08-09,2018,8,9,700,United States,US-OH-007,Ohio,Ashtabula,Conneaut Sandspit,41.9696938,-80.5583171,Unknown,,Unspecified,"","",,,,,,,S47771216,"",,,,"found in an area with several great blue herons, observed it actively hunting and catching several minnows and fish, behaved like a great blue heron.",Ardea herodias,grwher,Group,7664,,4.93,14,,2869,3825
192904371,Photo,Great Blue Heron,Ardea herodias,,Andrew Simon,2019-11-12,2019,11,12,734,United States,US-FL-115,Florida,Sarasota,Palmer Lake and Surrounding Area,27.3135761,-82.3976111,"",,Unspecified,"","",,,,,,,S61389044,"",,,,,Ardea herodias,grbher3,Species,7658,,4.44,43,,2394,3576
96801361,Photo,Great Blue Heron,Ardea herodias,,Daniel Greenways,2018-04-27,2018,4,27,1330,Canada,CA-AB-EL,Alberta,Edmonton,Edmonton--Hermitage Park,53.5836653,-113.3737779,"",,Unspecified,"","",,,,,,,S45007743,"",,,A catch!,,Ardea herodias,grbher3,Species,7658,,4.58,26,,2348,4000
621963432,Photo,Great Blue Heron,Ardea herodias,,Austin Groff,2024-07-26,2024,7,26,1530,United States,US-NY-055,New York,Monroe,Braddock Bay--East Spit,43.3107525,-77.7073288,"",Foraging or Eating,Unspecified,"","",,,,,,,S188961819,"",,,,,Ardea herodias,grbher3,Species,7658,,4.78,18,Habitat,4011,6016
265137411,Photo,Great Blue Heron,Ardea herodias,,Matthew Bode,2020-09-23,2020,9,23,1129,United States,US-VT-011,Vermont,Franklin,Maquam WMA / Swanton Town Beach,44.9204032,-73.1594396,"",,Unspecified,"","",,,,,,,S73960574,"",,,,,Ardea herodias,grbher3,Species,7658,,4.56,27,,1582,2373
314104171,Photo,Great Blue Heron,Ardea herodias,,Phillip Salzinger,2021-03-06,2021,3,6,944,United States,US-GA-089,Georgia,DeKalb,Candler Park,33.7706573,-84.3368053,Immature – 1,,Unspecified,"","",,,,,,,S82866446,"",,,,,Ardea herodias,grbher3,Species,7658,,4.45,40,,3540,5311
304180531,Photo,Great Blue Heron (Great Blue),Ardea herodias [herodias Group],,Kalin Ocaña,2021-02-03,2021,2,3,1600,Canada,CA-BC-CO,British Columbia,Central Okanagan,Kelowna--mouth of Mission Creek,49.8427849,-119.4930000,Immature – 1,,Unspecified,"","",,,,,,,S80397027,"",,,,,Ardea herodias,grbher,Group,7659,,4.43,49,,2999,3998
627836748,Photo,Great Blue Heron (Great Blue),Ardea herodias [herodias Group],,Matt Felperin,2024-11-23,2024,11,23,658,United States,US-VA-059,Virginia,Fairfax,**HUNTLEY MEADOWS PARK,38.7576451,-77.0984124,"",,Unspecified,"","",,,,,,,S203346023,"",,,,,Ardea herodias,grbher,Group,7659,,5.00,12,,1872,2807
619792652,Photo,Great Blue Heron,Ardea herodias,,Ken Pride,2024-05-29,2024,5,29,630,Canada,CA-AB-SI,Alberta,Calgary,Frank Lake--NW lookout/blind/outflow,50.5652486,-113.7179804,"",,Unspecified,"","",,,,,,,S178115975,"",,,,,Ardea herodias,grbher3,Species,7658,,5.00,12,,1176,1646
619792651,Photo,Great Blue Heron,Ardea herodias,,Ken Pride,2024-05-29,2024,5,29,630,Canada,CA-AB-SI,Alberta,Calgary,Frank Lake--NW lookout/blind/outflow,50.5652486,-113.7179804,"",,Unspecified,"","",,,,,,,S178115975,"",,,,,Ardea herodias,grbher3,Species,7658,,5.00,12,,980,1372
503273871,Photo,Great Blue Heron,Ardea herodias,,Chris McDonald,2022-11-10,2022,11,10,913,Canada,CA-BC-GV,British Columbia,Metro Vancouver,Reifel Bird Sanctuary,49.1000000,-123.1850000,"",,Unspecified,"","",,,,,,,S122184089,"",,,,,Ardea herodias,grbher3,Species,7658,,5.00,12,,1365,2048
404800251,Photo,Great Blue Heron (Great Blue),Ardea herodias [herodias Group],,Ian Hearn,2021-12-30,2021,12,30,1125,United States,US-ID-001,Idaho,Ada,Barber Park,43.5674381,-116.1348224,Adult – 1,,Unspecified,"","",,,,,,,S99722183,"",,,,,Ardea herodias,grbher,Group,7659,,5.00,12,,3712,5568
344771721,Photo,Great Blue Heron,Ardea herodias,,Jim Merritt,2021-06-02,2021,6,2,609,United States,US-CO-041,Colorado,El Paso,Red Rock Canyon Open Space,38.8473432,-104.8811263,"",,Unspecified,"","",,,,,,,S89490281,"",,,,,Ardea herodias,grbher3,Species,7658,,5.00,12,,2723,2754
87358181,Photo,Great Blue Heron (Great Blue),Ardea herodias [herodias Group],,Davey Walters,2018-02-15,2018,2,15,1045,United States,US-FL-071,Florida,Lee,Lovers Key SP,26.3911316,-81.8713188,"",,Unspecified,"","",,,,,,,S42830040,"",,,,,Ardea herodias,grbher,Group,7659,,4.61,23,,3456,5184
589195361,Photo,Great Blue Heron,Ardea herodias,,John Plummer,2023-06-28,2023,6,28,1230,United States,US-IL-089,Illinois,Kane,Carpentersville Dam,42.1148346,-88.2909066,"",,Unspecified,"","",,,,,,,S142976903,"",,,,,Ardea herodias,grbher3,Species,7658,,4.92,13,,3095,5083
491437251,Photo,Great Blue Heron,Ardea herodias,,Keith Leonard,2022-10-07,2022,10,7,947,United States,US-NJ-025,New Jersey,Monmouth,Sandy Hook,40.4392518,-73.9869263,"",,Unspecified,"","",,,,,,,S120183995,"",,,,,Ardea herodias,grbher3,Species,7658,,4.92,13,,3002,4549
475841821,Photo,Great Blue Heron,Ardea herodias,,Brad Imhoff,2022-08-11,2022,8,11,733,United States,US-OH-089,Ohio,Licking,Buckeye Lake (Licking Co.),39.9335322,-82.4561477,"",Foraging or Eating,Unspecified,"","",,,,,,,S116714593,"",,,,,Ardea herodias,grbher3,Species,7658,,4.92,13,"",3265,4895
475841781,Photo,Great Blue Heron,Ardea herodias,,Brad Imhoff,2022-08-11,2022,8,11,733,United States,US-OH-089,Ohio,Licking,Buckeye Lake (Licking Co.),39.9335322,-82.4561477,"",Foraging or Eating,Unspecified,"","",,,,,,,S116714593,"",,,,,Ardea herodias,grbher3,Species,7658,,4.92,13,"",3490,5232
428698131,Photo,Great Blue Heron,Ardea herodias,,Darren Clark,2022-03-25,2022,3,25,1749,United States,US-ID-051,Idaho,Jefferson,Market Lake WMA--General,43.7808238,-112.1461630,"",,Unspecified,"","",,,,,,,S105580067,"",,,,,Ardea herodias,grbher3,Species,7658,,4.92,13,,2667,4000
250133661,Photo,Great Blue Heron,Ardea herodias,,Liam Huber,2012-01-12,2012,1,12,1029,United States,US-CA-079,California,San Luis Obispo,Morro Rock,35.3693972,-120.8670566,"",,Unspecified,"","",,,,,,,S71605095,"",,,,,Ardea herodias,grbher3,Species,7658,,4.92,13,,2336,3504
54859471,Photo,Great Blue Heron (Great White),Ardea herodias occidentalis,,Alex Wiebe,2017-04-06,2017,4,6,1506,United States,US-FL-087,Florida,Monroe,Everglades NP--Flamingo,25.1416000,-80.9255000,"",,Unspecified,"","",,,,,,,S35744685,"",,,Blinking,Foraging at the marina.,Ardea herodias,grwher,Group,7664,,4.92,13,,2916,5184
432121001,Photo,Great Blue Heron,Ardea herodias,,Charles Fitzpatrick,2022-04-04,2022,4,4,1431,Canada,CA-NL-ON,Newfoundland and Labrador,"Avalon Peninsula-St. John's",Cape Race Rd--Long Beach,46.6400155,-53.1382683,"",,Unspecified,"","",,,,,,,S106289683,"",,,,Pics,Ardea herodias,grbher3,Species,7658,,4.47,34,,2578,2328
30109851,Photo,Great Blue Heron (Great White),Ardea herodias occidentalis,,Ben Phalan,2016-06-07,2016,6,7,1500,United States,US-FL-087,Florida,Monroe,Everglades NP--Flamingo,25.1416000,-80.9255000,Immature,,Unspecified,"","",,,,,,,S30190593,"",,,,Photos by Luciana Leite,Ardea herodias,grwher,Group,7664,,4.59,22,,1632,2464
381769811,Photo,Great Blue Heron,Ardea herodias,,Lyall Bouchard,2021-10-22,2021,10,22,1520,Canada,CA-ON-OT,Ontario,Ottawa,Britannia CA--Britannia Ridge,45.3737175,-75.7972460,"",,Unspecified,"","",,,,,,,S96563104,"",,,,,Ardea herodias,grbher3,Species,7658,,4.65,20,,4760,7136
173937481,Photo,Great Blue Heron,Ardea herodias,,Simon Boivin,2019-08-24,2019,8,24,1043,Canada,CA-QC-LS,Quebec,Lac-Saint-Jean-Est,Embouchure Belle-Rivière,48.4829440,-71.7942595,"",,Unspecified,"","",,,,,,,S59234614,"",,,,,Ardea herodias,grbher3,Species,7658,,4.61,23,,2425,4444
457419101,Photo,Great Blue Heron (Great Blue),Ardea herodias [herodias Group],,Braxton Landsman,2022-06-06,2022,6,6,1721,United States,US-CA-059,California,Orange,Doheny State Beach,33.4615743,-117.6806331,"",,Unspecified,"","",,,,,,,S112381706,"",,,,,Ardea herodias,grbher,Group,7659,,4.42,40,,3648,5472
557969521,Photo,Great Blue Heron,Ardea herodias,,Amy Hudechek,2023-04-14,2023,4,14,1829,United States,US-CO-077,Colorado,Mesa,Highline Lake SP,39.2741769,-108.8396124,"",,Unspecified,"","",,,,,,,S133773614,"",,,,,Ardea herodias,grbher3,Species,7658,,4.72,18,,1365,2048
52524241,Photo,Great Blue Heron,Ardea herodias,,Darren Clark,2014-09-05,2014,9,5,0,Ecuador,EC-W,Galápagos,,Isabela--Centro de crianza de tortugas (Galapaguera),-0.9472272,-90.9739691,"",,Unspecified,"","",,,,,,,S32783791,"",,,,,Ardea herodias,grbher3,Species,7658,,4.57,21,,2048,1365
253346771,Photo,Great Blue Heron,Ardea herodias,,Mason Maron,2020-08-02,2020,8,2,1236,United States,US-WA-033,Washington,King,Marymoor Park,47.6625760,-122.1205200,Adult – 1,"Flying; Vocalizing",Unspecified,"","",,,,,,,S72053289,"",,,,,Ardea herodias,grbher3,Species,7658,,4.57,21,Habitat,1972,3503
91215291,Photo,Great Blue Heron,Ardea herodias,,James (Jim) Holmes,2018-03-24,2018,3,24,1529,United States,US-MS-047,Mississippi,Harrison,Broadwater Marina,30.3882765,-88.9626074,"",,Unspecified,"","",,,,,,,S43920555,"",,,,,Ardea herodias,grbher3,Species,7658,,4.52,23,,2478,3717
627836750,Photo,Great Blue Heron (Great Blue),Ardea herodias [herodias Group],,Matt Felperin,2024-11-23,2024,11,23,658,United States,US-VA-059,Virginia,Fairfax,**HUNTLEY MEADOWS PARK,38.7576451,-77.0984124,"",,Unspecified,"","",,,,,,,S203346023,"",,,,,Ardea herodias,grbher,Group,7659,,5.00,11,,2121,1697
627093452,Photo,Great Blue Heron,Ardea herodias,,bj worth,2024-12-01,2024,12,1,1424,United States,US-CA-073,California,San Diego,San Diego River mudflats & Robb Field,32.7569331,-117.2394124,Adult – 1,"Carrying Food; Foraging or Eating",Unspecified,"","",,,,,,,S204236381,"",,,Positioning prey (gopher) for ingestion.,,Ardea herodias,grbher3,Species,7658,,5.00,11,"",2260,3069
608677141,Photo,Great Blue Heron,Ardea herodias,,Beau Cotter,2023-09-09,2023,9,9,743,United States,US-MI-073,Michigan,Isabella,Mill Pond Park,43.5992274,-84.7875452,"",,Unspecified,"","",,,,,,,S149442352,"",,,,"<a href=""https://www.flickr.com/photos/199172764@N07/53201354409/in/datetaken-public/"" title=""GreatBlueHEron""><img src=""https://live.staticflickr.com/65535/53201354409_2d65f49a42_o.jpg"" alt=""GreatBlueHEron"" /></a>",Ardea herodias,grbher3,Species,7658,,5.00,11,,3506,5259
469597271,Photo,Great Blue Heron (Great Blue),Ardea herodias [herodias Group],,Kyle Matera,2022-07-03,2022,7,3,840,United States,US-FL-099,Florida,Palm Beach,Browns Farm Rd.,26.6215822,-80.5616945,Adult – 1,Foraging or Eating,Unspecified,"","",,,,,,,S114328615,"",,,,,Ardea herodias,grbher,Group,7659,,5.00,11,"",2134,3201
392631691,Photo,Great Blue Heron,Ardea herodias,,Liam Huber,2021-12-01,2021,12,1,830,United States,US-CA-021,California,Glenn,Sacramento NWR,39.4054340,-122.1719100,"",,Unspecified,"","",,,,,,,S98343868,"",,,,,Ardea herodias,grbher3,Species,7658,,5.00,11,,1868,3132
610981528,Photo,Great Blue Heron,Ardea herodias,,Matt Mason,2023-11-10,2023,11,10,747,United States,US-OH-089,Ohio,Licking,Buckeye Lake SP--North Shore,39.9322696,-82.4780355,"",,Unspecified,"","",,,,,,,S154172581,"",,,,,Ardea herodias,grbher3,Species,7658,,4.92,12,,1519,2304
416053861,Photo,Great Blue Heron (Great Blue),Ardea herodias [herodias Group],,Dean LaTray,2022-02-13,2022,2,13,1530,United States,US-CA-001,California,Alameda,Middle Harbor Shoreline Park,37.8054779,-122.3259401,Adult – 1,Foraging or Eating,Unspecified,"","",,,,,,,S102614805,"",,,Heron with Leopard Shark prey.,,Ardea herodias,grbher,Group,7659,,4.92,12,"",2326,3258
75318111,Photo,Great Blue Heron,Ardea herodias,,Jim Merritt,2017-11-12,2017,11,12,700,United States,US-NM-053,New Mexico,Socorro,Bosque del Apache NWR,33.8020000,-106.8800000,"",,Unspecified,"","",,,,,,,S40548076,"",,,,,Ardea herodias,grbher3,Species,7658,,4.92,12,,870,1000
380992231,Photo,Great Blue Heron,Ardea herodias,,maggie s,2021-10-19,2021,10,19,829,United States,US-MN-123,Minnesota,Ramsey,Vadnais Lake,45.0512105,-93.0955696,"",Foraging or Eating,Unspecified,"","",,,,,,,S96440626,"",,,,,Ardea herodias,grbher3,Species,7658,,4.85,13,"",2475,4400
619078655,Photo,Great Blue Heron (Great White),Ardea herodias occidentalis,,Andrew Simon,2023-12-14,2023,12,14,753,United States,US-FL-021,Florida,Collier,Eagle Lakes Community Park,26.0773686,-81.7141414,"",,Unspecified,"","",,,,,,,S156293163,"",,,,Continuing,Ardea herodias,grwher,Group,7664,,4.79,14,,1857,2774
459220131,Photo,Great Blue Heron,Ardea herodias,,Julie Blondeau 🪶,2022-06-13,2022,6,13,840,Canada,CA-QC-MU,Quebec,Les Moulins,Parc de conservation du Ruisseau-de-Feu,45.7144565,-73.4900910,"",,Unspecified,"","",,,,,,,S112858561,"",,,,,Ardea herodias,grbher3,Species,7658,,4.63,19,,2000,3000
621520798,Photo,Great Blue Heron,Ardea herodias,,James Tornetta,2024-06-27,2024,6,27,711,United States,US-NJ-025,New Jersey,Monmouth,Lake Como,40.1672376,-74.0225058,"",,Unspecified,"","",,,,,,,S184003020,"",,,,,Ardea herodias,grbher3,Species,7658,,4.79,14,,1707,2560
166743921,Photo,Great Blue Heron,Ardea herodias,,Oliver Patrick,2019-05-09,2019,5,9,1340,United States,US-NJ-001,New Jersey,Atlantic,Edwin B. Forsythe NWR (formerly Brig),39.4650000,-74.4477778,"",Foraging or Eating,Unspecified,"","",,,,,,,S56170871,"",,,,,Ardea herodias,grbher3,Species,7658,,4.69,16,"",2848,4288
627836752,Photo,Great Blue Heron (Great Blue),Ardea herodias [herodias Group],,Matt Felperin,2024-11-23,2024,11,23,658,United States,US-VA-059,Virginia,Fairfax,**HUNTLEY MEADOWS PARK,38.7576451,-77.0984124,"",,Unspecified,"","",,,,,,,S203346023,"",,,,,Ardea herodias,grbher,Group,7659,,4.91,11,,2316,3472
609051535,Photo,Great Blue Heron,Ardea herodias,,Mike Losacco,2023-08-19,2023,8,19,700,United States,US-IL-089,Illinois,Kane,Muirhead Springs Forest Preserve,42.0466113,-88.4521948,"",,Unspecified,"","",,,,,,,S150352763,"",,,,,Ardea herodias,grbher3,Species,7658,,4.91,11,,1734,2600
627836747,Photo,Great Blue Heron (Great Blue),Ardea herodias [herodias Group],,Matt Felperin,2024-11-23,2024,11,23,658,United States,US-VA-059,Virginia,Fairfax,**HUNTLEY MEADOWS PARK,38.7576451,-77.0984124,"",,Unspecified,"","",,,,,,,S203346023,"",,,,,Ardea herodias,grbher,Group,7659,,5.00,10,,2021,3029
626460263,Photo,Great Blue Heron,Ardea herodias,,Billy Tran,2024-11-16,2024,11,16,1604,United States,US-DC-001,District of Columbia,District of Columbia,Constitution Gardens and Reflecting Pool,38.8901142,-77.0433640,"",,Unspecified,"","",,,,,,,S202806331,"",,,,,Ardea herodias,grbher3,Species,7658,,5.00,10,,3327,4990
512740331,Photo,Great Blue Heron,Ardea herodias,,Ronan Pangie,2022-12-12,2022,12,12,1139,United States,US-GA-063,Georgia,Clayton,Clayton Co. Water Authority--E.L. Huie Ponds (limited access),33.4769269,-84.3368968,"",,Unspecified,"","",,,,,,,S123883823,"",,,,,Ardea herodias,grbher3,Species,7658,,5.00,10,,3591,5224
458227051,Photo,Great Blue Heron (Great Blue),Ardea herodias [herodias Group],,Braxton Landsman,2022-06-10,2022,6,10,753,United States,US-CA-059,California,Orange,Doheny State Beach,33.4615743,-117.6806331,"",,Unspecified,"","",,,,,,,S112600544,"",,,,,Ardea herodias,grbher,Group,7659,,5.00,10,,3543,4407
457419161,Photo,Great Blue Heron (Great Blue),Ardea herodias [herodias Group],,Braxton Landsman,2022-06-06,2022,6,6,1721,United States,US-CA-059,California,Orange,Doheny State Beach,33.4615743,-117.6806331,"",,Unspecified,"","",,,,,,,S112381706,"",,,,,Ardea herodias,grbher,Group,7659,,5.00,10,,3604,5407
427218401,Photo,Great Blue Heron,Ardea herodias,,Shey S,2022-03-20,2022,3,20,730,Canada,CA-ON-PL,Ontario,Peel,Mississauga--Lakefront Promenade Park,43.5648068,-79.5580168,"",,Unspecified,"","",,,,,,,S105210204,"",,,,,Ardea herodias,grbher3,Species,7658,,5.00,10,,2048,1365
404800261,Photo,Great Blue Heron (Great Blue),Ardea herodias [herodias Group],,Ian Hearn,2021-12-30,2021,12,30,1125,United States,US-ID-001,Idaho,Ada,Barber Park,43.5674381,-116.1348224,Adult – 1,,Unspecified,"","",,,,,,,S99722183,"",,,,,Ardea herodias,grbher,Group,7659,,5.00,10,,3712,5568
243147331,Photo,Great Blue Heron,Ardea herodias,,Ryan Sanderson,2020-06-12,2020,6,12,626,United States,US-IN-097,Indiana,Marion,Eagle Creek Reservoir,39.8417588,-86.3044739,Adult – 1,,Unspecified,"","",,,,,,,S70348585,"",,,,,Ardea herodias,grbher3,Species,7658,,5.00,10,,2853,4279
614651959,Photo,Great Blue Heron,Ardea herodias,,Chris McDonald,2024-02-10,2024,2,10,758,Canada,CA-BC-FV,British Columbia,Fraser Valley,Great Blue Heron Nature Reserve,49.0963211,-122.0454092,"",,Unspecified,"","",,,,,,,S161117576,"",,,,,Ardea herodias,grbher3,Species,7658,,4.77,13,,2952,4428
92885791,Photo,Great Blue Heron,Ardea herodias,,Liam Wolff,2018-04-04,2018,4,4,850,United States,US-GA-245,Georgia,Richmond,Phinizy Swamp Nature Park,33.3855863,-81.9606900,Adult,,Unspecified,"","",,,,,,,S44244212,"",,,,Constructed Wetland Trail,Ardea herodias,grbher3,Species,7658,,4.77,13,,3456,5184
429766961,Photo,Great Blue Heron,Ardea herodias,Ardea alba -- Great Egret,jose santiago,2022-03-27,2022,3,27,727,Puerto Rico,PR-GM,Guayama,,Punta Pozuelo,17.9367820,-66.2018971,Adult – 1,Foraging or Eating,Unspecified,"","",,,,,,,S105684395,"",,,,,Ardea herodias,grbher3,Species,7658,,4.83,12,Habitat,3219,5322
614847221,Photo,Great Blue Heron,Ardea herodias,,Alicia Ambers,2020-03-14,2020,3,14,800,United States,US-VA-059,Virginia,Fairfax,**HUNTLEY MEADOWS PARK,38.7576451,-77.0984124,Adult Male – 1,,Unspecified,"","",,,,,,,S161548662,"",,,,,Ardea herodias,grbher3,Species,7658,,4.71,14,,4160,6240
269725911,Photo,Great Blue Heron,Ardea herodias,,Richard Pockat,2020-10-09,2020,10,9,1450,United States,US-NC-119,North Carolina,Mecklenburg,McAlpine Creek Park,35.1508807,-80.7409930,"",,Unspecified,"","",,,,,,,S74638143,"",,,,,Ardea herodias,grbher3,Species,7658,,4.71,14,,3712,5568
418290661,Photo,Great Blue Heron,Ardea herodias,,Chris McDonald,2022-02-20,2022,2,20,846,Canada,CA-BC-GV,British Columbia,Metro Vancouver,"Boundary Bay - 64th-72nd Sts., Delta",49.0501929,-123.0373175,"",,Unspecified,"","",,,,,,,S103221422,"",,,,,Ardea herodias,grbher3,Species,7658,,4.28,32,,1365,2048
238179221,Photo,Great Blue Heron,Ardea herodias,,Mason Maron,2020-05-23,2020,5,23,1528,United States,US-WA-029,Washington,Island,Useless Bay,47.9863026,-122.4807358,"",Foraging or Eating,Unspecified,"","",,,,,,,S69535083,"",,,,One caught a fish,Ardea herodias,grbher3,Species,7658,,4.24,50,"",2453,4361
362514661,Photo,Great Blue Heron,Ardea herodias,,Robert Bochenek,2021-08-19,2021,8,19,909,United States,US-MI-125,Michigan,Oakland,Robert H. Long Park,42.5271345,-83.4507015,"",,Unspecified,"","",,,,,,,S93443001,"",,,,,Ardea herodias,grbher3,Species,7658,,4.38,29,,1510,1615
321348501,Photo,Great Blue Heron,Ardea herodias,,Doris Guimond et Claude Gagnon,2021-03-30,2021,3,30,1315,Canada,CA-QC-MU,Quebec,Les Moulins,"Parc de la Pointe-de-l'Île",45.6934408,-73.6438894,"",,Unspecified,"","",,,,,,,S84411340,"",,,,,Ardea herodias,grbher3,Species,7658,,4.27,33,,1755,2631
533481401,Photo,Great Blue Heron,Ardea herodias,,Quinn Diaz,2023-02-09,2023,2,9,835,United States,US-UT-011,Utah,Davis,Farmington Bay WMA,40.9551410,-111.9191396,"",,Unspecified,"","",,,,,,,S127973945,"",,,,,Ardea herodias,grbher3,Species,7658,,4.82,11,,3389,5084
626144529,Photo,Great Blue Heron,Ardea herodias,,Melissa Ludwig,2024-11-10,2024,11,10,1026,United States,US-DE-001,Delaware,Kent,Bombay Hook National Wildlife Refuge,39.2670818,-75.4695511,"",,Unspecified,"","",,,,,,,S202062192,"",,,,,Ardea herodias,grbher3,Species,7658,,4.82,11,,5670,8506
524014761,Photo,Great Blue Heron,Ardea herodias,,Sasha Cahill,2023-01-11,2023,1,11,1502,United States,US-CA-025,California,Imperial,"928–998 W Lindsey Rd, Calipatria US-CA 33.14757, -115.61533",33.1475660,-115.6153350,"",,Unspecified,"","",,,,,,,S125960320,"",,,1/2000 ISO 400 F/5.6,,Ardea herodias,grbher3,Species,7658,,4.82,11,,2924,4386
465722471,Photo,Great Blue Heron (Great Blue),Ardea herodias [herodias Group],,Eli Pettis,2022-06-23,2022,6,23,1140,United States,US-UT-003,Utah,Box Elder,Bear River MBR--Auto Tour Loop,41.4692291,-112.2947788,"",,Unspecified,"","",,,,,,,S114189785,"",,,,,Ardea herodias,grbher,Group,7659,,4.82,11,,2836,4255
480394081,Photo,Great Blue Heron (Great White),Ardea herodias occidentalis,,Robert Bochenek,2022-08-31,2022,8,31,1303,United States,US-MI-149,Michigan,St. Joseph,Klinger Lake,41.8006088,-85.5503345,"",,Unspecified,"","",,,,,,,S117861951,"",,,,Observed and photographed.,Ardea herodias,grwher,Group,7664,,4.59,17,,1770,2339
586901831,Photo,Great Blue Heron (Great Blue),Ardea herodias [herodias Group],,Braxton Landsman,2023-06-18,2023,6,18,1226,United States,US-CA-059,California,Orange,San Diego Creek Trail--I-405 to Hwy 73,33.6584242,-117.8412008,Immature – 1,"Flying; Foraging or Eating",Unspecified,"","",,,,,,,S142004228,"",,,,Both immatures,Ardea herodias,grbher,Group,7659,,4.67,15,"",4230,6613
104131311,Photo,Great Blue Heron,Ardea herodias,,Adit Nehra,2017-07-07,2017,7,7,900,United States,US-VA-810,Virginia,Virginia Beach,**Back Bay NWR,36.6721270,-75.9156610,"",,Unspecified,"","",,,,,,,S38930950,"",,,,,Ardea herodias,grbher3,Species,7658,,4.69,13,,3265,4898
226976631,Photo,Great Blue Heron,Ardea herodias,,Allan  Bigras,2020-04-24,2020,4,24,1415,Canada,CA-QC-MR,Quebec,Montréal,Parc Angrignon,45.4445136,-73.6017311,"",,Unspecified,"","",,,,,,,S67756208,"",,,,,Ardea herodias,grbher3,Species,7658,,4.53,17,,2843,4264
617748026,Photo,Great Blue Heron,Ardea herodias,,James Tornetta,2024-04-21,2024,4,21,918,United States,US-PA-101,Pennsylvania,Philadelphia,John Heinz NWR--impoundment (Philadelphia Co.),39.8893501,-75.2601457,"",Foraging or Eating,Unspecified,"","",,,,,,,S169705616,"",,,,,Ardea herodias,grbher3,Species,7658,,4.90,10,"",1629,2442
609110182,Photo,Great Blue Heron,Ardea herodias,,Brad Imhoff,2023-09-21,2023,9,21,823,United States,US-OH-089,Ohio,Licking,Buckeye Lake SP--North Shore,39.9322696,-82.4780355,"",,Unspecified,"","",,,,,,,S150398089,"",,,,,Ardea herodias,grbher3,Species,7658,,4.90,10,,2119,3178
513224991,Photo,Great Blue Heron,Ardea herodias,,Bill Wood,2022-12-09,2022,12,9,1341,United States,US-VA-041,Virginia,Chesterfield,Dutch Gap Conservation Area/Henricus Historical Park,37.3745951,-77.3628956,Adult – 1,,Unspecified,"","",,,,,,,S123886499,"",,,,,Ardea herodias,grbher3,Species,7658,,4.90,10,,1606,2409
432124751,Photo,Great Blue Heron,Ardea herodias,,Charles Fitzpatrick,2022-04-04,2022,4,4,1431,Canada,CA-NL-ON,Newfoundland and Labrador,"Avalon Peninsula-St. John's",Cape Race Rd--Long Beach,46.6400155,-53.1382683,"",,Unspecified,"","",,,,,,,S106289683,"",,,,Pics,Ardea herodias,grbher3,Species,7658,,4.90,10,,2970,2790
428986781,Photo,Great Blue Heron,Ardea herodias,,Adam Zahm,2022-03-26,2022,3,26,1145,United States,US-UT-035,Utah,Salt Lake,Lee Kay Ponds,40.7397136,-112.0437241,"",,Unspecified,"","",,,,,,,S105656911,"",,,,,Ardea herodias,grbher3,Species,7658,,4.90,10,,2008,2008
307629601,Photo,Great Blue Heron (Great Blue),Ardea herodias [herodias Group],,Gary Leavens,2021-02-14,2021,2,14,1237,United States,US-FL-095,Florida,Orange,Orlando Wetlands Park,28.5700783,-80.9963373,Adult – 1,Foraging or Eating,Unspecified,"","",,,,,,,S81430404,"",,,,One on a nest,Ardea herodias,grbher,Group,7659,,4.90,10,"",2715,4421
138808021,Photo,Great Blue Heron,Ardea herodias,,Juan Miguel Artigas Azas,2019-02-03,2019,2,3,1215,United States,US-NM-053,New Mexico,Socorro,Bosque del Apache NWR,33.8020000,-106.8800000,"",,Unspecified,"","",,,,,,,S52343342,"",,,,,Ardea herodias,grbher3,Species,7658,,4.90,10,,533,800
27670171,Photo,Great Blue Heron,Ardea herodias,,Evan Lipton,2016-04-24,2016,4,24,1634,United States,US-MA-021,Massachusetts,Norfolk,Ponkapoag Pond,42.1909292,-71.1062193,"",,Unspecified,"","",,,,,,,S29193732,"",,,,,Ardea herodias,grbher3,Species,7658,,4.90,10,,2650,3976
320973571,Photo,Great Blue Heron,Ardea herodias,,Tim White,2021-03-29,2021,3,29,1030,Bermuda,BM-,Bermuda,,Somerset Long Bay Park,32.3041465,-64.8713962,"",,Unspecified,"","",,,,,,,S84337412,"",,,,,Ardea herodias,grbher3,Species,7658,,4.30,30,,3996,2854
50840081,Photo,Great Blue Heron,Ardea herodias,,Dean Hester,2017-03-11,2017,3,11,1300,United States,US-IA-103,Iowa,Johnson,Iowa City City Park,41.6739639,-91.5391887,"",,Unspecified,"","",,,,,,,S35116575,"",,,,,Ardea herodias,grbher3,Species,7658,,4.50,18,,,
166003431,Photo,Great Blue Heron (Great Blue),Ardea herodias [herodias Group],,Davey Walters,2019-06-23,2019,6,23,1830,United States,US-TX-061,Texas,Cameron,South Padre Is.--WBC/Conv. Center/Laguna Madre Trail (LTC 035),26.1400912,-97.1748233,"",,Unspecified,"","",,,,,,,S57638662,"",,,,,Ardea herodias,grbher,Group,7659,,4.56,16,,2627,3940
272322201,Photo,Great Blue Heron,Ardea herodias,,Justin Crosby,2020-10-18,2020,10,18,815,Canada,CA-NS-HL,Nova Scotia,Halifax,Sir Sandford Fleming Park--General,44.6281174,-63.5987277,"",,Unspecified,"","",,,,,,,S75062320,"",,,,,Ardea herodias,grbher3,Species,7658,,4.53,17,,1365,2048
617561639,Photo,Great Blue Heron (Great Blue),Ardea herodias [herodias Group],,Ian Hearn,2024-04-15,2024,4,15,815,Ecuador,EC-W,Galápagos,,Santa Cruz--Playa Tortuga Bay (Playa Brava),-0.7616900,-90.3359300,Adult – 1,,Unspecified,"","",,,,,,,S168810044,"",,,,,Ardea herodias,grbher,Group,7659,,5.00,9,,2784,4176
616632924,Photo,Great Blue Heron,Ardea herodias,,John Troth,2024-03-29,2024,3,29,728,United States,US-IN-057,Indiana,Hamilton,"Lake Woodland, Hamilton County, Indiana US",39.9530796,-86.1064383,Adult – 1,,Unspecified,"","",,,,,,,S166374615,"",,,photograph at sunrise,,Ardea herodias,grbher3,Species,7658,,5.00,9,,3505,5257
615158880,Photo,Great Blue Heron,Ardea herodias,,Matthew Addicks,2024-01-14,2024,1,14,700,United States,US-VA-059,Virginia,Fairfax,**HUNTLEY MEADOWS PARK,38.7576451,-77.0984124,"",,Unspecified,"","",,,,,,,S162512027,"",,,,,Ardea herodias,grbher3,Species,7658,,5.00,9,,3890,5867
614081800,Photo,Great Blue Heron (Great Blue),Ardea herodias [herodias Group],,Andrew Thomas 🦅🪶,2024-01-26,2024,1,26,1150,United States,US-WA-063,Washington,Spokane,Wandermere Golf Course lake,47.7817166,-117.3980548,"",,Unspecified,"","",,,,,,,S159847866,"",,,,,Ardea herodias,grbher,Group,7659,,5.00,9,,1439,2400
612306454,Photo,Great Blue Heron,Ardea herodias,,Janet Hix,2023-12-16,2023,12,16,711,United States,US-TX-439,Texas,Tarrant,Colleyville Nature Ctr. (PPW-W 082),32.8763434,-97.1664548,"",Flying,Unspecified,"","",,,,,,,S156457799,"",,,,,Ardea herodias,grbher3,Species,7658,,5.00,9,"",2309,3463
581845901,Photo,Great Blue Heron,Ardea herodias,,Deborah Bifulco,2023-06-06,2023,6,6,903,United States,US-NJ-037,New Jersey,Sussex,Wallkill River NWR--Owens Station Rd. to Liberty Marsh,41.2653238,-74.5355466,"",,Unspecified,"","",,,,,,,S140701190,"",,,,,Ardea herodias,grbher3,Species,7658,,5.00,9,,1885,2827
578726741,Photo,Great Blue Heron,Ardea herodias,,Zachary Vaughan,2023-05-29,2023,5,29,620,United States,US-PA-003,Pennsylvania,Allegheny,North Park--North Park Lake,40.5966189,-79.9981499,"",,Unspecified,"","",,,,,,,S139747256,"",,,,,Ardea herodias,grbher3,Species,7658,,5.00,9,,7422,5193
544949881,Photo,Great Blue Heron (Great Blue),Ardea herodias [herodias Group],,Rajan Rao,2023-03-12,2023,3,12,1736,United States,US-CA-075,California,San Francisco,"Heron's Head Park",37.7381243,-122.3725462,"",,Unspecified,"","",,,,,,,S130806151,"",,,,,Ardea herodias,grbher,Group,7659,,5.00,9,,3318,4977
395561521,Photo,Great Blue Heron,Ardea herodias,,Brad Vissia,2021-12-12,2021,12,12,1005,Canada,CA-BC-OS,British Columbia,Okanagan-Similkameen,Penticton--SS Sicamous/Riverside Park,49.5015800,-119.6119416,"",,Unspecified,"","",,,,,,,S98818847,"",,,,,Ardea herodias,grbher3,Species,7658,,5.00,9,,3460,5184
345977171,Photo,Great Blue Heron (Great Blue),Ardea herodias [herodias Group],,Andrew Bendall,2021-06-07,2021,6,7,842,Canada,CA-ON-WL,Ontario,Wellington,Guelph--Speed River between Hanlon and Gordon,43.5359727,-80.2484000,"",Foraging or Eating,Unspecified,"","",,,,,,,S89791641,"",,,,,Ardea herodias,grbher,Group,7659,,5.00,9,"",3109,4663
307778091,Photo,Great Blue Heron,Ardea herodias,,Gina Correa,2021-02-14,2021,2,14,1506,United States,US-ID-045,Idaho,Gem,Gem Island Sports Complex,43.8776870,-116.5063900,"",,Unspecified,"","",,,,,,,S81494369,"",,,,Caught a large frog,Ardea herodias,grbher3,Species,7658,,5.00,9,,1933,3246
262584471,Photo,Great Blue Heron,Ardea herodias,,Tony Goza,2020-09-10,2020,9,10,1304,United States,US-TX-181,Texas,Grayson,"Hagerman National Wildlife Refuge, Sherman US-TX 33.73963, -96.75301",33.7396340,-96.7530080,"",,Unspecified,"","",,,,,,,S73438505,"",,,,,Ardea herodias,grbher3,Species,7658,,5.00,9,,2475,3712
207415771,Photo,Great Blue Heron,Ardea herodias,,Paul Maury,2019-08-30,2019,8,30,913,Canada,CA-BC-SL,British Columbia,Squamish-Lillooet,Whistler--Valley Trail to Alta Lake,50.1230407,-122.9785109,"",,Unspecified,"","",,,,,,,S59443595,"",,,,,Ardea herodias,grbher3,Species,7658,,5.00,9,,2755,4133
171354351,Photo,Great Blue Heron (Great Blue),Ardea herodias [herodias Group],,Jeff Ellerbusch,2019-07-26,2019,7,26,1608,United States,US-NJ-019,New Jersey,Hunterdon,Round Valley Recreation Area,40.6231750,-74.8515027,"",,Unspecified,"","",,,,,,,S58782762,"",,,,,Ardea herodias,grbher,Group,7659,,5.00,9,,3122,4682
147169891,Photo,Great Blue Heron,Ardea herodias,,Don Danko,2019-03-24,2019,3,24,1140,United States,US-OH-093,Ohio,Lorain,Columbia Reservation,41.3118498,-81.9199339,"",,Unspecified,"","",,,,,,,S54172608,"",,,,,Ardea herodias,grbher3,Species,7658,,5.00,9,,,
81714381,Photo,Great Blue Heron,Ardea herodias,,Mark Schulist,2018-01-06,2018,1,6,1503,United States,US-CA-041,California,Marin,Lake Lagunitas (MRN Co.),37.9474633,-122.5962210,"",,Unspecified,"","",,,,,,,S41690807,"",,,,,Ardea herodias,grbher3,Species,7658,,5.00,9,,2857,4657
56235451,Photo,Great Blue Heron (Great White),Ardea herodias occidentalis,,Darren Clark,2017-04-24,2017,4,24,1630,United States,US-FL-087,Florida,Monroe,Fort Zachary Taylor Historic SP,24.5463000,-81.8106000,"",,Unspecified,"","",,,,,,,S36248305,"",,,,,Ardea herodias,grwher,Group,7664,,5.00,9,,1428,2000
496463271,Photo,Great Blue Heron,Ardea herodias,,Rain Saulnier,2022-10-22,2022,10,22,1434,Canada,CA-AB-SI,Alberta,Calgary,Calgary--Inglewood Bird Sanctuary,51.0303540,-114.0099200,"",,Unspecified,"","",,,,,,,S121139062,"",,,,,Ardea herodias,grbher3,Species,7658,,4.82,11,,1376,2048
251460231,Photo,Great Blue Heron,Ardea herodias,,Maxima Gomez-Palmer,2020-07-24,2020,7,24,730,United States,US-IL-031,Illinois,Cook,"Centennial Park, Orland Park",41.6050863,-87.8657341,"",,Unspecified,"","",,,,,,,S71809431,"",,,,,Ardea herodias,grbher3,Species,7658,,4.27,33,,2683,1994
61340791,Photo,Great Blue Heron,Ardea herodias,,Gates Dupont,2015-04-01,2015,4,1,1730,United States,US-MA-017,Massachusetts,Middlesex,Great Meadows NWR--Concord Unit,42.4751409,-71.3295084,"",,Unspecified,"","",,,,,,,S22632415,"",,,,,Ardea herodias,grbher3,Species,7658,,4.69,13,,5472,3648
257422261,Photo,Great Blue Heron,Ardea herodias,,Theresa Dobko,2020-08-23,2020,8,23,727,Canada,CA-ON-DR,Ontario,Durham,Lynde Shores CA--Cranberry Marsh,43.8429460,-78.9643440,"",,Unspecified,"","",,,,,,,S72742149,"",,,,,Ardea herodias,grbher3,Species,7658,,4.43,21,,2730,3607
240430021,Photo,Great Blue Heron,Ardea herodias,,Brad Imhoff,2020-06-01,2020,6,1,628,United States,US-OH-089,Ohio,Licking,Buckeye Lake (Licking Co.),39.9335322,-82.4561477,"",,Unspecified,"","",,,,,,,S69929194,"",,,,,Ardea herodias,grbher3,Species,7658,,4.56,16,,2717,4076
62856051,Photo,Great Blue Heron (Great Blue),Ardea herodias [herodias Group],,Jonathan Eckerson,2017-07-08,2017,7,8,535,United States,US-MA-005,Massachusetts,Bristol,"Mill Brook Bogs WMA, Freetown",41.7939856,-71.0306534,"",,Unspecified,"","",,,,,,,S38030802,"",,,,,Ardea herodias,grbher,Group,7659,,4.45,20,,3077,4291
175320341,Photo,Great Blue Heron,Ardea herodias,,Mason Maron,2019-09-02,2019,9,2,836,United States,US-WA-033,Washington,King,Lake Sammamish SP,47.5597558,-122.0549817,"",,Unspecified,"","",,,,,,,S59460130,"",,,,,Ardea herodias,grbher3,Species,7658,,4.32,25,,1613,2658
77220471,Photo,Great Blue Heron,Ardea herodias,,jean pierre machet,2017-12-03,2017,12,3,1515,Canada,CA-QC-BR,Quebec,Pierre-De Saurel,Ile du Moine,46.0705930,-72.9974310,"",,Unspecified,"","",,,,,,,S40910182,"",,,,,Ardea herodias,grbher3,Species,7658,,4.03,113,,2984,4480
278080561,Photo,Great Blue Heron,Ardea herodias,,Paul Prior,2020-11-07,2020,11,7,700,Canada,CA-ON-TO,Ontario,Toronto,Tommy Thompson Park,43.6282673,-79.3291670,"",,Unspecified,"","",,,,,,,S75950332,"",,,,,Ardea herodias,grbher3,Species,7658,,4.69,13,,2460,3907
535522091,Photo,Great Blue Heron,Ardea herodias,,Stephen Taylor,2023-02-15,2023,2,15,926,Canada,CA-ON-MI,Ontario,Middlesex,London--The Coves,42.9691344,-81.2691951,"",,Unspecified,"","",,,,,,,S128380314,"",,,,,Ardea herodias,grbher3,Species,7658,,4.47,17,,3656,5118
320973561,Photo,Great Blue Heron,Ardea herodias,,Tim White,2021-03-29,2021,3,29,1030,Bermuda,BM-,Bermuda,,Somerset Long Bay Park,32.3041465,-64.8713962,"",,Unspecified,"","",,,,,,,S84337412,"",,,,,Ardea herodias,grbher3,Species,7658,,4.33,27,,3191,4786
480393451,Photo,Great Blue Heron (Great White),Ardea herodias occidentalis,,Robert Bochenek,2022-08-31,2022,8,31,1303,United States,US-MI-149,Michigan,St. Joseph,Klinger Lake,41.8006088,-85.5503345,"",,Unspecified,"","",,,,,,,S117861951,"",,,,Observed and photographed.,Ardea herodias,grwher,Group,7664,,4.56,18,,4013,6848
325232461,Photo,Great Blue Heron,Ardea herodias,,Robert Bochenek,2021-04-10,2021,4,10,944,United States,US-MI-125,Michigan,Oakland,Robert H. Long Park,42.5271345,-83.4507015,"",,Unspecified,"","",,,,,,,S85220883,"",,,,,Ardea herodias,grbher3,Species,7658,,4.37,27,,827,1272
103399281,Photo,Great Blue Heron,Ardea herodias,,Stephen Hurst,2018-04-25,2018,4,25,1932,United States,US-WI-111,Wisconsin,Sauk,Devils Lake SP--Group Camp,43.4101606,-89.7113085,"",,Unspecified,"","",,,,,,,S46332188,"",,,,"If there were any other birds, I couldn't hear them because of all the noisy herons!",Ardea herodias,grbher3,Species,7658,,4.33,24,,2600,4623
165960511,Photo,Great Blue Heron,Ardea herodias,,Mason Maron,2019-06-26,2019,6,26,1232,United States,US-WA-033,Washington,King,Woodland Park Zoo,47.6684798,-122.3506165,"",,Unspecified,"","",,,,,,,S57716340,"",,,,,Ardea herodias,grbher3,Species,7658,,4.45,20,,2648,4708
73671641,Photo,Great Blue Heron,Ardea herodias,,Jon G.,2017-10-26,2017,10,26,738,United States,US-AZ-013,Arizona,Maricopa,Veterans Oasis Park,33.2347837,-111.7695838,"",,Unspecified,"","",,,,,,,S40226413,"",,,,,Ardea herodias,grbher3,Species,7658,,4.14,43,,1774,1192
299982581,Photo,Great Blue Heron,Ardea herodias,,William Richards,2021-01-19,2021,1,19,1245,United States,US-UT-011,Utah,Davis,Farmington Bay WMA,40.9551410,-111.9191396,"",,Unspecified,"","",,,,,,,S79664693,"",,,,,Ardea herodias,grbher3,Species,7658,,4.43,21,,3687,4515
77249411,Photo,Great Blue Heron,Ardea herodias,,Robert Norton,2017-12-04,2017,12,4,900,United States,US-FL-001,Florida,Alachua,"Sweetwater Wetlands Park, Gainesville US-FL (29.6203,-82.3283)",29.6203000,-82.3283030,"",,Unspecified,"","",,,,,,,S40906296,"",,,,,Ardea herodias,grbher3,Species,7658,,4.26,27,,3008,2545
49115601,Photo,Great Blue Heron,Ardea herodias,,Ashley Bradford,2017-02-18,2017,2,18,1535,United States,US-VA-059,Virginia,Fairfax,Belle Haven Park--Marina,38.7763000,-77.0484000,Immature,,Unspecified,"","",,,,,,,S34470363,"",,,,,Ardea herodias,grbher3,Species,7658,,4.62,13,,1200,1018
101365511,Photo,Great Blue Heron,Ardea herodias,,Sean Fitzgerald,2018-05-21,2018,5,21,632,United States,US-AZ-013,Arizona,Maricopa,Riparian Preserve at Gilbert Water Ranch,33.3614502,-111.7339478,Adult,,Unspecified,"","",,,,,,,S45896584,"",,,,,Ardea herodias,grbher3,Species,7658,,4.47,17,,2986,1792
620847957,Photo,Great Blue Heron,Ardea herodias,,Rain Saulnier,2024-06-12,2024,6,12,1935,Canada,CA-ON-FR,Ontario,Frontenac,Loughborough Lake (east basin),44.4468879,-76.4103793,"",,Unspecified,"","",,,,,,,S181132526,"",,,,,Ardea herodias,grbher3,Species,7658,,4.73,11,,3959,5939
588624901,Photo,Great Blue Heron,Ardea herodias,,Benjamin Ashin,2023-06-26,2023,6,26,740,United States,US-NJ-029,New Jersey,Ocean,Lakewood--Lake Carasaljo & Park,40.0936825,-74.2280536,"",Foraging or Eating,Unspecified,"","",,,,,,,S142758461,"",,,,Eating a catfish,Ardea herodias,grbher3,Species,7658,,4.73,11,"",3265,4898
357008451,Photo,Great Blue Heron (Great White),Ardea herodias occidentalis,,Victoria  Sindlinger,2021-07-26,2021,7,26,1022,United States,US-PA-101,Pennsylvania,Philadelphia,Manayunk Canal,40.0363551,-75.2402759,"",,Unspecified,"","",,,,,,,S92325944,"",,,,"Continuing in the canal near the Fountain Street bridge. Cooperative and easy to see, hanging out on the opposite bank. Very large all-white wading bird. Large, two-colored bill, pale tannish legs. See photos.",Ardea herodias,grwher,Group,7664,,4.73,11,,3456,4608
486544531,Photo,Great Blue Heron,Ardea herodias,,jean-francois franche,2022-09-22,2022,9,22,701,Canada,CA-QC-MR,Quebec,Montréal,Jardin botanique de Montréal (accès restreint),45.5596562,-73.5626078,"",,Unspecified,"","",,,,,,,S119188856,"",,,,,Ardea herodias,grbher3,Species,7658,,4.67,12,,1638,2048
174802181,Photo,Great Blue Heron,Ardea herodias,,Pauline Yeckley,2019-08-30,2019,8,30,1015,United States,US-CA-075,California,San Francisco,Presidio--Crissy Field Lagoon,37.8047658,-122.4562311,"",,Unspecified,"","",,,,,,,S59384607,"",,,,,Ardea herodias,grbher3,Species,7658,,4.67,12,,926,1500
127429191,Photo,Great Blue Heron (Great Blue),Ardea herodias [herodias Group],,William Hearn,2018-12-07,2018,12,7,630,United States,US-SC-043,South Carolina,Georgetown,Huntington Beach SP,33.5083000,-79.0659000,Adult,,Unspecified,"","",,,,,,,S50509104,"",,,,,Ardea herodias,grbher,Group,7659,,4.28,32,,3648,5472
469683471,Photo,Great Blue Heron,Ardea herodias,,Kyle Tansley,2022-07-24,2022,7,24,530,United States,US-VT-007,Vermont,Chittenden,LaPlatte River and Marshes (S of Bay Road),44.3929279,-73.2312618,Adult – 1,,Unspecified,"","",,,,,,,S115666919,"",,,,,Ardea herodias,grbher3,Species,7658,,4.62,13,,4096,2731
610153314,Photo,Great Blue Heron,Ardea herodias,,Michael Woodford,2023-10-19,2023,10,19,1150,United States,US-MI-099,Michigan,Macomb,Lake St. Clair Metropark,42.5797790,-82.8032647,"",,Unspecified,"","",,,,,,,S152641933,"",,,,,Ardea herodias,grbher3,Species,7658,,4.80,10,,1965,3615
609787852,Photo,Great Blue Heron,Ardea herodias,,Ronan Pangie,2023-09-15,2023,9,15,1219,United States,US-GA-019,Georgia,Berrien,Paradise PFA,31.4010079,-83.3665066,"",,Unspecified,"","",,,,,,,S149960832,"",,,,,Ardea herodias,grbher3,Species,7658,,4.80,10,,3168,3838
513320661,Photo,Great Blue Heron,Ardea herodias,,Franklin Chalk,2022-12-15,2022,12,15,736,United States,US-AL-003,Alabama,Baldwin,Fort Morgan--Stables,30.2310581,-88.0105627,"",,Unspecified,"","",,,,,,,S124014483,"",,,,,Ardea herodias,grbher3,Species,7658,,4.80,10,,2048,1904
475841671,Photo,Great Blue Heron,Ardea herodias,,Brad Imhoff,2022-08-11,2022,8,11,733,United States,US-OH-089,Ohio,Licking,Buckeye Lake (Licking Co.),39.9335322,-82.4561477,"",Foraging or Eating,Unspecified,"","",,,,,,,S116714593,"",,,,,Ardea herodias,grbher3,Species,7658,,4.80,10,"",2262,3392
398090571,Photo,Great Blue Heron,Ardea herodias,,Robert Stone,2021-12-22,2021,12,22,935,United States,US-VA-087,Virginia,Henrico,Tuckahoe Creek Park,37.6238174,-77.6499081,"",Foraging or Eating,Unspecified,"","",,,,,,,S99279108,"",,,,,Ardea herodias,grbher3,Species,7658,,4.80,10,"",2744,3430
362514581,Photo,Great Blue Heron,Ardea herodias,,Robert Bochenek,2021-08-19,2021,8,19,909,United States,US-MI-125,Michigan,Oakland,Robert H. Long Park,42.5271345,-83.4507015,"",,Unspecified,"","",,,,,,,S93443001,"",,,,,Ardea herodias,grbher3,Species,7658,,4.39,23,,1289,1460
357503071,Photo,Great Blue Heron,Ardea herodias,,Cynthia Carlson,2021-07-23,2021,7,23,703,United States,US-WI-025,Wisconsin,Dane,UW Lakeshore Nature Preserve--Willow Creek Woods/Willow Beach,43.0778692,-89.4215441,"",,Unspecified,"","",,,,,,,S92169756,"",,,,,Ardea herodias,grbher3,Species,7658,,4.73,11,,3670,4429
179053021,Photo,Great Blue Heron,Ardea herodias,,Brad Imhoff,2019-09-26,2019,9,26,758,United States,US-OH-089,Ohio,Licking,Buckeye Lake (Licking Co.),39.9335322,-82.4561477,"",,Unspecified,"","",,,,,,,S60124971,"",,,,,Ardea herodias,grbher3,Species,7658,,4.73,11,,3168,4752
194029121,Photo,Great Blue Heron,Ardea herodias,,Steve Metchis,2019-12-18,2019,12,18,1104,United States,US-TX-167,Texas,Galveston,"Bob Road, Bolivar",29.4630283,-94.6309519,"",,Unspecified,"","",,,,,,,S62427080,"",,,,,Ardea herodias,grbher3,Species,7658,,4.41,17,,3648,5472
609110185,Photo,Great Blue Heron,Ardea herodias,,Brad Imhoff,2023-09-21,2023,9,21,823,United States,US-OH-089,Ohio,Licking,Buckeye Lake SP--North Shore,39.9322696,-82.4780355,"",,Unspecified,"","",,,,,,,S150398089,"",,,,,Ardea herodias,grbher3,Species,7658,,4.67,12,,6969,4646
402466991,Photo,Great Blue Heron (Great Blue),Ardea herodias [herodias Group],,Ian Hearn,2021-12-30,2021,12,30,1125,United States,US-ID-001,Idaho,Ada,Barber Park,43.5674381,-116.1348224,Adult – 1,,Unspecified,"","",,,,,,,S99722183,"",,,,,Ardea herodias,grbher,Group,7659,,4.62,13,,5568,3712
63543961,Photo,Great Blue Heron (Great Blue),Ardea herodias [herodias Group],,Nathan Dubrow,2017-07-16,2017,7,16,600,United States,US-MA-009,Massachusetts,Essex,Crane Beach (TTOR),42.6839598,-70.7667586,Juvenile,,Unspecified,"","",,,,,,,S38162016,"",,,,Juv. landed right on the beach in front of me.,Ardea herodias,grbher,Group,7659,,4.62,13,,3194,4651
625132454,Photo,Great Blue Heron,Ardea herodias,,Vitus Li,2024-10-18,2024,10,18,1250,United States,US-MD-027,Maryland,Howard,Lake Kittamaqundi,39.2160958,-76.8551588,"",,Unspecified,"","",,,,,,,S199360760,"",,,,,Ardea herodias,grbher3,Species,7658,,4.89,9,,1365,2048
619749204,Photo,Great Blue Heron,Ardea herodias,,KMJ Bird,2024-05-28,2024,5,28,910,United States,US-TX-157,Texas,Fort Bend,Cross Creek Ranch wetlands,29.6986869,-95.8764732,"",,Unspecified,"","",,,,,,,S177891032,"",,,,,Ardea herodias,grbher3,Species,7658,,4.89,9,,2192,3069
618020017,Photo,Great Blue Heron,Ardea herodias,,James Tornetta,2024-04-21,2024,4,21,918,United States,US-PA-101,Pennsylvania,Philadelphia,John Heinz NWR--impoundment (Philadelphia Co.),39.8893501,-75.2601457,"",,Unspecified,"","",,,,,,,S169705616,"",,,,,Ardea herodias,grbher3,Species,7658,,4.89,9,,1401,2100
548278241,Photo,Great Blue Heron (Great Blue),Ardea herodias [herodias Group],,Michael Stubblefield,2017-09-15,2017,9,15,715,United States,US-AZ-013,Arizona,Maricopa,Riparian Preserve at Gilbert Water Ranch,33.3614502,-111.7339478,Juvenile – 1,Flying,Unspecified,"","",,,,,,,S131508970,"",,,"Great Blue Heron (Ardea herodias herodias), juvenile in flight at Riparian Preserve at Water Ranch, Gilbert, Arizona.",,Ardea herodias,grbher,Group,7659,,4.89,9,"",2890,4335
516497881,Photo,Great Blue Heron,Ardea herodias,,Michael W. Sack,2019-04-30,2019,4,30,1345,United States,US-CA-037,California,Los Angeles,Ken Malloy Harbor Regional Park,33.7874582,-118.2939363,"",,Unspecified,"","",,,,,,,S55607932,"",,,,,Ardea herodias,grbher3,Species,7658,,4.89,9,,2736,3773
465722461,Photo,Great Blue Heron (Great Blue),Ardea herodias [herodias Group],,Eli Pettis,2022-06-23,2022,6,23,1140,United States,US-UT-003,Utah,Box Elder,Bear River MBR--Auto Tour Loop,41.4692291,-112.2947788,"",,Unspecified,"","",,,,,,,S114189785,"",,,,,Ardea herodias,grbher,Group,7659,,4.89,9,,2857,4286
413347341,Photo,Great Blue Heron,Ardea herodias,,Andrew Thomas 🦅🪶,2022-02-05,2022,2,5,943,United States,US-WA-063,Washington,Spokane,Riverside SP--Confluence of Spokane and Little Spokane Rivers,47.7895169,-117.5309873,"",,Unspecified,"","",,,,,,,S102098372,"",,,,,Ardea herodias,grbher3,Species,7658,,4.89,9,,2051,3076
376582761,Photo,Great Blue Heron (Great Blue),Ardea herodias [herodias Group],,Sam Zhang,2021-10-09,2021,10,9,640,United States,US-MA-009,Massachusetts,Essex,Parker River NWR,42.7639008,-70.8022995,Immature – 1,,Unspecified,"","",,,,,,,S95908847,"",,,,,Ardea herodias,grbher,Group,7659,,4.89,9,,1915,2872
376582741,Photo,Great Blue Heron (Great Blue),Ardea herodias [herodias Group],,Sam Zhang,2021-10-09,2021,10,9,640,United States,US-MA-009,Massachusetts,Essex,Parker River NWR,42.7639008,-70.8022995,Immature – 1,,Unspecified,"","",,,,,,,S95908847,"",,,,,Ardea herodias,grbher,Group,7659,,4.89,9,,1964,2946
307909771,Photo,Great Blue Heron,Ardea herodias,,Nathan Arnold,2021-02-13,2021,2,13,854,United States,US-FL-001,Florida,Alachua,Sweetwater Wetlands Park,29.6193055,-82.3285764,"","Courtship, Display, or Copulation; Nest Building",Unspecified,"","",,,,,,,S81146529,"",,,Nesting,,Ardea herodias,grbher3,Species,7658,,4.89,9,"Habitat; Nest",1915,2873
276263511,Photo,Great Blue Heron,Ardea herodias,,Richard Pockat,2020-10-31,2020,10,31,1100,United States,US-NC-119,North Carolina,Mecklenburg,McAlpine Creek Park,35.1508807,-80.7409930,"",,Unspecified,"","",,,,,,,S75671326,"",,,,,Ardea herodias,grbher3,Species,7658,,4.89,9,,3238,4857
269638791,Photo,Great Blue Heron,Ardea herodias,,Allan  Bigras,2020-10-09,2020,10,9,1430,Canada,CA-QC-MR,Quebec,Montréal,Parc Angrignon,45.4445136,-73.6017311,"",,Unspecified,"","",,,,,,,S74625195,"",,,,,Ardea herodias,grbher3,Species,7658,,4.89,9,,3517,5275
253874821,Photo,Great Blue Heron,Ardea herodias,,Brad Imhoff,2020-08-06,2020,8,6,802,United States,US-OH-089,Ohio,Licking,Buckeye Lake (Licking Co.),39.9335322,-82.4561477,"",,Unspecified,"","",,,,,,,S72157897,"",,,,,Ardea herodias,grbher3,Species,7658,,4.89,9,,3464,5196
362514611,Photo,Great Blue Heron,Ardea herodias,,Robert Bochenek,2021-08-19,2021,8,19,909,United States,US-MI-125,Michigan,Oakland,Robert H. Long Park,42.5271345,-83.4507015,"",,Unspecified,"","",,,,,,,S93443001,"",,,,,Ardea herodias,grbher3,Species,7658,,4.45,20,,1576,1813
73316241,Photo,Great Blue Heron,Ardea herodias,,Mark Fitzsimmons,2012-03-26,2012,3,26,1815,United States,US-FL-115,Florida,Sarasota,Venice Rookery,27.0459800,-82.3998900,"",,Unspecified,"","",,,,,,,S40173525,"",,,,,Ardea herodias,grbher3,Species,7658,,4.05,58,,640,480
508349151,Photo,Great Blue Heron,Ardea herodias,,Mark Elkins,2022-11-23,2022,11,23,1452,United States,US-KY-211,Kentucky,Shelby,Lake Shelby Park,38.2344330,-85.2154170,"",,Unspecified,"","",,,,,,,S122910246,"",,,,,Ardea herodias,grbher3,Species,7658,,4.80,10,,3718,5577
625120684,Photo,Great Blue Heron,Ardea herodias,,Cameron Hunter,2024-10-11,2024,10,11,724,Canada,CA-AB-SI,Alberta,Calgary,Frank Lake--NW lookout/blind/outflow,50.5652486,-113.7179804,"",Foraging or Eating,Unspecified,"","",,,,,,,S198346171,"",,,,,Ardea herodias,grbher3,Species,7658,,4.80,10,"",8256,5504
341966861,Photo,Great Blue Heron,Ardea herodias,,Connie Misket,2021-05-24,2021,5,24,944,United States,US-UT-011,Utah,Davis,Farmington Bay WMA,40.9551410,-111.9191396,"",Foraging or Eating,Unspecified,"","",,,,,,,S88903236,"",,,,,Ardea herodias,grbher3,Species,7658,,4.62,13,"",3186,2442
626527945,Photo,Great Blue Heron,Ardea herodias,,James Tornetta,2024-08-15,2024,8,15,637,United States,US-NJ-025,New Jersey,Monmouth,Lake Como,40.1672376,-74.0225058,"",,Unspecified,"","",,,,,,,S191571798,"",,,,,Ardea herodias,grbher3,Species,7658,,5.00,8,,1707,2560
623025329,Photo,Great Blue Heron,Ardea herodias,,Lisa Hansen,2024-08-27,2024,8,27,728,United States,US-WA-025,Washington,Grant,Soap Lake City Park,47.3931491,-119.4848049,"",,Unspecified,"","",,,,,,,S192961770,"",,,,,Ardea herodias,grbher3,Species,7658,,5.00,8,,5333,8000
619792653,Photo,Great Blue Heron,Ardea herodias,,Ken Pride,2024-05-29,2024,5,29,630,Canada,CA-AB-SI,Alberta,Calgary,Frank Lake--NW lookout/blind/outflow,50.5652486,-113.7179804,"",,Unspecified,"","",,,,,,,S178115975,"",,,,,Ardea herodias,grbher3,Species,7658,,5.00,8,,1370,1918
619498122,Photo,Great Blue Heron,Ardea herodias,,Billy Tran,2024-05-18,2024,5,18,757,United States,US-PA-029,Pennsylvania,Chester,Marsh Creek SP,40.0675599,-75.7199850,"",,Unspecified,"","",,,,,,,S175480806,"",,,,,Ardea herodias,grbher3,Species,7658,,5.00,8,,5464,8192
618020018,Photo,Great Blue Heron,Ardea herodias,,James Tornetta,2024-04-21,2024,4,21,918,United States,US-PA-101,Pennsylvania,Philadelphia,John Heinz NWR--impoundment (Philadelphia Co.),39.8893501,-75.2601457,"",,Unspecified,"","",,,,,,,S169705616,"",,,,,Ardea herodias,grbher3,Species,7658,,5.00,8,,1768,2651
615780703,Photo,Great Blue Heron,Ardea herodias,,KMJ Bird,2024-03-07,2024,3,7,1230,United States,US-TX-157,Texas,Fort Bend,Cross Creek Ranch wetlands,29.6986869,-95.8764732,"",,Unspecified,"","",,,,,,,S164089997,"",,,,,Ardea herodias,grbher3,Species,7658,,5.00,8,,2901,4354
615742531,Photo,Great Blue Heron,Ardea herodias,,KMJ Bird,2024-03-06,2024,3,6,800,United States,US-TX-157,Texas,Fort Bend,Cross Creek Ranch wetlands,29.6986869,-95.8764732,"",,Unspecified,"","",,,,,,,S163963182,"",,,,,Ardea herodias,grbher3,Species,7658,,5.00,8,,2646,3705
509459471,Photo,Great Blue Heron,Ardea herodias,,Ken Pitts,2022-12-02,2022,12,2,1154,United States,US-WA-011,Washington,Clark,"Ridgefield NWR--River 'S' Unit",45.7990694,-122.7490082,Adult – 1,"Carrying Food; Foraging or Eating",Unspecified,"","",,,,,,,S123363581,"",,,,,Ardea herodias,grbher3,Species,7658,,5.00,8,"",1174,1761
463699701,Photo,Great Blue Heron,Ardea herodias,,Matt Zuro,2022-06-29,2022,6,29,2000,United States,US-IL-043,Illinois,DuPage,Fullersburg Woods Forest Preserve,41.8260667,-87.9323167,"",,Unspecified,"","",,,,,,,S114087019,"",,,,,Ardea herodias,grbher3,Species,7658,,5.00,8,,5619,8429
439531651,Photo,Great Blue Heron (Great Blue),Ardea herodias [herodias Group],,Frank Lin,2022-04-20,2022,4,20,1645,Canada,CA-BC-GV,British Columbia,Metro Vancouver,"Guildford Heights Park, Surrey",49.1897747,-122.7937496,Immature – 1,Foraging or Eating,Unspecified,"","",,,,,,,S107671846,"",,,,"Year-old immature fishing by the beaver dam, caught a goldfish from the lake.",Ardea herodias,grbher,Group,7659,,5.00,8,"",2456,3684
404800271,Photo,Great Blue Heron (Great Blue),Ardea herodias [herodias Group],,Ian Hearn,2021-12-30,2021,12,30,1125,United States,US-ID-001,Idaho,Ada,Barber Park,43.5674381,-116.1348224,Adult – 1,,Unspecified,"","",,,,,,,S99722183,"",,,,,Ardea herodias,grbher,Group,7659,,5.00,8,,3712,5568
404740301,Photo,Great Blue Heron,Ardea herodias,,Blair Dudeck,2022-01-09,2022,1,9,1038,Canada,CA-BC-CO,British Columbia,Central Okanagan,Kelowna--Sutherland Hills Park,49.8734200,-119.4327500,"",,Unspecified,"","",,,,,,,S100510495,"",,,,,Ardea herodias,grbher3,Species,7658,,5.00,8,,4700,7046
335675571,Photo,Great Blue Heron,Ardea herodias,,Connie Misket,2021-05-08,2021,5,8,747,United States,US-UT-011,Utah,Davis,Farmington Bay WMA,40.9551410,-111.9191396,"",Foraging or Eating,Unspecified,"","",,,,,,,S87565125,"",,,,,Ardea herodias,grbher3,Species,7658,,5.00,8,"",1669,1810
335534061,Photo,Great Blue Heron,Ardea herodias,,Alison Davies,2021-05-03,2021,5,3,1625,United States,US-CA-073,California,San Diego,Lindo Lake,32.8583295,-116.9170833,"",,Unspecified,"","",,,,,,,S87508847,"",,,Sometimes nature is hard to watch,,Ardea herodias,grbher3,Species,7658,,5.00,8,,2669,4087
375502321,Photo,Great Blue Heron,Ardea herodias,,Long-eared Owl,2021-08-21,2021,8,21,814,United States,US-CA-079,California,San Luis Obispo,Morro Rock,35.3693972,-120.8670566,"",,Unspecified,"","",,,,,,,S93532783,"",,,,,Ardea herodias,grbher3,Species,7658,,4.58,12,,,
73265621,Photo,Great Blue Heron,Ardea herodias,,R Dennis Ringer,2017-10-25,2017,10,25,800,United States,US-CA-083,California,Santa Barbara,Carpinteria Salt Marsh Reserve (restricted access),34.3996863,-119.5353699,"",,Unspecified,"","",,,,,,,S40162983,"",,,,,Ardea herodias,grbher3,Species,7658,,3.93,120,,2143,3000
192889911,Photo,Great Blue Heron,Ardea herodias,,Melissa James,2019-12-07,2019,12,7,700,United States,US-FL-103,Florida,Pinellas,Fort De Soto Park,27.6327266,-82.7181570,"",,Unspecified,"","",,,,,,,S62256421,"",,,,,Ardea herodias,grbher3,Species,7658,,4.29,24,,4000,6000
474691561,Photo,Great Blue Heron,Ardea herodias,,Elliott Bury,2022-08-12,2022,8,12,627,United States,US-OR-033,Oregon,Josephine,Lake Selmac,42.2617532,-123.5779095,"",,Unspecified,"","",,,,,,,S116804707,"",,,,,Ardea herodias,grbher3,Species,7658,,4.73,11,,1238,2048
531627821,Photo,Great Blue Heron,Ardea herodias,,Carlos Jenkins,2023-01-28,2023,1,28,925,El Salvador,SV-CH,Chalatenango,,Embalse Cerrón Grande--Sector El Paraiso,14.0729880,-89.0810022,"",,Unspecified,"","",,,,,,,S127344253,"",,,,,Ardea herodias,grbher3,Species,7658,,4.54,13,,3435,2645
412240111,Photo,Great Blue Heron,Ardea herodias,,Brad Imhoff,2022-02-01,2022,2,1,1609,United States,US-OH-089,Ohio,Licking,Swamp Rd. (view from roadside only),39.9501814,-82.5707484,"",,Unspecified,"","",,,,,,,S101860798,"",,,,Hunting in the middle of the grassy field.,Ardea herodias,grbher3,Species,7658,,4.50,16,,2050,3073
73262211,Photo,Great Blue Heron,Ardea herodias,,Merryl Edelstein,2017-10-27,2017,10,27,941,United States,US-CA-037,California,Los Angeles,Malibu Legacy Park,34.0355906,-118.6890578,Adult – 1,"",Unspecified,"","",,,,,,,S40162728,"",,,,,Ardea herodias,grbher3,Species,7658,,4.35,17,Habitat,2000,1500
338418811,Photo,Great Blue Heron,Ardea herodias,,Brad Imhoff,2021-05-13,2021,5,13,815,United States,US-OH-089,Ohio,Licking,Buckeye Lake (Licking Co.),39.9335322,-82.4561477,"",,Unspecified,"","",,,,,,,S87982815,"",,,,,Ardea herodias,grbher3,Species,7658,,4.57,14,,2487,3728
167555951,Photo,Great Blue Heron (Great Blue),Ardea herodias [herodias Group],,Daniel Irons,2019-07-07,2019,7,7,556,United States,US-MD-035,Maryland,"Queen Anne's",Kent Point Marina,38.8382982,-76.3732617,Adult,,Unspecified,"","",,,,,,,S58011850,"",,,,,Ardea herodias,grbher,Group,7659,,4.58,12,,2000,3000
23650501,Photo,Great Blue Heron,Ardea herodias,,Carole Rose,2016-01-24,2016,1,24,1007,United States,US-CA-053,California,Monterey,"Carmel River SB (beach, lagoon, and/or Cross Hill)",36.5361930,-121.9275892,"",,Unspecified,"","",,,,,,,S27101269,"",,,,,Ardea herodias,grbher3,Species,7658,,4.50,14,,1857,3453
362514631,Photo,Great Blue Heron,Ardea herodias,,Robert Bochenek,2021-08-19,2021,8,19,909,United States,US-MI-125,Michigan,Oakland,Robert H. Long Park,42.5271345,-83.4507015,"",,Unspecified,"","",,,,,,,S93443001,"",,,,,Ardea herodias,grbher3,Species,7658,,4.38,21,,1576,1813
191457361,Photo,Great Blue Heron,Ardea herodias,,Harold Ziolkowski,2019-12-04,2019,12,4,1450,United States,US-MT-031,Montana,Gallatin,Swamp Rd.,45.8415148,-111.2010685,"",,Unspecified,"","",,,,,,,S61987495,"",,,,,Ardea herodias,grbher3,Species,7658,,4.70,10,,2825,4238
480394611,Photo,Great Blue Heron (Great White),Ardea herodias occidentalis,,Robert Bochenek,2022-08-31,2022,8,31,1303,United States,US-MI-149,Michigan,St. Joseph,Klinger Lake,41.8006088,-85.5503345,"",,Unspecified,"","",,,,,,,S117861951,"",,,,Observed and photographed.,Ardea herodias,grwher,Group,7664,,4.47,17,,2817,2584
399553041,Photo,Great Blue Heron (Great Blue),Ardea herodias [herodias Group],,Nathan Tea,2021-12-27,2021,12,27,1033,United States,US-VA-059,Virginia,Fairfax,**HUNTLEY MEADOWS PARK,38.7576451,-77.0984124,"",,Unspecified,"","",,,,,,,S99518884,"",,,,,Ardea herodias,grbher,Group,7659,,4.64,11,,2774,4897
284804941,Photo,Great Blue Heron,Ardea herodias,,Megan Buers,2020-11-28,2020,11,28,857,Canada,CA-BC-NA,British Columbia,Nanaimo,Deep Bay,49.4669527,-124.7307014,"",,Unspecified,"","",,,,,,,S76834570,"",,,,,Ardea herodias,grbher3,Species,7658,,4.54,13,,3599,5122
320627611,Photo,Great Blue Heron,Ardea herodias,,Susan Szeszol,2021-03-28,2021,3,28,840,United States,US-IL-043,Illinois,DuPage,Bensenville Ditch,41.9430427,-87.9301588,"",,Unspecified,"","",,,,,,,S84268728,"",,,,,Ardea herodias,grbher3,Species,7658,,4.54,13,,2048,3072
325232431,Photo,Great Blue Heron,Ardea herodias,,Robert Bochenek,2021-04-10,2021,4,10,944,United States,US-MI-125,Michigan,Oakland,Robert H. Long Park,42.5271345,-83.4507015,"",,Unspecified,"","",,,,,,,S85220883,"",,,,,Ardea herodias,grbher3,Species,7658,,4.35,23,,827,1272
325232361,Photo,Great Blue Heron,Ardea herodias,,Robert Bochenek,2021-04-10,2021,4,10,944,United States,US-MI-125,Michigan,Oakland,Robert H. Long Park,42.5271345,-83.4507015,"",,Unspecified,"","",,,,,,,S85220883,"",,,,,Ardea herodias,grbher3,Species,7658,,4.35,23,,827,1272
77186331,Photo,Great Blue Heron,Ardea herodias,,Bill Williams,2017-11-30,2017,11,30,705,United States,US-VA-740,Virginia,Portsmouth,Craney Island Disposal Area (restricted access),36.9065000,-76.3700000,"",,Unspecified,"","",,,,,,,S40900664,"",,,,,Ardea herodias,grbher3,Species,7658,,4.00,55,,1000,1500
73251911,Photo,Great Blue Heron,Ardea herodias,,Maury Swoveland,2017-10-27,2017,10,27,837,United States,US-CA-059,California,Orange,Bolsa Chica Ecological Reserve,33.7026531,-118.0507350,Unknown,,Unspecified,"","",,,,,,,S40155723,"",,,,Various locations,Ardea herodias,grbher3,Species,7658,,4.21,24,,2916,2452
149284371,Photo,Great Blue Heron,Ardea herodias,,Ron Riley,2019-04-04,2019,4,4,1005,United States,US-ID-001,Idaho,Ada,Kathryn Albertson Park,43.6143210,-116.2247446,"",,Unspecified,"","",,,,,,,S54549270,"",,,,,Ardea herodias,grbher3,Species,7658,,4.40,15,,2548,3836
401919061,Photo,Great Blue Heron (Great Blue),Ardea herodias [herodias Group],,Ian Hearn,2021-12-30,2021,12,30,1125,United States,US-ID-001,Idaho,Ada,Barber Park,43.5674381,-116.1348224,Adult – 1,,Unspecified,"","",,,,,,,S99722183,"",,,,,Ardea herodias,grbher,Group,7659,,4.47,15,,5568,3712
478706961,Photo,Great Blue Heron (Great White),Ardea herodias occidentalis,,Karen Brown,2022-08-26,2022,8,26,1300,United States,US-MI-149,Michigan,St. Joseph,Klinger Lake,41.8006088,-85.5503345,Juvenile – 1,,Unspecified,"","",,,,,,,S117618197,"",,,,"Bird appeared to be the white morph, ""Great White Heron."" At first glance, I thought it was a Great Egret, but as I paddled near the dock where it was roosting and took a closer look, I could see it was a White Heron due to the thick bill and larger size than a Great Egret. See photos.",Ardea herodias,grwher,Group,7664,,4.50,14,,2805,3616
185827321,Photo,Great Blue Heron,Ardea herodias,,manuel grosselet,2019-11-03,2019,11,3,949,Mexico,MX-SIN-001,Sinaloa,Ahome,Topolobampo (pueblo),25.6105092,-109.0502930,"",,Unspecified,"","",,,,,,,S61160266,"",,,,,Ardea herodias,grbher3,Species,7658,,4.50,14,,780,1024
412240081,Photo,Great Blue Heron,Ardea herodias,,Brad Imhoff,2022-02-01,2022,2,1,1609,United States,US-OH-089,Ohio,Licking,Swamp Rd. (view from roadside only),39.9501814,-82.5707484,"",,Unspecified,"","",,,,,,,S101860798,"",,,,Hunting in the middle of the grassy field.,Ardea herodias,grbher3,Species,7658,,4.41,17,,1634,2450
610780195,Photo,Great Blue Heron,Ardea herodias,,Justin Lapierre,2023-11-04,2023,11,4,901,Canada,CA-QC-AT,Quebec,Arthabaska,Réservoir Beaudet,46.0718015,-71.9707489,"",,Unspecified,"","",,,,,,,S153733204,"",,,,,Ardea herodias,grbher3,Species,7658,,4.78,9,,1917,3408
609373096,Photo,Great Blue Heron,Ardea herodias,,Janice W,2023-09-28,2023,9,28,928,Canada,CA-AB-SI,Alberta,Calgary,Weed Lake--South Viewpoint (Glenmore Trail),50.9823166,-113.6547232,"",,Unspecified,"","",,,,,,,S150966163,"",,,,,Ardea herodias,grbher3,Species,7658,,4.78,9,,2328,3104
552685171,Photo,Great Blue Heron,Ardea herodias,,alex towers,2023-04-02,2023,4,2,1030,United States,US-WA-033,Washington,King,Union Bay Natural Area/Montlake Fill,47.6542400,-122.2913700,"",,Unspecified,"","",,,,,,,S132521699,"",,,,,Ardea herodias,grbher3,Species,7658,,4.78,9,,2685,3288
534977431,Photo,Great Blue Heron,Ardea herodias,,Jim Zenor,2023-02-13,2023,2,13,1330,United States,US-CA-037,California,Los Angeles,West San Gabriel River Parkway Nature Trail,33.8374021,-118.0950344,"",,Unspecified,"","",,,,,,,S128295582,"",,,,,Ardea herodias,grbher3,Species,7658,,4.78,9,,1322,2160
532768971,Photo,Great Blue Heron,Ardea herodias,,Donna Pomeroy,2023-02-07,2023,2,7,743,United States,US-CA-081,California,San Mateo,Pillar Point Harbor,37.5033407,-122.4819213,"",,Unspecified,"","",,,,,,,S127831888,"",,,,,Ardea herodias,grbher3,Species,7658,,4.78,9,,3456,5184
527523091,Photo,Great Blue Heron,Ardea herodias,,Paul Jones,2023-01-23,2023,1,23,1045,Canada,CA-ON-PE,Ontario,Prince Edward,West Lake--Wellington harbour,43.9519444,-77.3377778,"",,Unspecified,"","",,,,,,,S126817102,"",,,,,Ardea herodias,grbher3,Species,7658,,4.78,9,,2667,4000
485458121,Photo,Great Blue Heron,Ardea herodias,,Ryan Justice,2022-09-18,2022,9,18,728,United States,US-NC-135,North Carolina,Orange,Brumley Nature Preserve--North,36.0339100,-79.0419090,"",,Unspecified,"","",,,,,,,S118959987,"",,,,,Ardea herodias,grbher3,Species,7658,,4.78,9,,4417,5894
428698101,Photo,Great Blue Heron,Ardea herodias,,Darren Clark,2022-03-25,2022,3,25,1749,United States,US-ID-051,Idaho,Jefferson,Market Lake WMA--General,43.7808238,-112.1461630,"",,Unspecified,"","",,,,,,,S105580067,"",,,,,Ardea herodias,grbher3,Species,7658,,4.78,9,,2667,4000
359842831,Photo,Great Blue Heron (Great White),Ardea herodias occidentalis,,Sean Fitzgerald,2021-08-07,2021,8,7,1340,United States,US-FL-099,Florida,Palm Beach,Gladeview Rd.,26.6661316,-80.4927340,"",,Unspecified,"","",,,,,,,S92901065,"",,,,"With the congregation of hundreds of egrets and wood storks along the canal being excavated near the sod farm. Pale legs, larger beak, photos later",Ardea herodias,grwher,Group,7664,,4.78,9,,2631,4210
353301601,Photo,Great Blue Heron,Ardea herodias,,Lyall Bouchard,2021-07-09,2021,7,9,632,Canada,CA-ON-OT,Ontario,Ottawa,Britannia CA (general location),45.3711229,-75.7915535,"",Foraging or Eating,Unspecified,"","",,,,,,,S91495415,"",,,,,Ardea herodias,grbher3,Species,7658,,4.78,9,"",3677,5515
321650041,Photo,Great Blue Heron (Great Blue),Ardea herodias [herodias Group],,Bryan Calk,2021-02-12,2021,2,12,0,United States,US-TX-271,Texas,Kinney,Fort Clark Springs - Back Yard,29.2910232,-100.4246251,"",,Unspecified,"","",,,,,,,S84496907,"",,,,,Ardea herodias,grbher,Group,7659,,4.78,9,,2585,4596
273660661,Photo,Great Blue Heron,Ardea herodias,,Daniel Grossi,2020-10-21,2020,10,21,1706,United States,US-OH-093,Ohio,Lorain,Sandy Ridge Reservation,41.3944763,-82.0488911,Adult – 1,,Unspecified,"","",,,,,,,S75244702,"",,,,,Ardea herodias,grbher3,Species,7658,,4.78,9,,2160,3240
355833641,Photo,Great Blue Heron,Ardea herodias,,Steve Rappaport,2021-07-20,2021,7,20,1718,United States,US-NY-119,New York,Westchester,Yorktown Bike Path Wetlands,41.2690600,-73.7808800,"",,Unspecified,"","",,,,,,,S92070642,"",,,,,Ardea herodias,grbher3,Species,7658,,4.70,10,,3409,5113
77262901,Photo,Great Blue Heron,Ardea herodias,,David True,2017-12-04,2017,12,4,1100,United States,US-FL-021,Florida,Collier,Big Cypress National Preserve--H.P. Williams Wayside Park,25.8881812,-81.2620202,"",,Unspecified,"","",,,,,,,S40907033,"",,,,,Ardea herodias,grbher3,Species,7658,,4.15,27,,3456,3273
47565941,Photo,Great Blue Heron (Great Blue),Ardea herodias [herodias Group],,Harold Brewer,2017-02-05,2017,2,5,745,United States,US-FL-087,Florida,Monroe,Card & Barnes Sound Area,25.2645685,-80.3718567,Adult,,Unspecified,"","",,,,,,,S34169588,"",,,,,Ardea herodias,grbher,Group,7659,,4.35,17,,3474,3246
473048171,Photo,Great Blue Heron (Great Blue),Ardea herodias [herodias Group],,Long-eared Owl,2022-02-27,2022,2,27,931,United States,US-CA-083,California,Santa Barbara,Waller Park,34.9029675,-120.4392958,"",,Unspecified,"","",,,,,,,S103842437,"",,,,,Ardea herodias,grbher,Group,7659,,4.22,27,,929,1239
531915211,Photo,Great Blue Heron,Ardea herodias,,Mary Keleher,2023-02-05,2023,2,5,1138,United States,US-MA-001,Massachusetts,Barnstable,"Herring Pond, Eastham",41.8230296,-69.9879742,"",,Unspecified,"","",,,,,,,S127690756,"",,,,,Ardea herodias,grbher3,Species,7658,,4.38,16,,3648,5472
617250013,Photo,Great Blue Heron,Ardea herodias,,Beau Cotter,2024-04-09,2024,4,9,615,United States,US-OH-095,Ohio,Lucas,Magee Marsh--Boardwalk,41.6277095,-83.1918840,"",,Unspecified,"","",,,,,,,S167861929,"",,,,,Ardea herodias,grbher3,Species,7658,,4.47,15,,4181,3345
61340801,Photo,Great Blue Heron,Ardea herodias,,Gates Dupont,2015-04-01,2015,4,1,1730,United States,US-MA-017,Massachusetts,Middlesex,Great Meadows NWR--Concord Unit,42.4751409,-71.3295084,"",,Unspecified,"","",,,,,,,S22632415,"",,,,,Ardea herodias,grbher3,Species,7658,,4.47,15,,3648,5472
272150361,Photo,Great Blue Heron,Ardea herodias,,Ronan Nicholson,2020-10-17,2020,10,17,808,United States,US-NC-021,North Carolina,Buncombe,Lake Julian Park,35.4794464,-82.5380020,"",,Unspecified,"","",,,,,,,S74928551,"",,,,,Ardea herodias,grbher3,Species,7658,,4.43,14,,3337,5005
301112391,Photo,Great Blue Heron,Ardea herodias,,Micah Hale,2021-01-23,2021,1,23,1045,United States,US-TX-113,Texas,Dallas,Trammell Crow Park,32.7909291,-96.8345670,"",,Unspecified,"","",,,,,,,S79783645,"",,,,,Ardea herodias,grbher3,Species,7658,,4.38,16,,2771,4156
512751761,Photo,Great Blue Heron,Ardea herodias,,Ronan Pangie,2022-12-12,2022,12,12,1139,United States,US-GA-063,Georgia,Clayton,Clayton Co. Water Authority--E.L. Huie Ponds (limited access),33.4769269,-84.3368968,"",,Unspecified,"","",,,,,,,S123883823,"",,,,,Ardea herodias,grbher3,Species,7658,,4.78,9,,4000,3210
479485621,Photo,Great Blue Heron (Great Blue),Ardea herodias [herodias Group],,Kalin Ocaña,2022-08-27,2022,8,27,819,Canada,CA-BC-CO,British Columbia,Central Okanagan,Kelowna--Maude-Roxby Sanctuary,49.8705064,-119.4970085,Adult – 1,,Unspecified,"","",,,,,,,S117641857,"",,,,,Ardea herodias,grbher,Group,7659,,4.78,9,,3287,4363
480394001,Photo,Great Blue Heron (Great White),Ardea herodias occidentalis,,Robert Bochenek,2022-08-31,2022,8,31,1303,United States,US-MI-149,Michigan,St. Joseph,Klinger Lake,41.8006088,-85.5503345,"",,Unspecified,"","",,,,,,,S117861951,"",,,,Observed and photographed.,Ardea herodias,grwher,Group,7664,,4.50,14,,3341,4570
624173888,Photo,Great Blue Heron,Ardea herodias,,Lisa Genuit,2024-09-25,2024,9,25,738,United States,US-WA-067,Washington,Thurston,Billy Frank Jr. Nisqually NWR,47.0812514,-122.7180576,"",,Unspecified,"","",,,,,,,S196493568,"",,,,,Ardea herodias,grbher3,Species,7658,,4.88,8,,929,743
623188085,Photo,Great Blue Heron (Great Blue),Ardea herodias [herodias Group],,Will Sweet,2024-09-01,2024,9,1,616,United States,US-ME-031,Maine,York,Wells Reserve at Laudholm,43.3377737,-70.5497131,"",Foraging or Eating,Unspecified,"","",,,,,,,S193537291,"",,,,,Ardea herodias,grbher,Group,7659,,4.88,8,"",2809,4551
617821343,Photo,Great Blue Heron,Ardea herodias,,James Tornetta,2024-04-21,2024,4,21,918,United States,US-PA-101,Pennsylvania,Philadelphia,John Heinz NWR--impoundment (Philadelphia Co.),39.8893501,-75.2601457,"",,Unspecified,"","",,,,,,,S169705616,"",,,,,Ardea herodias,grbher3,Species,7658,,4.88,8,,2284,3425
614970931,Photo,Great Blue Heron,Ardea herodias,,Justin Joyce,2024-02-17,2024,2,17,1011,United States,US-DC-001,District of Columbia,District of Columbia,Kenilworth Park and Aquatic Gardens,38.9133204,-76.9443433,"",,Unspecified,"","",,,,,,,S161863647,"",,,,,Ardea herodias,grbher3,Species,7658,,4.88,8,,4640,6960
609843018,Photo,Great Blue Heron,Ardea herodias,,Barbara Wise,2023-10-11,2023,10,11,1004,United States,US-CA-073,California,San Diego,Chollas Reservoir,32.7370366,-117.0633017,"",,Unspecified,"","",,,,,,,S151985774,"",,,,,Ardea herodias,grbher3,Species,7658,,4.88,8,,2553,4172
600464381,Photo,Great Blue Heron,Ardea herodias,,Janet Hix,2023-08-04,2023,8,4,612,United States,US-TX-439,Texas,Tarrant,Colleyville Nature Ctr. (PPW-W 082),32.8763434,-97.1664548,"",,Unspecified,"","",,,,,,,S146416935,"",,,young bird hoping for a snake!,,Ardea herodias,grbher3,Species,7658,,4.88,8,,2309,3463
598192361,Photo,Great Blue Heron,Ardea herodias,,Nick  Park,2023-07-27,2023,7,27,817,Canada,CA-BC-GV,British Columbia,Metro Vancouver,Vancouver--Jericho Park,49.2715915,-123.1943769,"",,Unspecified,"","",,,,,,,S145764006,"",,,,,Ardea herodias,grbher3,Species,7658,,4.88,8,,2863,4771
572015951,Photo,Great Blue Heron,Ardea herodias,,Mary Keleher,2023-05-14,2023,5,14,646,United States,US-MA-001,Massachusetts,Barnstable,Santuit Pond,41.6552018,-70.4597425,"",,Unspecified,"","",,,,,,,S137720108,"",,,,,Ardea herodias,grbher3,Species,7658,,4.88,8,,3648,5472
558894491,Photo,Great Blue Heron,Ardea herodias,,Arthur Mercado,2023-04-16,2023,4,16,1024,United States,US-MN-053,Minnesota,Hennepin,Lake Harriet,44.9214200,-93.3041400,"",,Unspecified,"","",,,,,,,S134056590,"",,,,,Ardea herodias,grbher3,Species,7658,,4.88,8,,5324,3553
530629471,Photo,Great Blue Heron,Ardea herodias,,Oscar Wainwright,2022-12-21,2022,12,21,1217,United States,US-WA-033,Washington,King,Green Lake,47.6783945,-122.3382464,"",,Unspecified,"","",,,,,,,S124386057,"",,,,,Ardea herodias,grbher3,Species,7658,,4.88,8,,3761,5641
516498701,Photo,Great Blue Heron,Ardea herodias,,Michael W. Sack,2019-04-30,2019,4,30,1345,United States,US-CA-037,California,Los Angeles,Ken Malloy Harbor Regional Park,33.7874582,-118.2939363,"",,Unspecified,"","",,,,,,,S55607932,"",,,,,Ardea herodias,grbher3,Species,7658,,4.88,8,,2565,3543
512751751,Photo,Great Blue Heron,Ardea herodias,,Ronan Pangie,2022-12-12,2022,12,12,1139,United States,US-GA-063,Georgia,Clayton,Clayton Co. Water Authority--E.L. Huie Ponds (limited access),33.4769269,-84.3368968,"",,Unspecified,"","",,,,,,,S123883823,"",,,,,Ardea herodias,grbher3,Species,7658,,4.88,8,,3419,5069
510703951,Photo,Great Blue Heron,Ardea herodias,,Janet Hix,2022-12-06,2022,12,6,659,United States,US-TX-439,Texas,Tarrant,Colleyville Nature Ctr. (PPW-W 082),32.8763434,-97.1664548,"",,Unspecified,"","",,,,,,,S123556201,"",,,,,Ardea herodias,grbher3,Species,7658,,4.88,8,,2572,3887
476840811,Photo,Great Blue Heron,Ardea herodias,,Sandy Luk,2022-08-20,2022,8,20,649,Canada,CA-ON-TO,Ontario,Toronto,Tommy Thompson Park,43.6282673,-79.3291670,"",,Unspecified,"","",,,,,,,S117267264,"",,,,2 juvenile at embayment D.  2 by cell 1,Ardea herodias,grbher3,Species,7658,,4.88,8,,2703,4805
474621301,Photo,Great Blue Heron (Great Blue),Ardea herodias [herodias Group],,Braxton Landsman,2022-08-11,2022,8,11,1512,United States,US-CA-059,California,Orange,Doheny State Beach,33.4615743,-117.6806331,"",,Unspecified,"","",,,,,,,S116777298,"",,,,,Ardea herodias,grbher,Group,7659,,4.88,8,,3375,4968
450732461,Photo,Great Blue Heron,Ardea herodias,,Daniel Grossi,2022-05-18,2022,5,18,659,United States,US-OH-093,Ohio,Lorain,Sandy Ridge Reservation,41.3944763,-82.0488911,Adult – 1,,Unspecified,"","",,,,,,,S110566235,"",,,,,Ardea herodias,grbher3,Species,7658,,4.88,8,,2016,3024
424970471,Photo,Great Blue Heron,Ardea herodias,,Michael Fogleman,2022-03-13,2022,3,13,1210,United States,US-NC-183,North Carolina,Wake,Symphony Lake Greenway,35.7288151,-78.7957795,"",,Unspecified,"","",,,,,,,S104785333,"",,,,,Ardea herodias,grbher3,Species,7658,,4.88,8,,3829,5740
405215581,Photo,Great Blue Heron,Ardea herodias,,Ian Hearn,2021-12-30,2021,12,30,0,United States,US-ID-001,Idaho,Ada,Barber Park,43.5674381,-116.1348224,Adult – 1,Foraging or Eating,Unspecified,"","",,,,,,,S100636180,"",,,,,Ardea herodias,grbher3,Species,7658,,4.88,8,"",5568,3712
376582751,Photo,Great Blue Heron (Great Blue),Ardea herodias [herodias Group],,Sam Zhang,2021-10-09,2021,10,9,640,United States,US-MA-009,Massachusetts,Essex,Parker River NWR,42.7639008,-70.8022995,Immature – 1,,Unspecified,"","",,,,,,,S95908847,"",,,,,Ardea herodias,grbher,Group,7659,,4.88,8,,2151,3227
313032831,Photo,Great Blue Heron,Ardea herodias,,P & S Demir,2021-03-02,2021,3,2,1500,Canada,CA-ON-MI,Ontario,Middlesex,London--Greenway Park,42.9739935,-81.2862740,"",,Unspecified,"","",,,,,,,S82649139,"",,,,,Ardea herodias,grbher3,Species,7658,,4.88,8,,2000,3000
304141601,Photo,Great Blue Heron,Ardea herodias,,Matt Felperin,2021-01-30,2021,1,30,800,United States,US-VA-059,Virginia,Fairfax,**HUNTLEY MEADOWS PARK,38.7576451,-77.0984124,"",,Unspecified,"","",,,,,,,S80188083,"",,,,,Ardea herodias,grbher3,Species,7658,,4.88,8,,1366,2048
253874801,Photo,Great Blue Heron,Ardea herodias,,Brad Imhoff,2020-08-06,2020,8,6,802,United States,US-OH-089,Ohio,Licking,Buckeye Lake (Licking Co.),39.9335322,-82.4561477,"",,Unspecified,"","",,,,,,,S72157897,"",,,,,Ardea herodias,grbher3,Species,7658,,4.88,8,,3033,4549
200180081,Photo,Great Blue Heron,Ardea herodias,,Michael Pelc,2020-01-18,2020,1,18,1345,United States,US-MO-019,Missouri,Boone,Eagle Bluffs CA,38.8636000,-92.4504000,"",,Unspecified,"","",,,,,,,S63533314,"",,,,,Ardea herodias,grbher3,Species,7658,,4.88,8,,1280,1920
