ML Catalog Number,Format,Common Name,Scientific Name,Background Species,Recordist,Date,Year,Month,Day,Time,Country,Country-State-County,State,County,Locality,Latitude,Longitude,Age/Sex,Behaviors,Playback,Captive,Collected,Specimen ID,Home Archive Catalog Number,Recorder,Microphone,Accessory,Partner Institution,eBird Checklist ID,Unconfirmed,Air Temp(°C),Water Temp(°C),Media notes,Observation Details,Parent Species,eBird Species Code,Taxon Category,Taxonomic Sort,Recordist 2,Average Community Rating,Number of Ratings,Asset Tags,Original Image Height,Original Image Width
308764911,Photo,Hairy Woodpecker,Dryobates villosus,,Brad Imhoff,2021-02-17,2021,2,17,1207,United States,US-OH-089,Ohio,Licking,Pinetree Drive,40.0921976,-82.4813998,"",,Unspecified,"","",,,,,,,S81813821,"",,,,,Dryobates villosus,haiwoo,Species,11314,,4.93,107,,2545,3818
259476121,Photo,Hairy Woodpecker,Dryobates villosus,,Bryan Calk,2020-08-29,2020,8,29,852,United States,US-NM-001,New Mexico,Bernalillo,Cibola NF--Cienega Canyon Picnic Area,35.1675640,-106.3801861,Adult Female – 1,,Unspecified,"","",,,,,,,S72950881,"",,,,,Dryobates villosus,haiwoo,Species,11314,,4.84,85,,2477,3716
303463251,Photo,Hairy Woodpecker,Dryobates villosus,,Matthew Plante,2021-02-01,2021,2,1,1500,United States,US-OH-089,Ohio,Licking,Park Trails,40.0537932,-82.4896630,"",,Unspecified,"","",,,,,,,S80283739,"",,,,,Dryobates villosus,haiwoo,Species,11314,,5.00,34,,2601,3902
64945921,Photo,Hairy Woodpecker (Rocky Mts.),Dryobates villosus orius/icastus,,Matthew Pendleton,2017-08-01,2017,8,1,745,United States,US-UT-043,Utah,Summit,Mirror Lake Hwy--Bald Mountain,40.6971692,-110.9041030,Adult Male,,Unspecified,"","",,,,,,,S38431433,"",,,,,Dryobates villosus,haiwoo5,Group,11327,,4.89,45,,2515,3772
84744731,Photo,Hairy Woodpecker,Dryobates villosus,,bellemare celine,2018-02-03,2018,2,3,700,Canada,CA-QC-DD,Quebec,Le Domaine-du-Roy,"1260, route de Ste-Hedwidge",48.5012591,-72.3323657,Female,,Unspecified,"","",,,,,,,S42512011,"",,,,,Dryobates villosus,haiwoo,Species,11314,,4.85,48,,1200,1800
215176901,Photo,Hairy Woodpecker,Dryobates villosus,,Jack Parlapiano,2020-03-12,2020,3,12,1513,United States,US-NM-028,New Mexico,Los Alamos,Los Alamos Nature Center,35.8849724,-106.3062751,"",,Unspecified,"","",,,,,,,S65743801,"",,,,,Dryobates villosus,haiwoo,Species,11314,,4.80,59,,2738,4562
134465471,Photo,Hairy Woodpecker,Dryobates villosus,,Daniel Campeau,2019-01-11,2019,1,11,1020,Canada,CA-QC-CB,Quebec,La Côte-de-Beaupré,RNF du Cap-Tourmente,47.0780936,-70.7855538,"",,Unspecified,"","",,,,,,,S51562413,"",,,,,Dryobates villosus,haiwoo,Species,11314,,4.77,60,,2396,3195
181116921,Photo,Hairy Woodpecker (Rocky Mts.),Dryobates villosus orius/icastus,,Mason Maron,2019-10-06,2019,10,6,1431,United States,US-WA-047,Washington,Okanogan,Washington Pass (Okanogan Co.),48.5258316,-120.6474222,"",,Unspecified,"","",,,,,,,S60410559,"",,,,,Dryobates villosus,haiwoo5,Group,11327,,4.70,105,,2450,4216
415221061,Photo,Hairy Woodpecker,Dryobates villosus,,Chris McDonald,2022-02-11,2022,2,11,1541,Canada,CA-BC-FV,British Columbia,Fraser Valley,Chilliwack--Island 22 Park,49.1937924,-121.9794416,"",,Unspecified,"","",,,,,,,S102460214,"",,,,,Dryobates villosus,haiwoo,Species,11314,,4.74,53,,1365,2048
456014061,Photo,Hairy Woodpecker,Dryobates villosus,,Anne Inga,2022-06-02,2022,6,2,1619,United States,US-VT-007,Vermont,Chittenden,Ti-Haul Trail,44.3913893,-73.2407963,"",,Unspecified,"","",,,,,,,S111985308,"",,,,,Dryobates villosus,haiwoo,Species,11314,,4.78,37,,4406,5396
94429071,Photo,Hairy Woodpecker,Dryobates villosus,,Daniel Jauvin,2018-04-13,2018,4,13,1317,Canada,CA-QC-BM,Quebec,Brome-Missisquoi,George Montgomery Sanctuary,45.0272907,-73.0720129,Adult Female,,Unspecified,"","",,,,,,,S44528628,"",,,Pic chevelu,,Dryobates villosus,haiwoo,Species,11314,,4.71,48,,2770,4924
504352711,Photo,Hairy Woodpecker,Dryobates villosus,,Ben  Lucking,2022-11-14,2022,11,14,1446,Canada,CA-ON-TO,Ontario,Toronto,Toronto--Colonel Samuel Smith Park,43.5910609,-79.5112485,Adult Male – 1,,Unspecified,"","",,,,,,,S122432056,"",,,,,Dryobates villosus,haiwoo,Species,11314,,4.78,36,,2581,3872
274104151,Photo,Hairy Woodpecker,Dryobates villosus,,Pat Schiller,2020-10-23,2020,10,23,1231,Canada,CA-ON-MU,Ontario,Muskoka,"Schiller Yard North,   Huntsville, Ontario, CA",45.4133563,-79.2701206,Adult Male – 1,,Unspecified,"","",,,,,,,S75272279,"",,,Good size comparison. Downy on the left and Hairy on the right.,2F & 1M,Dryobates villosus,haiwoo,Species,11314,,4.59,64,,2014,2517
44610131,Photo,Hairy Woodpecker,Dryobates villosus,,Scott Martin,2017-01-06,2017,1,6,800,United States,US-MA-005,Massachusetts,Bristol,Scott Martins Home,41.7274395,-70.9725487,"",,Unspecified,"","",,,,,,,S33486650,"",,,,"Photos of Male, female came in later after camera was put away",Dryobates villosus,haiwoo,Species,11314,,4.70,37,,1469,2200
246601421,Photo,Hairy Woodpecker (Eastern),Dryobates villosus [villosus Group],,Evan Lipton,2019-04-23,2019,4,23,530,United States,US-MA-023,Massachusetts,Plymouth,Manomet Conservation Sciences,41.9210050,-70.5442548,Adult Female – 1,,Unspecified,"","",,,,,,,S55306527,"",,,,,Dryobates villosus,haiwoo2,Group,11315,,4.88,17,,2186,3278
589185201,Photo,Hairy Woodpecker,Dryobates villosus,,Aidan Brubaker,2023-06-03,2023,6,3,803,United States,US-CA-017,California,El Dorado,Ice House Rd. aspen grove,38.8079877,-120.3749492,"",,Unspecified,"","",,,,,,,S140393262,"",,,,,Dryobates villosus,haiwoo,Species,11314,,5.00,14,,2859,4207
614252255,Photo,Hairy Woodpecker,Dryobates villosus,,Quinn Diaz,2024-01-30,2024,1,30,841,United States,US-UT-035,Utah,Salt Lake,Little Cottonwood Canyon--Alta Town Office Feeders,40.5904976,-111.6372748,"",,Unspecified,"","",,,,,,,S160199858,"",,,,,Dryobates villosus,haiwoo,Species,11314,,4.93,15,,3714,3789
530503661,Photo,Hairy Woodpecker,Dryobates villosus,,Juan Miguel Artigas Azas,2023-02-01,2023,2,1,900,United States,US-MO-099,Missouri,Jefferson,"212 Golda Ln, Fenton US-MO 38.50031, -90.47755",38.5003090,-90.4775510,"",,Unspecified,"","",,,,,,,S127391042,"",,,,,Dryobates villosus,haiwoo,Species,11314,,4.93,15,,800,1200
172431541,Photo,Hairy Woodpecker,Dryobates villosus,,Kalin Ocaña,2019-08-09,2019,8,9,530,Canada,CA-AB-TE,Alberta,Camrose-Lloydminister,Beaverhill Bird Observatory,53.3805798,-112.5273264,Adult Male,,Unspecified,"","",,,,,,,S58921501,"",,,,,Dryobates villosus,haiwoo,Species,11314,,4.52,31,,,
373331511,Photo,Hairy Woodpecker (Pacific),Dryobates villosus [harrisi Group],,Connor Cochrane,2021-09-28,2021,9,28,955,United States,US-CA-041,California,Marin,Home,37.9752804,-122.5793660,"",,Unspecified,"","",,,,,,,S95305920,"",,,,,Dryobates villosus,haiwoo1,Group,11322,,4.80,15,,2784,1856
138025221,Photo,Hairy Woodpecker (Eastern),Dryobates villosus [villosus Group],,Daniel Irons,2015-03-13,2015,3,13,0,United States,US-MD-035,Maryland,"Queen Anne's",Big water farm (Private),38.8879430,-76.1964941,"",,Unspecified,"","",,,,,,,S52211926,"",,,,,Dryobates villosus,haiwoo2,Group,11315,,4.54,26,,1880,2820
615534145,Photo,Hairy Woodpecker,Dryobates villosus,,Ryan Sanderson,2024-02-29,2024,2,29,733,United States,US-IN-097,Indiana,Marion,Eagle Creek Park,39.8751000,-86.3037000,Adult Female – 1,,Unspecified,"","",,,,,,,S163265128,"",,,,,Dryobates villosus,haiwoo,Species,11314,,4.64,22,,2000,3000
166319401,Photo,Hairy Woodpecker (Rocky Mts.),Dryobates villosus orius/icastus,,Garrett Hughes,2019-06-28,2019,6,28,1140,United States,US-WA-047,Washington,Okanogan,Washington Pass (Okanogan Co.),48.5258316,-120.6474222,"",,Unspecified,"","",,,,,,,S57786683,"",,,,,Dryobates villosus,haiwoo5,Group,11327,,4.71,17,,4000,6000
615534144,Photo,Hairy Woodpecker,Dryobates villosus,,Ryan Sanderson,2024-02-29,2024,2,29,733,United States,US-IN-097,Indiana,Marion,Eagle Creek Park,39.8751000,-86.3037000,Adult Female – 1,,Unspecified,"","",,,,,,,S163265128,"",,,,,Dryobates villosus,haiwoo,Species,11314,,4.68,19,,2400,3000
308058601,Photo,Hairy Woodpecker,Dryobates villosus,,Zane Shantz,2021-02-12,2021,2,12,932,Canada,CA-ON-BC,Ontario,Bruce,Bruce Peninsula--Lindsay Road 30 Fields,45.1011704,-81.4441863,"",,Unspecified,"","",,,,,,,S80894022,"",,,,,Dryobates villosus,haiwoo,Species,11314,,5.00,11,,3056,4575
330082031,Photo,Hairy Woodpecker (Eastern),Dryobates villosus [villosus Group],,Sam Zhang,2021-04-24,2021,4,24,627,United States,US-MA-009,Massachusetts,Essex,Cherry Hill Reservoir,42.7811653,-70.9525394,Adult Male – 1,Foraging or Eating,Unspecified,"","",,,,,,,S86328045,"",,,,,Dryobates villosus,haiwoo2,Group,11315,,4.92,12,"",1458,2187
47350981,Photo,Hairy Woodpecker,Dryobates villosus,,bellemare celine,2017-02-03,2017,2,3,900,Canada,CA-QC-DD,Quebec,Le Domaine-du-Roy,"1260, route de Ste-Hedwidge",48.5012591,-72.3323657,"",,Unspecified,"","",,,,,,,S34139366,"",,,,,Dryobates villosus,haiwoo,Species,11314,,4.92,12,,1800,1200
348006471,Photo,Hairy Woodpecker,Dryobates villosus,,Frank Lin,2021-06-14,2021,6,14,1730,Canada,CA-BC-GV,British Columbia,Metro Vancouver,Surrey Bend Regional Park,49.1998218,-122.7340651,Adult Female – 1,,Unspecified,"","",,,,,,,S90210344,"",,,,"Female feeding on east side south of metal bridge, possibly a possibly a second one near parking lot",Dryobates villosus,haiwoo,Species,11314,,4.73,15,,2480,1653
538354541,Photo,Hairy Woodpecker,Dryobates villosus,,Beau Cotter,2023-02-22,2023,2,22,1109,United States,US-MI-073,Michigan,Isabella,Bird Feeder Mania,43.6465925,-84.7966264,"",,Unspecified,"","",,,,,,,S129376061,"",,,,,Dryobates villosus,haiwoo,Species,11314,,4.79,14,,3484,5226
306715711,Photo,Hairy Woodpecker (Eastern),Dryobates villosus [villosus Group],,Brad Imhoff,2021-02-12,2021,2,12,1227,United States,US-OH-089,Ohio,Licking,Pinetree Drive,40.0921976,-82.4813998,"",,Unspecified,"","",,,,,,,S80950406,"",,,,,Dryobates villosus,haiwoo2,Group,11315,,4.71,14,,2255,3383
628949197,Photo,Hairy Woodpecker (Eastern),Dryobates villosus [villosus Group],,Jacob McLaren,2025-01-07,2025,1,7,830,Canada,CA-ON-NU,Ontario,Northumberland,Northumberland Forest between McDonald Trailhead & Woodland Rd,44.1051940,-78.0738587,Adult Male – 1,,Unspecified,"","",,,,,,,S208772931,"",,,,,Dryobates villosus,haiwoo2,Group,11315,,4.83,12,,3718,5593
259475851,Photo,Hairy Woodpecker,Dryobates villosus,,Bryan Calk,2020-08-29,2020,8,29,852,United States,US-NM-001,New Mexico,Bernalillo,Cibola NF--Cienega Canyon Picnic Area,35.1675640,-106.3801861,Adult Female – 1,,Unspecified,"","",,,,,,,S72950881,"",,,,,Dryobates villosus,haiwoo,Species,11314,,4.83,12,,1839,2942
616805511,Photo,Hairy Woodpecker,Dryobates villosus,,Zak Pohlen,2020-05-19,2020,5,19,951,United States,US-AK-020,Alaska,Anchorage Municipality,Campbell Creek Park--2019 Elmore burn,61.1738038,-149.8134793,"",,Unspecified,"","",,,,,,,S69541872,"",,,,,Dryobates villosus,haiwoo,Species,11314,,4.91,11,,3098,5164
627165204,Photo,Hairy Woodpecker,Dryobates villosus,,Shori Velles,2024-12-05,2024,12,5,745,United States,US-CT-011,Connecticut,New London,Backyard,41.6056150,-72.1507420,"",,Unspecified,"","",,,,,,,S204596447,"",,,,,Dryobates villosus,haiwoo,Species,11314,,5.00,10,,3075,4613
615830815,Photo,Hairy Woodpecker,Dryobates villosus,,Alva  Steury,2024-03-09,2024,3,9,1205,United States,US-IN-033,Indiana,DeKalb,~Private Hotspot~,41.3050006,-84.9778769,"",,Unspecified,"","",,,,,,,S164214666,"",,,,,Dryobates villosus,haiwoo,Species,11314,,5.00,10,,4035,5222
247285151,Photo,Hairy Woodpecker,Dryobates villosus,,mark daly,2020-04-26,2020,4,26,800,Canada,CA-BC-GV,British Columbia,Metro Vancouver,Capilano Canyon,49.3426222,-123.1167427,Adult Male – 1,"Flying; Vocalizing",Unspecified,"","",,,,,,,S71098987,"",,,https://natureasart.photoshelter.com,,Dryobates villosus,haiwoo,Species,11314,,5.00,10,"",3076,3400
330676921,Photo,Hairy Woodpecker,Dryobates villosus,,Brian Hicks,2021-04-26,2021,4,26,1017,United States,US-MI-125,Michigan,Oakland,Red Oaks Nature Center (Friendship Woods),42.5152589,-83.0938911,Adult Female – 1,,Unspecified,"","",,,,,,,S86420931,"",,,,,Dryobates villosus,haiwoo,Species,11314,,4.61,18,,2279,2849
304865931,Photo,Hairy Woodpecker,Dryobates villosus,,Aarre Ertolahti,2021-02-06,2021,2,6,0,Canada,CA-ON-TB,Ontario,Thunder Bay,667 Grann Drive,48.6137987,-88.6244946,"",,Unspecified,"","",,,,,,,S80545726,"",,,,,Dryobates villosus,haiwoo,Species,11314,,4.77,13,,3231,3925
44610141,Photo,Hairy Woodpecker,Dryobates villosus,,Scott Martin,2017-01-06,2017,1,6,800,United States,US-MA-005,Massachusetts,Bristol,Scott Martins Home,41.7274395,-70.9725487,"",,Unspecified,"","",,,,,,,S33486650,"",,,,"Photos of Male, female came in later after camera was put away",Dryobates villosus,haiwoo,Species,11314,,4.75,12,,1469,2200
349101201,Photo,Hairy Woodpecker (Costa Rican),Dryobates villosus extimus,,Ezra Staengl,2021-06-17,2021,6,17,1428,Costa Rica,CR-SJ,San José,,"Savegre Valley--Miriam's Restaurant",9.5879212,-83.7993672,"",,Unspecified,"","",,,,,,,S90340826,"",,,,,Dryobates villosus,haiwoo3,Group,11333,,4.82,11,,3648,5472
461871791,Photo,Hairy Woodpecker,Dryobates villosus,,Brad Imhoff,2022-06-05,2022,6,5,1200,United States,US-OR-051,Oregon,Multnomah,Bird Alliance of Oregon Sanctuary (formerly Portland Audubon),45.5277023,-122.7291892,"",,Unspecified,"","",,,,,,,S112243520,"",,,,,Dryobates villosus,haiwoo,Species,11314,,4.69,13,,3260,4887
292629041,Photo,Hairy Woodpecker,Dryobates villosus,,Kyle Tansley,2020-12-30,2020,12,30,1000,United States,US-VT-007,Vermont,Chittenden,"519 Ethan Allen Parkway, Burlington, Vermont, US (44.519, -73.239)",44.5192283,-73.2390997,Adult Male – 1,,Unspecified,"","",,,,,,,S78291354,"",,,,,Dryobates villosus,haiwoo,Species,11314,,4.90,10,,5000,4000
157806681,Photo,Hairy Woodpecker,Dryobates villosus,,Stefano Ianiro,2019-05-11,2019,5,11,1530,Canada,CA-NS-HL,Nova Scotia,Halifax,Sir Sandford Fleming Park--General,44.6281174,-63.5987277,"",,Unspecified,"","",,,,,,,S56138686,"",,,,,Dryobates villosus,haiwoo,Species,11314,,4.90,10,,4000,6000
77690651,Photo,Hairy Woodpecker (Rocky Mts.),Dryobates villosus orius/icastus,,Dave Hawksworth,2017-12-09,2017,12,9,807,United States,US-NM-049,New Mexico,Santa Fe,Randall Davey Audubon Center,35.6901148,-105.8881831,Adult Male,"",Unspecified,"","",,,,,,,S40998815,"",,,,,Dryobates villosus,haiwoo5,Group,11327,,4.07,83,Habitat,3456,4608
396602351,Photo,Hairy Woodpecker,Dryobates villosus,,Sean HH,2021-12-17,2021,12,17,1050,Canada,CA-ON-TO,Ontario,Toronto,"Toronto--St. John's Norway Cemetery & Crematorium",43.6731797,-79.3090153,"",,Unspecified,"","",,,,,,,S98993568,"",,,,,Dryobates villosus,haiwoo,Species,11314,,4.75,12,,3456,4608
200118831,Photo,Hairy Woodpecker,Dryobates villosus,,Patrice St-Pierre,2020-01-18,2020,1,18,1019,Canada,CA-QC-RM,Quebec,Rimouski-Neigette,"Boisé de l'Éurêka",48.5095525,-68.4505688,"",,Unspecified,"","",,,,,,,S63523555,"",,,,,Dryobates villosus,haiwoo,Species,11314,,4.42,19,,2000,1706
545253961,Photo,Hairy Woodpecker,Dryobates villosus,,Anne Spiers,2023-03-13,2023,3,13,1430,Canada,CA-BC-FF,British Columbia,Fraser-Fort George,Prince George - 8877 North Nechako Rd,53.9794270,-122.8782689,"",,Unspecified,"","",,,,,,,S130875288,"",,,,,Dryobates villosus,haiwoo,Species,11314,,5.00,9,,1630,2445
435099021,Photo,Hairy Woodpecker (Eastern),Dryobates villosus [villosus Group],,Alicia Ambers,2022-04-13,2022,4,13,712,United States,US-VA-059,Virginia,Fairfax,Great Falls Park,38.9937000,-77.2553000,Adult Female – 1,"",Unspecified,"","",,,,,,,S106960839,"",,,,,Dryobates villosus,haiwoo2,Group,11315,,5.00,9,Habitat,1276,1914
303462071,Photo,Hairy Woodpecker,Dryobates villosus,,Matthew Plante,2021-02-01,2021,2,1,1500,United States,US-OH-089,Ohio,Licking,Park Trails,40.0537932,-82.4896630,"",,Unspecified,"","",,,,,,,S80283739,"",,,,,Dryobates villosus,haiwoo,Species,11314,,5.00,9,,2535,3803
558380041,Photo,Hairy Woodpecker,Dryobates villosus,,Nick Swan,2023-04-15,2023,4,15,910,Canada,CA-BC-CO,British Columbia,Central Okanagan,Peachland Brenda Mines Rd,49.8389420,-119.9316742,"",,Unspecified,"","",,,,,,,S133919318,"",,,,,Dryobates villosus,haiwoo,Species,11314,,4.82,11,,3456,4608
46540891,Photo,Hairy Woodpecker,Dryobates villosus,,Robert Bochenek,2017-01-21,2017,1,21,1449,United States,US-MI-033,Michigan,Chippewa,Dunbar Forest,46.3199038,-84.2263842,"",,Unspecified,"","",,,,,,,S33827242,"",,,,,Dryobates villosus,haiwoo,Species,11314,,4.38,26,,3418,2279
349101271,Photo,Hairy Woodpecker (Costa Rican),Dryobates villosus extimus,,Ezra Staengl,2021-06-17,2021,6,17,1428,Costa Rica,CR-SJ,San José,,"Savegre Valley--Miriam's Restaurant",9.5879212,-83.7993672,"",,Unspecified,"","",,,,,,,S90340826,"",,,,,Dryobates villosus,haiwoo3,Group,11333,,4.73,11,,3648,5472
46588941,Photo,Hairy Woodpecker,Dryobates villosus,,Simon Boivin,2017-01-26,2017,1,26,1015,Canada,CA-QC-SAG,Quebec,Saguenay,Sentiers du Saguenay--Secteur Club de golf,48.4453982,-71.1746693,Adult Male,,Unspecified,"","",,,,,,,S33945521,"",,,,,Dryobates villosus,haiwoo,Species,11314,,4.57,14,,3453,4448
458618061,Photo,Hairy Woodpecker,Dryobates villosus,,Nick Saunders,2022-06-11,2022,6,11,1230,Canada,CA-SK-EL,Saskatchewan,Saskatoon,Saskatoon--Queen Elizabeth Power Station,52.0951202,-106.7018420,"",,Unspecified,"","",,,,,,,S112705651,"",,,,,Dryobates villosus,haiwoo,Species,11314,,4.80,10,,990,789
404544471,Photo,Hairy Woodpecker,Dryobates villosus,,Geoffrey Newell,2022-01-10,2022,1,10,930,Canada,CA-BC-CP,British Columbia,Capital,Victoria--Blenkinsop Lake,48.4834473,-123.3605003,"",,Unspecified,"","",,,,,,,S100519091,"",,,,,Dryobates villosus,haiwoo,Species,11314,,4.80,10,,2539,3808
184572661,Photo,Hairy Woodpecker,Dryobates villosus,,Kris Horton,2019-10-27,2019,10,27,815,United States,US-MI-137,Michigan,Otsego,6275 Theisen Road,45.0865528,-84.8017186,"",,Unspecified,"","",,,,,,,S60980096,"",,,,,Dryobates villosus,haiwoo,Species,11314,,4.80,10,,1466,2341
221323351,Photo,Hairy Woodpecker,Dryobates villosus,,Karen Markey,2020-04-06,2020,4,6,906,United States,US-MI-161,Michigan,Washtenaw,Independence Lake County Park,42.4059513,-83.7960634,"",,Unspecified,"","",,,,,,,S66722874,"",,,,,Dryobates villosus,haiwoo,Species,11314,,4.73,11,,1792,2672
303462151,Photo,Hairy Woodpecker,Dryobates villosus,,Matthew Plante,2021-02-01,2021,2,1,1500,United States,US-OH-089,Ohio,Licking,Park Trails,40.0537932,-82.4896630,"",,Unspecified,"","",,,,,,,S80283739,"",,,,,Dryobates villosus,haiwoo,Species,11314,,4.89,9,,2993,4490
198818071,Photo,Hairy Woodpecker,Dryobates villosus,,Darren Clark,2020-01-11,2020,1,11,1214,United States,US-ID-051,Idaho,Jefferson,Camas NWR,43.9509896,-112.2557731,"",,Unspecified,"","",,,,,,,S63279741,"",,,,,Dryobates villosus,haiwoo,Species,11314,,4.89,9,,2680,3573
501459171,Photo,Hairy Woodpecker (Eastern),Dryobates villosus [villosus Group],,Roberto Jovel,2022-11-06,2022,11,6,655,Canada,CA-ON-TO,Ontario,Toronto,Toronto--Taylor Creek Park,43.7012320,-79.3161596,"",,Unspecified,"","",,,,,,,S122011561,"",,,,,Dryobates villosus,haiwoo2,Group,11315,,4.89,9,,3339,2226
505210271,Photo,Hairy Woodpecker,Dryobates villosus,,John Liber,2022-11-19,2022,11,19,823,United States,US-WI-025,Wisconsin,Dane,Governor Nelson SP,43.1362275,-89.4366260,"",,Unspecified,"","",,,,,,,S122673367,"",,,,,Dryobates villosus,haiwoo,Species,11314,,4.50,14,,2540,3810
619097735,Photo,Hairy Woodpecker,Dryobates villosus,,James Tornetta,2024-05-12,2024,5,12,1753,United States,US-PA-091,Pennsylvania,Montgomery,Diarffordd Farm,40.0441760,-75.2773920,"",,Unspecified,"","",,,,,,,S174126393,"",,,,Carrying a caterpillar to the feeder then adding suet as well before flying to forest,Dryobates villosus,haiwoo,Species,11314,,5.00,8,,2378,3566
61006531,Photo,Hairy Woodpecker,Dryobates villosus,,Donna Pomeroy,2017-06-09,2017,6,9,1000,United States,US-AK-170,Alaska,Matanuska-Susitna Borough,"Parks Hwy, Mile marker 99",61.8664789,-150.0870266,"",,Unspecified,"","",,,,,,,S37572926,"",,,,,Dryobates villosus,haiwoo,Species,11314,,4.03,59,,3648,5472
394617751,Photo,Hairy Woodpecker,Dryobates villosus,,Bryan Calk,2021-10-01,2021,10,1,1300,United States,US-WY-029,Wyoming,Park,Yellowstone NP--LeHardy Rapids,44.6073502,-110.3845739,"",,Unspecified,"","",,,,,,,S98670212,"",,,,,Dryobates villosus,haiwoo,Species,11314,,4.58,12,,2797,4196
528698901,Photo,Hairy Woodpecker,Dryobates villosus,,Erica Heusser,2023-01-27,2023,1,27,745,United States,US-NJ-005,New Jersey,Burlington,Palmyra Cove Nature Park,40.0024450,-75.0454560,"",,Unspecified,"","",,,,,,,S127026852,"",,,,,Dryobates villosus,haiwoo,Species,11314,,4.70,10,,2397,3135
294274241,Photo,Hairy Woodpecker,Dryobates villosus,,Matt Saunders,2021-01-03,2021,1,3,1021,United States,US-WI-139,Wisconsin,Winnebago,Heckrodt Wetland Reserve (Winnebago Co.),44.2090923,-88.4192800,Adult Male – 1,"",Unspecified,"","",,,,,,,S78607110,"",,,,,Dryobates villosus,haiwoo,Species,11314,,4.70,10,Habitat,2590,3885
69524281,Photo,Hairy Woodpecker,Dryobates villosus,,Tanner Martin,2016-06-05,2016,6,5,1300,United States,US-MI-021,Michigan,Berrien,Fernwood Botanical Gardens,41.8662052,-86.3476253,"",,Unspecified,"","",,,,,,,S31866755,"",,,,,Dryobates villosus,haiwoo,Species,11314,,4.44,16,,5200,3467
615605707,Photo,Hairy Woodpecker,Dryobates villosus,,Patrice St-Pierre,2024-03-03,2024,3,3,927,Canada,CA-QC-RM,Quebec,Rimouski-Neigette,"Boisé de l'Éurêka",48.5095525,-68.4505688,Adult Male – 1,,Unspecified,"","",,,,,,,S163580981,"",,,,,Dryobates villosus,haiwoo,Species,11314,,4.78,9,,3481,3080
385534871,Photo,Hairy Woodpecker,Dryobates villosus,,Matt Saunders,2021-09-06,2021,9,6,649,United States,US-WI-139,Wisconsin,Winnebago,Heckrodt Wetland Reserve (Winnebago Co.),44.2090923,-88.4192800,Adult Female – 1,"",Unspecified,"","",,,,,,,S94271170,"",,,,,Dryobates villosus,haiwoo,Species,11314,,4.78,9,Habitat,2634,3951
146156491,Photo,Hairy Woodpecker,Dryobates villosus,,Steve Wickliffe,2019-03-18,2019,3,18,1154,United States,US-MT-023,Montana,Deer Lodge,"Southern Cross Road to St. Timothy's",46.2016291,-113.2479340,"",,Unspecified,"","",,,,,,,S53987644,"",,,,,Dryobates villosus,haiwoo,Species,11314,,4.78,9,,3122,4293
116185261,Photo,Hairy Woodpecker,Dryobates villosus,,Patricia Clark,2018-09-24,2018,9,24,745,United States,US-CA-057,California,Nevada,Streeter Rd (NEV Co),39.0345950,-121.0982238,Male,,Unspecified,"","",,,,,,,S48729691,"",,,,,Dryobates villosus,haiwoo,Species,11314,,4.78,9,,3000,2000
498874661,Photo,Hairy Woodpecker,Dryobates villosus,,Simon Villeneuve,2022-10-29,2022,10,29,835,Canada,CA-QC-CB,Quebec,La Côte-de-Beaupré,RNF du Cap-Tourmente,47.0780936,-70.7855538,Adult Female – 1,,Unspecified,"","",,,,,,,S121506201,"",,,,,Dryobates villosus,haiwoo,Species,11314,,4.70,10,,3313,2560
87444091,Photo,Hairy Woodpecker,Dryobates villosus,,Alain Sylvain,2018-02-25,2018,2,25,830,Canada,CA-QC-MW,Quebec,Matawinie,"Saint-Michel-des-Saints, Lac du Trèfle - chalet",46.6091339,-73.9142990,"","",Unspecified,"","",,,,,,,S43182414,"",,,,,Dryobates villosus,haiwoo,Species,11314,,3.83,180,Habitat,2056,1361
309594501,Photo,Hairy Woodpecker,Dryobates villosus,,Alison Davies,2021-02-19,2021,2,19,1335,United States,US-CA-073,California,San Diego,Cleveland NF--Pioneer Mail Trailhead,32.9248069,-116.4820719,"",,Unspecified,"","",,,,,,,S81974931,"",,,,,Dryobates villosus,haiwoo,Species,11314,,4.78,9,,1876,2387
105375511,Photo,Hairy Woodpecker,Dryobates villosus,,Janine Schutt,2018-06-22,2018,6,22,1330,United States,US-WA-045,Washington,Mason,Olympic NP--Staircase,47.5153400,-123.3294400,Immature Male,,Unspecified,"","",,,,,,,S46731680,"",,,Stretching its wings.,,Dryobates villosus,haiwoo,Species,11314,,4.78,9,,1863,2760
619097750,Photo,Hairy Woodpecker,Dryobates villosus,,James Tornetta,2024-05-12,2024,5,12,1753,United States,US-PA-091,Pennsylvania,Montgomery,Diarffordd Farm,40.0441760,-75.2773920,"",,Unspecified,"","",,,,,,,S174126393,"",,,,Carrying a caterpillar to the feeder then adding suet as well before flying to forest,Dryobates villosus,haiwoo,Species,11314,,5.00,7,,2796,3248
619020528,Photo,Hairy Woodpecker,Dryobates villosus,,James Tornetta,2024-05-12,2024,5,12,1753,United States,US-PA-091,Pennsylvania,Montgomery,Diarffordd Farm,40.0441760,-75.2773920,"",,Unspecified,"","",,,,,,,S174126393,"",,,,Carrying a caterpillar to the feeder then adding suet as well before flying to forest,Dryobates villosus,haiwoo,Species,11314,,5.00,7,,1942,2912
611614772,Photo,Hairy Woodpecker,Dryobates villosus,,Quinn Diaz,2023-11-25,2023,11,25,1332,United States,US-UT-057,Utah,Weber,Powder Ridge Village & Feeder,41.3698041,-111.7686152,"",,Unspecified,"","",,,,,,,S155218982,"",,,,,Dryobates villosus,haiwoo,Species,11314,,5.00,7,,4331,6496
569559421,Photo,Hairy Woodpecker,Dryobates villosus,,Sharif Uddin,2023-04-30,2023,4,30,1730,United States,US-CA-071,California,San Bernardino,Jenks Lake Rd.,34.1622798,-116.8762493,Adult Male – 1,,Unspecified,"","",,,,,,,S136829678,"",,,,,Dryobates villosus,haiwoo,Species,11314,,5.00,7,,3579,2386
558361201,Photo,Hairy Woodpecker,Dryobates villosus,,Brad Vissia,2023-04-15,2023,4,15,910,Canada,CA-BC-CO,British Columbia,Central Okanagan,Peachland Brenda Mines Rd,49.8389420,-119.9316742,"",,Unspecified,"","",,,,,,,S133907501,"",,,,,Dryobates villosus,haiwoo,Species,11314,,5.00,7,,3836,2882
503688071,Photo,Hairy Woodpecker,Dryobates villosus,,"Christine Pelletier et (Claude St-Pierre , photos)",2022-11-14,2022,11,14,800,Canada,CA-QC-CP,Quebec,Longueuil,PN du Mt-St-Bruno,45.5497610,-73.3168573,"",,Unspecified,"","",,,,,,,S122423309,"",,,,,Dryobates villosus,haiwoo,Species,11314,,5.00,7,,3553,3553
199798341,Photo,Hairy Woodpecker,Dryobates villosus,,Bradley Hacker 🦜,2019-12-07,2019,12,7,914,Panama,PA-4,Chiriquí,,Cerro Punta* general area (pls. use more precise loc.),8.8522240,-82.5736380,"",,Unspecified,"","",,,,,,,S62123707,"",,,,,Dryobates villosus,haiwoo,Species,11314,,5.00,7,,3648,5472
58736731,Photo,Hairy Woodpecker,Dryobates villosus,,James Kinderman,2017-05-20,2017,5,20,1230,United States,US-WI-139,Wisconsin,Winnebago,Home feeders,43.9474560,-88.8508826,"",,Unspecified,"","",,,,,,,S37017063,"",,,,,Dryobates villosus,haiwoo,Species,11314,,4.60,10,,4089,2813
524381641,Photo,Hairy Woodpecker,Dryobates villosus,,Kieran Barlow,2022-12-29,2022,12,29,1200,United States,US-MN-137,Minnesota,St. Louis,Sax-Zim Bog,47.2212004,-92.7009201,"",,Unspecified,"","",,,,,,,S126162766,"",,,,,Dryobates villosus,haiwoo,Species,11314,,4.60,10,,1365,2048
153847501,Photo,Hairy Woodpecker,Dryobates villosus,,Nick  Lund,2019-04-25,2019,4,25,1151,United States,US-ME-019,Maine,Penobscot,Fields Pond Audubon Center,44.7386861,-68.7275076,Female,,Unspecified,"","",,,,,,,S55392244,"",,,,,Dryobates villosus,haiwoo,Species,11314,,4.67,9,,,
52404531,Photo,Hairy Woodpecker,Dryobates villosus,,Alain Sylvain,2017-03-25,2017,3,25,900,Canada,CA-QC-MW,Quebec,Matawinie,"Saint-Michel-des-Saints, Lac du Trèfle - chalet",46.6091339,-73.9142990,"","",Unspecified,"","",,,,,,,S35445086,"",,,,,Dryobates villosus,haiwoo,Species,11314,,3.86,78,Habitat,2749,1993
88999031,Photo,Hairy Woodpecker,Dryobates villosus,,gord smith,2018-03-05,2018,3,5,844,Canada,CA-BC-CX,British Columbia,Comox-Strathcona,Courtenay--Millard Nature Park,49.6656835,-124.9772286,"",,Unspecified,"","",,,,,,,S43403824,"",,,,,Dryobates villosus,haiwoo,Species,11314,,4.24,17,,3333,5000
137642791,Photo,Hairy Woodpecker,Dryobates villosus,,Bryan Calk,2019-01-17,2019,1,17,836,United States,US-MN-137,Minnesota,St. Louis,Sax-Zim Bog--Friends of Sax-Zim Bog Visitor Center,47.1458992,-92.7267366,Adult Female,,Unspecified,"","",,,,,,,S51760053,"",,,,,Dryobates villosus,haiwoo,Species,11314,,4.27,15,,2361,3542
287774621,Photo,Hairy Woodpecker,Dryobates villosus,,Susan and Andy Gower/Karassowitsch,2020-12-13,2020,12,13,1205,Canada,CA-BC-CR,British Columbia,Cariboo,Sulphurous Lake,51.6342874,-120.8397388,"",,Unspecified,"","",,,,,,,S77446715,"",,,,,Dryobates villosus,haiwoo,Species,11314,,4.67,9,,2000,2992
278822041,Photo,Hairy Woodpecker,Dryobates villosus,,Andrew Thomas 🦅🪶,2020-11-09,2020,11,9,800,United States,US-WA-063,Washington,Spokane,"Pine Bluff, Chattaroy",47.8648362,-117.3219439,"",,Unspecified,"","",,,,,,,S76067181,"",,,,,Dryobates villosus,haiwoo,Species,11314,,4.67,9,,3168,4752
396935561,Photo,Hairy Woodpecker,Dryobates villosus,,James Kinderman,2021-12-18,2021,12,18,1130,United States,US-WI-139,Wisconsin,Winnebago,Home feeders,43.9474560,-88.8508826,"",,Unspecified,"","",,,,,,,S99064970,"",,,,,Dryobates villosus,haiwoo,Species,11314,,4.75,8,,2409,2062
219244381,Photo,Hairy Woodpecker (Pacific),Dryobates villosus [harrisi Group],,Blair Dudeck,2020-03-29,2020,3,29,804,Canada,CA-BC-CX,British Columbia,Comox-Strathcona,Strathcona Park--Paradise Meadows,49.7385707,-125.3183413,"",,Unspecified,"","",,,,,,,S66385431,"",,,,,Dryobates villosus,haiwoo1,Group,11322,,4.19,21,,2275,3413
620597920,Photo,Hairy Woodpecker,Dryobates villosus,,Sean Fraser,2024-06-18,2024,6,18,1214,Canada,CA-ON-TO,Ontario,Toronto,Toronto--High Park,43.6446469,-79.4625379,"",,Unspecified,"","",,,,,,,S182400320,"",,,,,Dryobates villosus,haiwoo,Species,11314,,4.75,8,,2975,4462
551010291,Photo,Hairy Woodpecker,Dryobates villosus,,Brad Vissia,2023-03-28,2023,3,28,915,Canada,CA-BC-CO,British Columbia,Central Okanagan,West Kelowna Glenrosa Rd,49.8449760,-119.7150526,"",,Unspecified,"","",,,,,,,S132132560,"",,,,,Dryobates villosus,haiwoo,Species,11314,,4.75,8,,4064,3038
617260276,Photo,Hairy Woodpecker,Dryobates villosus,,Emily Tallo,2024-04-06,2024,4,6,1425,United States,US-CA-053,California,Monterey,Pacific Grove--Rip Van Winkle Park,36.6107050,-121.9320202,"",,Unspecified,"","",,,,,,,S167453806,"",,,,,Dryobates villosus,haiwoo,Species,11314,,4.86,7,,2653,3979
612844460,Photo,Hairy Woodpecker,Dryobates villosus,,Rain Saulnier,2023-12-29,2023,12,29,1236,Canada,CA-ON-FR,Ontario,Frontenac,Kingston--Lemoine Point CA,44.2258204,-76.6120847,"",,Unspecified,"","",,,,,,,S157443303,"",,,,,Dryobates villosus,haiwoo,Species,11314,,4.86,7,,3825,5737
581204911,Photo,Hairy Woodpecker,Dryobates villosus,,Kalin Ocaña,2023-05-18,2023,5,18,1300,Canada,CA-BC-KB,British Columbia,Kootenay Boundary,Anarchist Mountain--Wagonwheel Rd,49.0238911,-119.2455393,Adult Male – 1,,Unspecified,"","",,,,,,,S138397260,"",,,,,Dryobates villosus,haiwoo,Species,11314,,4.86,7,,3573,2695
166806901,Photo,Hairy Woodpecker (Pacific),Dryobates villosus [harrisi Group],,Vicki Miller,2019-07-03,2019,7,3,1330,United States,US-OR-057,Oregon,Tillamook,Jackson Way Manzanita,45.7174628,-123.9288074,Juvenile Female,,Unspecified,"","",,,,,,,S57898032,"",,,,"The father showed the juvenile how to get food from our suet feeder and actually fed her a couple times, then he flew off.  The juvenile found her way to the feeder with just a bit of trouble, but figured it out and proceeded to fill up on the suet before flying off.",Dryobates villosus,haiwoo1,Group,11322,,4.86,7,,2476,2444
124451331,Photo,Hairy Woodpecker,Dryobates villosus,,Liam Ragan,2018-11-20,2018,11,20,1240,Canada,CA-QC-MR,Quebec,Montréal,Parc du Mt-Royal,45.5055593,-73.5882289,Adult Female,,Unspecified,"","",,,,,,,S50080186,"",,,,,Dryobates villosus,haiwoo,Species,11314,,4.86,7,,3354,2529
162628811,Photo,Hairy Woodpecker,Dryobates villosus,,Steve Yarbrough,2019-06-03,2019,6,3,830,United States,US-TN-053,Tennessee,Gibson,"Eldad Road, Trenton Tn.",35.9086232,-88.8846919,"",,Unspecified,"","",,,,,,,S57072371,"",,,,,Dryobates villosus,haiwoo,Species,11314,,4.86,7,,1102,1653
155868281,Photo,Hairy Woodpecker,Dryobates villosus,,Henry Trombley,2019-05-04,2019,5,4,1345,United States,US-VT-001,Vermont,Addison,245 Dan Sargent Rd,44.1639480,-73.0155600,"",,Unspecified,"","",,,,,,,S55785593,"",,,,,Dryobates villosus,haiwoo,Species,11314,,4.86,7,,2917,2355
73084241,Photo,Hairy Woodpecker,Dryobates villosus,,Darren Clark,2017-08-24,2017,8,24,915,United States,US-ID-051,Idaho,Jefferson,Camas NWR,43.9509896,-112.2557731,"",,Unspecified,"","",,,,,,,S38800191,"",,,,,Dryobates villosus,haiwoo,Species,11314,,4.86,7,,1429,2000
29444931,Photo,Hairy Woodpecker (Eastern),Dryobates villosus [villosus Group],,Chris Wood,2014-07-22,2014,7,22,1650,United States,US-NY-109,New York,Tompkins,Monkey Run Casita,42.4625889,-76.4269153,Juvenile,,Unspecified,"","",,,,,,,S29926748,"",,,,,Dryobates villosus,haiwoo2,Group,11315,,4.86,7,,4000,2666
361186331,Photo,Hairy Woodpecker,Dryobates villosus,,Liam Huber,2021-08-13,2021,8,13,822,United States,US-CA-011,California,Colusa,Lower Letts Valley (includes Lily Pond & MV Campground),39.3130890,-122.7111820,"",,Unspecified,"","",,,,,,,S93190890,"",,,,,Dryobates villosus,haiwoo,Species,11314,,4.67,9,,1559,2557
317327571,Photo,Hairy Woodpecker,Dryobates villosus,,Robert Bochenek,2021-03-16,2021,3,16,1528,United States,US-MI-125,Michigan,Oakland,Robert H. Long Park,42.5271345,-83.4507015,"",,Unspecified,"","",,,,,,,S83526380,"",,,,,Dryobates villosus,haiwoo,Species,11314,,4.31,13,,509,488
92175801,Photo,Hairy Woodpecker,Dryobates villosus,,Aneil Shah,2017-11-07,2017,11,7,1300,United States,US-MI-125,Michigan,Oakland,Robert H. Long Park,42.5271345,-83.4507015,"",,Unspecified,"","",,,,,,,S44120027,"",,,,,Dryobates villosus,haiwoo,Species,11314,,4.38,13,,1429,2144
200409821,Photo,Hairy Woodpecker (Costa Rican),Dryobates villosus extimus,,Josiah Verbrugge,2019-12-19,2019,12,19,1200,Costa Rica,CR-SJ,San José,,"Savegre Valley--Miriam's Restaurant",9.5879212,-83.7993672,Adult Female – 1,,Unspecified,"","",,,,,,,S62757942,"",,,,Costa Rican subspecies,Dryobates villosus,haiwoo3,Group,11333,,4.56,9,,4000,6000
614433954,Photo,Hairy Woodpecker,Dryobates villosus,,Rick Wilhoit,2024-02-03,2024,2,3,1545,United States,US-MN-137,Minnesota,St. Louis,Sax-Zim Bog--Admiral Rd. feeding station,47.2674677,-92.6271028,"",,Unspecified,"","",,,,,,,S160595472,"",,,,,Dryobates villosus,haiwoo,Species,11314,,4.38,13,,2904,4356
628113215,Photo,Hairy Woodpecker,Dryobates villosus,,Karim Bouzidi,2024-12-26,2024,12,26,1108,Canada,CA-QC-MR,Quebec,Montréal,Ile Notre-Dame,45.5056251,-73.5274601,"",,Unspecified,"","",,,,,,,S206834355,"",,,,,Dryobates villosus,haiwoo,Species,11314,,5.00,6,,3185,5662
626811337,Photo,Hairy Woodpecker,Dryobates villosus,,Cameron Carver,2024-11-26,2024,11,26,800,United States,US-CO-019,Colorado,Clear Creek,"The Goshawk (private, but open to public)",39.8195073,-105.6467570,"",,Unspecified,"","",,,,,,,S203681981,"",,,,,Dryobates villosus,haiwoo,Species,11314,,5.00,6,,3826,3061
620058180,Photo,Hairy Woodpecker (Pacific),Dryobates villosus [harrisi Group],,Jen Sanford,2024-06-04,2024,6,4,1602,United States,US-OR-041,Oregon,Lincoln,Trillium Cottage,44.9875427,-123.9988424,Juvenile Male – 1,,Unspecified,"","",,,,,,,S179512023,"",,,,,Dryobates villosus,haiwoo1,Group,11322,,5.00,6,,2754,4131
616567420,Photo,Hairy Woodpecker,Dryobates villosus,,Kyle Tansley,2024-03-27,2024,3,27,1700,United States,US-VT-007,Vermont,Chittenden,Arms Forest,44.5000867,-73.2413220,Adult Male – 1,,Unspecified,"","",,,,,,,S166198602,"",,,,,Dryobates villosus,haiwoo,Species,11314,,5.00,6,,3333,5000
613193889,Photo,Hairy Woodpecker,Dryobates villosus,,Alexander Linton,2024-01-06,2024,1,6,1308,United States,US-MN-137,Minnesota,St. Louis,"Sax-Zim Bog--Mary Lou's Feeding Station",47.3047000,-92.8303900,"",,Unspecified,"","",,,,,,,S158308714,"",,,,,Dryobates villosus,haiwoo,Species,11314,,5.00,6,,3888,5184
611598508,Photo,Hairy Woodpecker,Dryobates villosus,,Janis Stone,2023-11-26,2023,11,26,756,United States,US-VA-059,Virginia,Fairfax,Great Falls Park,38.9937000,-77.2553000,Adult Male – 1,,Unspecified,"","",,,,,,,S155280632,"",,,,,Dryobates villosus,haiwoo,Species,11314,,5.00,6,,1300,1233
581204831,Photo,Hairy Woodpecker,Dryobates villosus,,Kalin Ocaña,2023-05-18,2023,5,18,1300,Canada,CA-BC-KB,British Columbia,Kootenay Boundary,Anarchist Mountain--Wagonwheel Rd,49.0238911,-119.2455393,Adult Male – 1,,Unspecified,"","",,,,,,,S138397260,"",,,,,Dryobates villosus,haiwoo,Species,11314,,5.00,6,,3975,3077
575566491,Photo,Hairy Woodpecker,Dryobates villosus,,Sasha Cahill,2022-12-29,2022,12,29,745,United States,US-CA-071,California,San Bernardino,33321 Falling Leaf Dr.,34.2374194,-117.0765486,"",,Unspecified,"","",,,,,,,S124836744,"",,,1/60 ISO 800 F/6.3,,Dryobates villosus,haiwoo,Species,11314,,5.00,6,,2753,3670
337712351,Photo,Hairy Woodpecker,Dryobates villosus,,Matthew Plante,2021-05-13,2021,5,13,730,United States,US-OH-089,Ohio,Licking,Park Trails,40.0537932,-82.4896630,Adult Male – 1,,Unspecified,"","",,,,,,,S87981543,"",,,,,Dryobates villosus,haiwoo,Species,11314,,5.00,6,,3648,2432
337712341,Photo,Hairy Woodpecker,Dryobates villosus,,Matthew Plante,2021-05-13,2021,5,13,730,United States,US-OH-089,Ohio,Licking,Park Trails,40.0537932,-82.4896630,Adult Male – 1,,Unspecified,"","",,,,,,,S87981543,"",,,,,Dryobates villosus,haiwoo,Species,11314,,5.00,6,,3648,5472
280481371,Photo,Hairy Woodpecker,Dryobates villosus,,Ethan Denton,2020-11-14,2020,11,14,941,Canada,CA-AB-TE,Alberta,Camrose-Lloydminister,Stake-out Northern Cardinal - Nov 2020,53.6932477,-111.5980847,"",,Unspecified,"","",,,,,,,S76242571,"",,,,,Dryobates villosus,haiwoo,Species,11314,,5.00,6,,1745,2617
224020351,Photo,Hairy Woodpecker,Dryobates villosus,,Ryan Sanderson,2020-04-15,2020,4,15,713,United States,US-IN-097,Indiana,Marion,Fort Harrison SP,39.8716060,-86.0251808,Adult Female – 1,,Unspecified,"","",,,,,,,S67232263,"",,,,,Dryobates villosus,haiwoo,Species,11314,,5.00,6,,2761,1841
81082611,Photo,Hairy Woodpecker (Rocky Mts.),Dryobates villosus orius/icastus,,Shey Claflin,2018-01-07,2018,1,7,1236,United States,US-WA-007,Washington,Chelan,Wenatchee Confluence SP/Horan Wildlife Area,47.4524450,-120.3257718,Adult Female,,Unspecified,"","",,,,,,,S41732953,"",,,,"Up to 5 of these birds, but I doubt there was more than this number. All of them were around the parking lot area. Very tame birds.",Dryobates villosus,haiwoo5,Group,11327,,5.00,6,,3888,5184
65084861,Photo,Hairy Woodpecker,Dryobates villosus,,Christoph Moning,2013-01-06,2013,1,6,930,Bahamas,BS-SP,"South Abaco and Moore's Island",,The Y,26.0414667,-77.2572594,Adult Female,,Unspecified,"","",,,,,,,S12622041,"",,,,,Dryobates villosus,haiwoo,Species,11314,,5.00,6,,2116,3340
450485851,Photo,Hairy Woodpecker,Dryobates villosus,,Aidan Brubaker,2022-05-05,2022,5,5,753,United States,US-CA-067,California,Sacramento,Mississippi Bar,38.6495393,-121.2030065,"",,Unspecified,"","",,,,,,,S109052114,"",,,,"Nice! The best views I've ever had of a HAWO.  Unbelievably cooperative male on shady trail in the general vicinity of (38.652581,-121.211314) and only a few hundred feet from the parking lot. This area, the first half of shady trail, has been cleared as a fire barrier, and most of the underbrush and quite a few of the trees have been taken out. This created a very similar habitat to other places I've seen HAWO in the foothills. I would guess this bird is presumably here to stay, at least for a while, as it was frequently drumming and and creating tree cavities in at least two locations. It was still present in the same general area four hours later.",Dryobates villosus,haiwoo,Species,11314,,5.00,6,,1837,2221
339622961,Photo,Hairy Woodpecker,Dryobates villosus,,Matthew Plante,2021-05-17,2021,5,17,745,United States,US-OH-089,Ohio,Licking,Park Trails,40.0537932,-82.4896630,Adult Male – 1,,Unspecified,"","",,,,,,,S88420155,"",,,,,Dryobates villosus,haiwoo,Species,11314,,5.00,6,,3169,4754
315987011,Photo,Hairy Woodpecker,Dryobates villosus,,Phil Harvey,2021-03-12,2021,3,12,828,Canada,CA-ON-FR,Ontario,Frontenac,Kingston--100ft Park,44.2520165,-76.4646077,Adult Male – 1,,Unspecified,"","",,,,,,,S83260769,"",,,,,Dryobates villosus,haiwoo,Species,11314,,5.00,6,,3047,4570
253782941,Photo,Hairy Woodpecker,Dryobates villosus,,German Garcia,2020-08-05,2020,8,5,750,Mexico,MX-DIF-012,Ciudad de México,Tlalpan,Parque Las Maravillas,19.1503281,-99.1705538,"",,Unspecified,"","",,,,,,,S72147499,"",,,,,Dryobates villosus,haiwoo,Species,11314,,5.00,6,,1487,2227
141090721,Photo,Hairy Woodpecker,Dryobates villosus,,Jim Merritt,2018-11-08,2018,11,8,658,United States,US-CO-041,Colorado,El Paso,Cheyenne Mountain SP,38.7311714,-104.8223591,"",,Unspecified,"","",,,,,,,S49754993,"",,,,,Dryobates villosus,haiwoo,Species,11314,,5.00,6,,2048,1921
461871781,Photo,Hairy Woodpecker,Dryobates villosus,,Brad Imhoff,2022-06-05,2022,6,5,1200,United States,US-OR-051,Oregon,Multnomah,Bird Alliance of Oregon Sanctuary (formerly Portland Audubon),45.5277023,-122.7291892,"",,Unspecified,"","",,,,,,,S112243520,"",,,,,Dryobates villosus,haiwoo,Species,11314,,4.62,8,,3260,4887
304344691,Photo,Hairy Woodpecker,Dryobates villosus,,Ethan Denton,2021-02-04,2021,2,4,924,Canada,CA-AB-FN,Alberta,Banff,Harvie Heights (hamlet),51.1266907,-115.3815079,Adult Female – 1,Foraging or Eating,Unspecified,"","",,,,,,,S80419102,"",,,,,Dryobates villosus,haiwoo,Species,11314,,4.33,12,"",2011,3018
612806815,Photo,Hairy Woodpecker,Dryobates villosus,,Erica Heusser,2023-12-29,2023,12,29,745,United States,US-NJ-021,New Jersey,Mercer,Hamilton Veterans Park,40.2080994,-74.6762238,"",,Unspecified,"","",,,,,,,S157432530,"",,,,,Dryobates villosus,haiwoo,Species,11314,,4.71,7,,3246,3928
515234161,Photo,Hairy Woodpecker,Dryobates villosus,,Miguel  Mejias,2022-12-21,2022,12,21,1035,Bermuda,BM-,Bermuda,,Botanical Gardens,32.2912470,-64.7645921,"",,Unspecified,"","",,,,,,,S124371315,"",,,,"**MEGA** First photographic record and accepted record for Bermuda. I first heard the bird calling overhead as it landed on a Royal Palm along Celebration Lane. I initially thought it was a Yellow-bellied Sapsucker, given large size of bird. I then saw the black and white patterning, and realized it was a Hairy! In addition to sapsucker-like size, the bird also lacks the black barring on white outer tail feathers, which is diagnostic for Hairy. No red on nape, making it a female bird. The woodpecker was calling loudly, as it bounced between tree trunks. It hung around for about 5-6 mins, but sadly left before most of the other birders could see it. Probably my best bird find, to date.",Dryobates villosus,haiwoo,Species,11314,,4.71,7,,1256,1888
402108171,Photo,Hairy Woodpecker,Dryobates villosus,,Frédérick Lelièvre,2022-01-02,2022,1,2,1222,Canada,CA-QC-QU,Quebec,Québec,Rue des Autochtones,46.9009180,-71.2954010,Adult Male – 1,,Unspecified,"","",,,,,,,S99942066,"",,,,Mâle et femelle,Dryobates villosus,haiwoo,Species,11314,,4.71,7,,2560,3840
144596151,Photo,Hairy Woodpecker,Dryobates villosus,,Douglas Burkett,2019-03-08,2019,3,8,705,United States,US-CO-001,Colorado,Adams,Rocky Mountain Arsenal NWR,39.8209707,-104.8680639,"",,Unspecified,"","",,,,,,,S53612327,"",,,,,Dryobates villosus,haiwoo,Species,11314,,4.71,7,,1396,1774
103020411,Photo,Hairy Woodpecker,Dryobates villosus,,Liam Wolff,2016-07-16,2016,7,16,1215,United States,US-WA-051,Washington,Pend Oreille,Mill Pond,48.8569223,-117.3008537,Immature Male,,Unspecified,"","",,,,,,,S46252185,"",,,,,Dryobates villosus,haiwoo,Species,11314,,4.71,7,,2800,4200
80251051,Photo,Hairy Woodpecker,Dryobates villosus,,George Chiu,2017-10-07,2017,10,7,708,United States,US-NY-007,New York,Broome,Binghamton University Nature Preserve,42.0818211,-75.9682059,"",,Unspecified,"","",,,,,,,S39598032,"",,,,,Dryobates villosus,haiwoo,Species,11314,,4.71,7,,1602,2400
61591201,Photo,Hairy Woodpecker,Dryobates villosus,,Monique Maynard,2017-06-20,2017,6,20,1218,Canada,CA-QC-RS,Quebec,Roussillon,"RF Marguerite-D'Youville",45.3914585,-73.7611771,"",,Unspecified,"","",,,,,,,S37718875,"",,,,,Dryobates villosus,haiwoo,Species,11314,,4.23,13,,1632,2464
44435221,Photo,Hairy Woodpecker,Dryobates villosus,,Doug Hitchcox,2017-01-04,2017,1,4,1115,United States,US-ME-015,Maine,Lincoln,Salt Bay Farm (CRCT),44.0511478,-69.5136468,"",,Unspecified,"","",,,,,,,S33444758,"",,,,,Dryobates villosus,haiwoo,Species,11314,,4.33,12,,2668,4002
48181221,Photo,Hairy Woodpecker,Dryobates villosus,,County Lister Brendan,2015-05-17,2015,5,17,0,United States,US-MI-163,Michigan,Wayne,Oakwoods Metropark,42.1063004,-83.3179016,"",,Unspecified,"","",,,,,,,S34330899,"",,,,,Dryobates villosus,haiwoo,Species,11314,,4.13,15,,2050,1366
226338141,Photo,Hairy Woodpecker,Dryobates villosus,,Andrew Thomas 🦅🪶,2020-04-22,2020,4,22,1000,United States,US-WA-063,Washington,Spokane,"Pine Bluff, Chattaroy",47.8648362,-117.3219439,"",,Unspecified,"","",,,,,,,S67653021,"",,,,,Dryobates villosus,haiwoo,Species,11314,,4.31,13,,3168,4752
546097881,Photo,Hairy Woodpecker,Dryobates villosus,,Lorri Howski 🦋,2023-02-18,2023,2,18,1000,United States,US-WI-079,Wisconsin,Milwaukee,Grant Park--general,42.9180156,-87.8436497,Adult Male – 1,Foraging or Eating,Unspecified,"","",,,,,,,S128776692,"",,,Hairy Woodpecker,,Dryobates villosus,haiwoo,Species,11314,,4.71,7,"",3648,5472
278244481,Photo,Hairy Woodpecker,Dryobates villosus,,Mason Maron,2020-11-03,2020,11,3,1121,United States,US-WA-075,Washington,Whitman,Kamiak Butte,46.8687200,-117.1561360,Adult Female – 1,Foraging or Eating,Unspecified,"","",,,,,,,S75798233,"",,,On Ponderosa Pine,,Dryobates villosus,haiwoo,Species,11314,,4.71,7,"",3112,4640
301001021,Photo,Hairy Woodpecker,Dryobates villosus,,Ethan Denton,2021-01-24,2021,1,24,1355,Canada,CA-AB-FN,Alberta,Banff,"Canmore--Policeman's Creek Boardwalk Trail",51.0897987,-115.3557667,Adult Male – 1,,Unspecified,"","",,,,,,,S79852614,"",,,,,Dryobates villosus,haiwoo,Species,11314,,4.62,8,,2275,3412
61157861,Photo,Hairy Woodpecker,Dryobates villosus,,Nick Pulcinella,2013-11-30,2013,11,30,1315,United States,US-PA-043,Pennsylvania,Dauphin,Highspire Reservoir Park & Lisa Lake,40.2061719,-76.7739990,"","",Unspecified,"","",,,,,,,S15812797,"",,,,,Dryobates villosus,haiwoo,Species,11314,,3.82,33,No bird,1365,2048
225358361,Photo,Hairy Woodpecker,Dryobates villosus,,Kalin Ocaña,2020-04-19,2020,4,19,544,Canada,CA-BC-CO,British Columbia,Central Okanagan,Rose Valley Regional Park,49.8916707,-119.5683331,Adult Male – 1,Nest Building,Unspecified,"","",,,,,,,S67505723,"",,,,,Dryobates villosus,haiwoo,Species,11314,,3.78,55,"",3984,2455
47553301,Photo,Hairy Woodpecker,Dryobates villosus,,Patrick Van Thull,2017-02-05,2017,2,5,819,United States,US-AZ-019,Arizona,Pima,Mt. Lemmon--Rose Canyon and Lake,32.3926274,-110.7024693,"",,Unspecified,"","",,,,,,,S34176585,"",,,,,Dryobates villosus,haiwoo,Species,11314,,4.13,15,,1778,1270
362361791,Photo,Hairy Woodpecker,Dryobates villosus,,Myron Peterson,2021-08-19,2021,8,19,750,United States,US-MN-053,Minnesota,Hennepin,Wood Lake Nature Center,44.8773731,-93.2931089,"",,Unspecified,"","",,,,,,,S93448821,"",,,,,Dryobates villosus,haiwoo,Species,11314,,4.83,6,,2663,3994
307399891,Photo,Hairy Woodpecker,Dryobates villosus,,Janine Schutt,2021-02-13,2021,2,13,700,United States,US-WA-035,Washington,Kitsap,"Janine's yard",47.6050887,-122.7646377,Adult Male – 1,,Unspecified,"","",,,,,,,S81262804,"",,,,,Dryobates villosus,haiwoo,Species,11314,,4.83,6,,1852,2778
307399881,Photo,Hairy Woodpecker,Dryobates villosus,,Janine Schutt,2021-02-13,2021,2,13,700,United States,US-WA-035,Washington,Kitsap,"Janine's yard",47.6050887,-122.7646377,Adult Male – 1,,Unspecified,"","",,,,,,,S81262804,"",,,,,Dryobates villosus,haiwoo,Species,11314,,4.83,6,,2180,3270
307399871,Photo,Hairy Woodpecker,Dryobates villosus,,Janine Schutt,2021-02-13,2021,2,13,700,United States,US-WA-035,Washington,Kitsap,"Janine's yard",47.6050887,-122.7646377,Adult Male – 1,,Unspecified,"","",,,,,,,S81262804,"",,,,,Dryobates villosus,haiwoo,Species,11314,,4.83,6,,2283,3425
206771351,Photo,Hairy Woodpecker,Dryobates villosus,,Tanner Martin,2020-02-01,2020,2,1,1421,United States,US-OR-033,Oregon,Josephine,Lake Selmac,42.2617532,-123.5779095,"",,Unspecified,"","",,,,,,,S64025012,"",,,,,Dryobates villosus,haiwoo,Species,11314,,4.83,6,,2812,4218
625936625,Photo,Hairy Woodpecker,Dryobates villosus,,Andrew Whetten,2024-10-31,2024,10,31,1708,United States,US-NY-109,New York,Tompkins,Yaple - McGrath Rd Intersection,42.3473160,-76.2880680,"",,Unspecified,"","",,,,,,,S200930696,"",,,,,Dryobates villosus,haiwoo,Species,11314,,4.83,6,,1500,2000
625098451,Photo,Hairy Woodpecker,Dryobates villosus,,Lev Frid,2024-10-17,2024,10,17,738,Canada,CA-ON-TO,Ontario,Toronto,Tommy Thompson Park,43.6282673,-79.3291670,"",,Unspecified,"","",,,,,,,S199278306,"",,,,"Two males together near base of Pen B, one heard close to Pipit, one seen in flight near cell 2",Dryobates villosus,haiwoo,Species,11314,,4.83,6,,3267,2178
614155576,Photo,Hairy Woodpecker,Dryobates villosus,,Myron Peterson,2024-01-29,2024,1,29,1010,United States,US-MN-053,Minnesota,Hennepin,Lake Hiawatha Park,44.9209670,-93.2347699,"",,Unspecified,"","",,,,,,,S160124785,"",,,,,Dryobates villosus,haiwoo,Species,11314,,4.83,6,,4587,3058
609710909,Photo,Hairy Woodpecker,Dryobates villosus,,Daniel Raleigh,2023-10-08,2023,10,8,1157,United States,US-MN-061,Minnesota,Itasca,"18938 Sherrys Arm Rd, Grand Rapids (house)",47.1523470,-93.6116720,Adult Female – 1,"",Unspecified,"","",,,,,,,S151724885,"",,,,,Dryobates villosus,haiwoo,Species,11314,,4.83,6,Habitat,3456,4608
541855961,Photo,Hairy Woodpecker,Dryobates villosus,,Miguel  Mejias,2023-03-04,2023,3,4,800,Bermuda,BM-,Bermuda,,Appleby Lane,32.2899178,-64.7719614,"",,Unspecified,"","",,,,,,,S130150857,"",,,,"Continuing rarity. Same female bird I found in December 2022 at the Botanical Gardens; in all photos, the female has a single white spot behind the left eye, and no signs of an eyering on right eye. Was relocated yesterday by Herb Marshall and several friends. Very vocal as she flew between trees. At one point she was briefly on the ground. Last seen flying eastward.",Dryobates villosus,haiwoo,Species,11314,,4.83,6,,1872,2800
535448641,Photo,Hairy Woodpecker (Eastern),Dryobates villosus [villosus Group],,Emily Turteltaub Nelson,2023-02-08,2023,2,8,1535,United States,US-MN-137,Minnesota,St. Louis,Sax-Zim Bog--Gray Jay Way Feeders,47.1529232,-92.7264988,Adult Female – 1,,Unspecified,"","",,,,,,,S128176773,"",,,,,Dryobates villosus,haiwoo2,Group,11315,,4.83,6,,3651,5477
529288901,Photo,Hairy Woodpecker,Dryobates villosus,,Jolie Nguyen,2023-01-28,2023,1,28,1246,Canada,CA-ON-TO,Ontario,Toronto,Toronto--High Park,43.6446469,-79.4625379,"",,Unspecified,"","",,,,,,,S127120219,"",,,,,Dryobates villosus,haiwoo,Species,11314,,4.83,6,,3815,5087
455836811,Photo,Hairy Woodpecker (Rocky Mts.),Dryobates villosus orius/icastus,,Ian Hearn,2022-05-13,2022,5,13,1437,United States,US-ID-031,Idaho,Cassia,Diamondfield Jack Campground and Picnic Area,42.1713873,-114.2793560,Adult Female – 1,,Unspecified,"","",,,,,,,S110123188,"",,,,,Dryobates villosus,haiwoo5,Group,11327,,4.83,6,,3712,5568
403653161,Photo,Hairy Woodpecker,Dryobates villosus,,Mason Currier,2021-12-26,2021,12,26,1050,United States,US-MN-137,Minnesota,St. Louis,Sax-Zim Bog--Friends of Sax-Zim Bog Visitor Center,47.1458992,-92.7267366,"",,Unspecified,"","",,,,,,,S99493816,"",,,,,Dryobates villosus,haiwoo,Species,11314,,4.83,6,,1332,2056
307189871,Photo,Hairy Woodpecker,Dryobates villosus,,Melissa Hafting,2021-02-13,2021,2,13,1045,Canada,CA-BC-GV,British Columbia,Metro Vancouver,Richmond Nature Park,49.1708333,-123.0933333,Adult Male – 1,,Unspecified,"","",,,,,,,S81252807,"",,,,,Dryobates villosus,haiwoo,Species,11314,,4.83,6,,1200,767
278061081,Photo,Hairy Woodpecker,Dryobates villosus,,Liam Hutcheson,2020-11-07,2020,11,7,1045,United States,US-WA-067,Washington,Thurston,"Farm, kaiser Rd NW.",47.0658541,-122.9583031,"",,Unspecified,"","",,,,,,,S75950035,"",,,,,Dryobates villosus,haiwoo,Species,11314,,4.83,6,,3127,4062
612837951,Photo,Hairy Woodpecker,Dryobates villosus,,James Tornetta,2023-12-30,2023,12,30,906,United States,US-PA-091,Pennsylvania,Montgomery,Diarffordd Farm,40.0441760,-75.2773920,"",,Unspecified,"","",,,,,,,S157508814,"",,,,,Dryobates villosus,haiwoo,Species,11314,,4.56,9,,1107,1661
211980891,Photo,Hairy Woodpecker,Dryobates villosus,,Timothy Piranian,2020-02-25,2020,2,25,1000,United States,US-AK-170,Alaska,Matanuska-Susitna Borough,Backyard -- South Lakes (Wasilla),61.5906859,-149.3085381,"",,Unspecified,"","",,,,,,,S65171611,"",,,,,Dryobates villosus,haiwoo,Species,11314,,3.92,25,,2448,3264
104426081,Photo,Hairy Woodpecker,Dryobates villosus,,Michael Schall,2018-06-08,2018,6,8,1410,United States,US-AZ-003,Arizona,Cochise,Cave Creek Canyon--South Fork,31.8688764,-109.1883919,"",,Unspecified,"","",,,,,,,S46551589,"",,,,,Dryobates villosus,haiwoo,Species,11314,,4.50,8,,1917,2888
619542708,Photo,Hairy Woodpecker,Dryobates villosus,,Mary Keleher,2024-05-24,2024,5,24,523,United States,US-MA-001,Massachusetts,Barnstable,Santuit Pond,41.6552018,-70.4597425,"","",Unspecified,"","",,,,,,,S176835166,"",,,Melanistic,Melanistic?,Dryobates villosus,haiwoo,Species,11314,,4.44,9,Aberrant individual,3336,5163
61608121,Photo,Hairy Woodpecker,Dryobates villosus,,Luke Pheneger,2017-06-13,2017,6,13,1034,United States,US-ME-015,Maine,Lincoln,Salt Bay Farm (CRCT),44.0511478,-69.5136468,"",,Unspecified,"","",,,,,,,S37568467,"",,,,,Dryobates villosus,haiwoo,Species,11314,,3.81,36,,3000,4000
318169531,Photo,Hairy Woodpecker,Dryobates villosus,,Liam Huber,2021-03-19,2021,3,19,1407,United States,US-CA-101,California,Sutter,Linda WTP (SUT Co.),39.0958606,-121.5890687,"",,Unspecified,"","",,,,,,,S83699373,"",,,,,Dryobates villosus,haiwoo,Species,11314,,4.18,11,,1565,2697
540958641,Photo,Hairy Woodpecker,Dryobates villosus,,Corvus 𓄿,2023-03-01,2023,3,1,1150,United States,US-PA-003,Pennsylvania,Allegheny,Frick Park--Beechwood Entrance,40.4366599,-79.9069092,Adult Male – 1,Foraging or Eating,Unspecified,"","",,,,,,,S129935567,"",,,,,Dryobates villosus,haiwoo,Species,11314,,4.40,10,"",2989,3820
389592111,Photo,Hairy Woodpecker,Dryobates villosus,,Maria Pacheco,2021-11-20,2021,11,20,959,United States,US-PA-101,Pennsylvania,Philadelphia,Backyard and surroundings (401 East Allens Lane),40.0658873,-75.1868812,Adult Male – 1,,Unspecified,"","",,,,,,,S97828353,"",,,,,Dryobates villosus,haiwoo,Species,11314,,4.57,7,,3288,4254
353544341,Photo,Hairy Woodpecker,Dryobates villosus,,James Moodie,2021-07-10,2021,7,10,735,United States,US-OR-017,Oregon,Deschutes,Tumalo Circle entire yard (1 acre),43.9880611,-121.3858105,Immature Female – 1,,Unspecified,"","",,,,,,,S91537148,"",,,,,Dryobates villosus,haiwoo,Species,11314,,4.57,7,,3930,3144
616366375,Photo,Hairy Woodpecker (Rocky Mts.),Dryobates villosus orius/icastus,,Anne Bielamowicz,2024-03-18,2024,3,18,809,United States,US-NM-001,New Mexico,Bernalillo,Cibola NF--Sandia Crest,35.2103004,-106.4487000,"",,Unspecified,"","",,,,,,,S165291685,"",,,,,Dryobates villosus,haiwoo5,Group,11327,,4.57,7,,2565,4328
349621421,Photo,Hairy Woodpecker (Costa Rican),Dryobates villosus extimus,,Theo Staengl,2021-06-17,2021,6,17,1428,Costa Rica,CR-SJ,San José,,"Savegre Valley--Miriam's Restaurant",9.5879212,-83.7993672,"",,Unspecified,"","",,,,,,,S90341583,"",,,,,Dryobates villosus,haiwoo3,Group,11333,,4.57,7,,3349,4933
35985491,Photo,Hairy Woodpecker,Dryobates villosus,,Geoff Hill,2010-06-02,2010,6,2,0,United States,US-WI-009,Wisconsin,Brown,Bay Beach Wildlife Sanctuary,44.5264000,-87.9744000,"",,Unspecified,"","",,,,,,,S31757506,"",,,,,Dryobates villosus,haiwoo,Species,11314,,4.57,7,,2574,3583
267676621,Photo,Hairy Woodpecker,Dryobates villosus,,Capt. Ed Brown,2020-10-02,2020,10,2,900,United States,US-WI-029,Wisconsin,Door,"1075 Johnson Ct West, Washington, Wisconsin, US (45.341, -86.887)",45.3409141,-86.8871158,"",,Unspecified,"","",,,,,,,S74340747,"",,,,,Dryobates villosus,haiwoo,Species,11314,,3.90,21,,1080,1440
52469251,Photo,Hairy Woodpecker,Dryobates villosus,,Kathy Webb,2017-03-26,2017,3,26,815,Canada,CA-ON-FR,Ontario,Frontenac,SHR home,44.3831439,-76.2979889,"","",Unspecified,"","",,,,,,,S35459243,"",,,,,Dryobates villosus,haiwoo,Species,11314,,3.59,111,Habitat,3200,4800
60952581,Photo,Hairy Woodpecker,Dryobates villosus,,Julie Szabo,2017-06-09,2017,6,9,1515,United States,US-CA-027,California,Inyo,"Gus Cashbaugh/Airport Road, Bishop",37.3467847,-118.3678687,Adult Male,"",Unspecified,"","",,,,,,,S37496791,"",,,"Hairy Woodpecker. Gus Cashbaugh Road, Bishop, CA.   9 June 2017","Male, photo attached.",Dryobates villosus,haiwoo,Species,11314,,3.70,53,Habitat,2304,3072
628863782,Photo,Hairy Woodpecker,Dryobates villosus,,Zachary Vaughan,2025-01-10,2025,1,10,740,United States,US-PA-003,Pennsylvania,Allegheny,Frick Park,40.4307000,-79.9134000,Adult Male – 1,,Unspecified,"","",,,,,,,S208718452,"",,,,,Dryobates villosus,haiwoo,Species,11314,,5.00,5,,,
620762489,Photo,Hairy Woodpecker,Dryobates villosus,,Kyle Matera,2024-06-23,2024,6,23,915,United States,US-FL-099,Florida,Palm Beach,J.W. Corbett Wildlife Management Area,26.8761000,-80.3908000,"",,Unspecified,"","",,,,,,,S183355860,"",,,,Two individuals seen together on trail 13.  Larger than downy with substantial bill.  Giving sputter call occasionally. Photos.,Dryobates villosus,haiwoo,Species,11314,,5.00,5,,1393,2089
619152270,Photo,Hairy Woodpecker,Dryobates villosus,,James Tornetta,2024-05-12,2024,5,12,1753,United States,US-PA-091,Pennsylvania,Montgomery,Diarffordd Farm,40.0441760,-75.2773920,"",,Unspecified,"","",,,,,,,S174126393,"",,,,Carrying a caterpillar to the feeder then adding suet as well before flying to forest,Dryobates villosus,haiwoo,Species,11314,,5.00,5,,2796,2945
618042483,Photo,Hairy Woodpecker,Dryobates villosus,,Stewart Mayhew,2024-04-26,2024,4,26,716,United States,US-DC-001,District of Columbia,District of Columbia,Rock Creek Park--Maintenance Yard,38.9554951,-77.0493486,"",,Unspecified,"","",,,,,,,S170337551,"",,,,,Dryobates villosus,haiwoo,Species,11314,,5.00,5,,3722,5187
616057998,Photo,Hairy Woodpecker,Dryobates villosus,,Carlos Ulate,2024-03-13,2024,3,13,1524,United States,US-MN-137,Minnesota,St. Louis,Sax-Zim Bog--Warren Nelson Memorial Bog,47.0757921,-92.6622748,"",,Unspecified,"","",,,,,,,S164808624,"",,,,,Dryobates villosus,haiwoo,Species,11314,,5.00,5,,2992,3990
615830814,Photo,Hairy Woodpecker,Dryobates villosus,,Alva  Steury,2024-03-09,2024,3,9,1205,United States,US-IN-033,Indiana,DeKalb,~Private Hotspot~,41.3050006,-84.9778769,"",,Unspecified,"","",,,,,,,S164214666,"",,,,,Dryobates villosus,haiwoo,Species,11314,,5.00,5,,3576,4628
614126135,Photo,Hairy Woodpecker (Eastern),Dryobates villosus [villosus Group],,Peter Mundale,2024-01-28,2024,1,28,1439,United States,US-MN-137,Minnesota,St. Louis,Sax-Zim Bog--Fringed Gentian Bog,47.3123579,-92.6200101,"",,Unspecified,"","",,,,,,,S160080540,"",,,,,Dryobates villosus,haiwoo2,Group,11315,,5.00,5,,2140,3216
614013197,Photo,Hairy Woodpecker,Dryobates villosus,,Nathan Heath,2024-01-25,2024,1,25,1230,United States,US-WA-063,Washington,Spokane,Riverside SP--Confluence of Spokane and Little Spokane Rivers,47.7895169,-117.5309873,Adult Male – 1,,Unspecified,"","",,,,,,,S159793151,"",,,,,Dryobates villosus,haiwoo,Species,11314,,5.00,5,,3367,4608
613348230,Photo,Hairy Woodpecker,Dryobates villosus,,Otto Mayer,2024-01-08,2024,1,8,811,United States,US-AZ-003,Arizona,Cochise,Portal--Cave Creek Ranch,31.9041957,-109.1561556,"",,Unspecified,"","",,,,,,,S158455924,"",,,,,Dryobates villosus,haiwoo,Species,11314,,5.00,5,,2608,3469
612838144,Photo,Hairy Woodpecker,Dryobates villosus,,James Tornetta,2023-12-30,2023,12,30,906,United States,US-PA-091,Pennsylvania,Montgomery,Diarffordd Farm,40.0441760,-75.2773920,"",,Unspecified,"","",,,,,,,S157508814,"",,,,,Dryobates villosus,haiwoo,Species,11314,,5.00,5,,844,1266
575566681,Photo,Hairy Woodpecker,Dryobates villosus,,Sasha Cahill,2022-12-29,2022,12,29,745,United States,US-CA-071,California,San Bernardino,33321 Falling Leaf Dr.,34.2374194,-117.0765486,Adult Male – 1,,Unspecified,"","",,,,,,,S124836744,"",,,1/125 ISO 800 F/6.3,,Dryobates villosus,haiwoo,Species,11314,,5.00,5,,2954,4726
575370681,Photo,Hairy Woodpecker,Dryobates villosus,,David Webster,2023-05-18,2023,5,18,1212,United States,US-CA-075,California,San Francisco,Presidio--Lobos Creek and Dunes Restoration Area,37.7877083,-122.4791479,"",,Unspecified,"","",,,,,,,S138311917,"",,,,,Dryobates villosus,haiwoo,Species,11314,,5.00,5,,1679,2500
501459051,Photo,Hairy Woodpecker (Eastern),Dryobates villosus [villosus Group],,Roberto Jovel,2022-11-06,2022,11,6,655,Canada,CA-ON-TO,Ontario,Toronto,Toronto--Taylor Creek Park,43.7012320,-79.3161596,"",,Unspecified,"","",,,,,,,S122011561,"",,,,,Dryobates villosus,haiwoo2,Group,11315,,5.00,5,,2828,2121
347515851,Photo,Hairy Woodpecker (Eastern),Dryobates villosus [villosus Group],,Dan Vickers,2021-06-13,2021,6,13,750,United States,US-GA-135,Georgia,Gwinnett,George Pierce Park,34.0592720,-84.0515040,"",,Unspecified,"","",,,,,,,S90115303,"",,,,,Dryobates villosus,haiwoo2,Group,11315,,5.00,5,,2789,2789
339622461,Photo,Hairy Woodpecker,Dryobates villosus,,Matthew Plante,2021-05-17,2021,5,17,745,United States,US-OH-089,Ohio,Licking,Park Trails,40.0537932,-82.4896630,Adult Male – 1,,Unspecified,"","",,,,,,,S88420155,"",,,,,Dryobates villosus,haiwoo,Species,11314,,5.00,5,,2559,3838
308186441,Photo,Hairy Woodpecker,Dryobates villosus,,Janine Schutt,2021-02-14,2021,2,14,1200,United States,US-WA-035,Washington,Kitsap,"Janine's yard",47.6050887,-122.7646377,Adult Male – 1,,Unspecified,"","",,,,,,,S81515974,"",,,,,Dryobates villosus,haiwoo,Species,11314,,5.00,5,,2727,4090
296520861,Photo,Hairy Woodpecker,Dryobates villosus,,Jaden Barney,2021-01-10,2021,1,10,800,Canada,CA-NB-WE,New Brunswick,Westmorland,"6 Uphill Drive, Sackville, NB",45.9300914,-64.3544421,"",,Unspecified,"","",,,,,,,S79038497,"",,,,,Dryobates villosus,haiwoo,Species,11314,,5.00,5,,2592,4608
285428781,Photo,Hairy Woodpecker,Dryobates villosus,,Michael Schramm,2020-11-28,2020,11,28,834,United States,US-WV-107,West Virginia,Wood,Ohio River Islands NWR--Visitor Center,39.3908360,-81.4205360,"",,Unspecified,"","",,,,,,,S76792457,"",,,,,Dryobates villosus,haiwoo,Species,11314,,5.00,5,,2502,3336
156922101,Photo,Hairy Woodpecker,Dryobates villosus,,Harold Ziolkowski,2019-05-07,2019,5,7,1455,United States,US-MT-031,Montana,Gallatin,Erwin Bridge FAS,45.7719400,-111.2405300,Adult Male,,Unspecified,"","",,,,,,,S55980424,"",,,,,Dryobates villosus,haiwoo,Species,11314,,5.00,5,,2762,4143
29444821,Photo,Hairy Woodpecker (Eastern),Dryobates villosus [villosus Group],,Chris Wood,2014-07-22,2014,7,22,1650,United States,US-NY-109,New York,Tompkins,Monkey Run Casita,42.4625889,-76.4269153,Juvenile,,Unspecified,"","",,,,,,,S29926748,"",,,,,Dryobates villosus,haiwoo2,Group,11315,,5.00,5,,2400,4000
52469121,Photo,Hairy Woodpecker,Dryobates villosus,,Robert Dixon,2017-03-26,2017,3,26,600,United States,US-CT-015,Connecticut,Windham,179 Main St. Sterling,41.7131282,-71.8335526,"","",Unspecified,"","",,,,,,,S35459117,"",,,,,Dryobates villosus,haiwoo,Species,11314,,3.75,44,Habitat,1773,1532
613526557,Photo,Hairy Woodpecker,Dryobates villosus,,Peter Mundale,2023-11-14,2023,11,14,1201,United States,US-MN-137,Minnesota,St. Louis,UMD--Bagley Nature Area,46.8231200,-92.0861200,"",,Unspecified,"","",,,,,,,S158906146,"",,,,,Dryobates villosus,haiwoo,Species,11314,,4.57,7,,2157,3241
613046147,Photo,Hairy Woodpecker,Dryobates villosus,,Pierre Lemieux,2024-01-03,2024,1,3,1400,Canada,CA-QC-QU,Quebec,Québec,Parc des Saules,46.8090915,-71.3077418,Adult Male – 1,,Unspecified,"","",,,,,,,S157974994,"",,,,,Dryobates villosus,haiwoo,Species,11314,,4.57,7,,4000,2667
432812681,Photo,Hairy Woodpecker,Dryobates villosus,,Justin Flint,2022-04-06,2022,4,6,1545,Canada,CA-BC-FV,British Columbia,Fraser Valley,Promontory--Bridlewood and Salmon Ridge Trails,49.0952030,-121.9524456,Adult Male – 1,Foraging or Eating,Unspecified,"","",,,,,,,S106438432,"",,,,,Dryobates villosus,haiwoo,Species,11314,,4.57,7,"",1522,2030
198111491,Photo,Hairy Woodpecker,Dryobates villosus,,Laure Wilson Neish,2012-05-07,2012,5,7,1430,Canada,CA-BC-OS,British Columbia,Okanagan-Similkameen,Penticton--Max Lake,49.5102778,-119.6466667,Adult Male – 1,Nest Building,Unspecified,"","",,,,,,,S63170182,"",,,,,Dryobates villosus,haiwoo,Species,11314,,4.57,7,"",2744,2000
84690611,Photo,Hairy Woodpecker,Dryobates villosus,,Tammy McQuade,2018-02-04,2018,2,4,845,United States,US-FL-071,Florida,Lee,Six Mile Cypress Preserve North,26.6562038,-81.7706394,"",,Unspecified,"","",,,,,,,S42484156,"",,,,,Dryobates villosus,haiwoo,Species,11314,,4.57,7,,2503,3720
55678161,Photo,Hairy Woodpecker,Dryobates villosus,,Steve Wickliffe,2017-04-24,2017,4,24,1106,United States,US-MT-023,Montana,Deer Lodge,Arco Ponds,46.1624744,-112.7791214,"",,Unspecified,"","",,,,,,,S36239190,"",,,,,Dryobates villosus,haiwoo,Species,11314,,4.38,8,,3831,3019
45790511,Photo,Hairy Woodpecker,Dryobates villosus,,Michael J Good,2017-01-17,2017,1,17,1100,United States,US-ME-009,Maine,Hancock,Acadia NP--Witch Hole Pond Carriage Path Loop,44.3990651,-68.2464695,Adult Female,,Unspecified,"","",,,,,,,S33751856,"",,,,,Dryobates villosus,haiwoo,Species,11314,,3.70,46,,2853,4101
47660371,Photo,Hairy Woodpecker,Dryobates villosus,,Lou Ann Harris,2017-02-06,2017,2,6,950,United States,US-MT-031,Montana,Gallatin,Sypes Canyon Trail,45.7451709,-111.0051620,"",,Unspecified,"","",,,,,,,S34207825,"",,,,,Dryobates villosus,haiwoo,Species,11314,,4.20,10,,1911,1205
219704211,Photo,Hairy Woodpecker,Dryobates villosus,,Richard Guillet,2020-03-31,2020,3,31,1009,Canada,CA-QC-MR,Quebec,Montréal,Domaine St-Paul,45.4546332,-73.5529532,"",,Unspecified,"","",,,,,,,S66443884,"",,,,,Dryobates villosus,haiwoo,Species,11314,,4.38,8,,791,1186
195165971,Photo,Hairy Woodpecker (Eastern),Dryobates villosus [villosus Group],,Cathy P,2019-11-25,2019,11,25,800,United States,US-IL-043,Illinois,DuPage,"5718 Pershing Avenue, Downers Grove, Illinois, US (41.782, -88.036)",41.7819509,-88.0357432,"",,Unspecified,"","",,,,,,,S61745294,"",,,,,Dryobates villosus,haiwoo2,Group,11315,,4.38,8,,2303,3072
90418961,Photo,Hairy Woodpecker (Eastern),Dryobates villosus [villosus Group],,Christoph Moning,2018-03-08,2018,3,8,841,Canada,CA-ON-NP,Ontario,Nipissing,Algonquin Provincial Park--Visitor Centre,45.5836201,-78.3596206,Adult,,Unspecified,"","",,,,,,,S43523463,"",,,,,Dryobates villosus,haiwoo2,Group,11315,,4.38,8,,2691,4304
88999381,Photo,Hairy Woodpecker,Dryobates villosus,,gord smith,2018-03-05,2018,3,5,844,Canada,CA-BC-CX,British Columbia,Comox-Strathcona,Courtenay--Millard Nature Park,49.6656835,-124.9772286,"",,Unspecified,"","",,,,,,,S43403824,"",,,,,Dryobates villosus,haiwoo,Species,11314,,4.38,8,,3648,5472
70240681,Photo,Hairy Woodpecker,Dryobates villosus,,Robert McNab,2017-09-24,2017,9,24,1553,United States,US-CA-051,California,Mono,Convict Lake,37.5910827,-118.8519808,"",,Unspecified,"","",,,,,,,S39449089,"",,,,,Dryobates villosus,haiwoo,Species,11314,,4.38,8,,1679,2866
612365605,Photo,Hairy Woodpecker,Dryobates villosus,,Evan Pak,2023-12-16,2023,12,16,1353,United States,US-MN-137,Minnesota,St. Louis,Sax-Zim Bog--Admiral Rd. feeding station,47.2674677,-92.6271028,Adult – 1,,Unspecified,"","",,,,,,,S156491545,"",,,,,Dryobates villosus,haiwoo,Species,11314,,4.67,6,,4057,7212
314301121,Photo,Hairy Woodpecker,Dryobates villosus,,Nathan Wall,2021-03-06,2021,3,6,1534,United States,US-WA-033,Washington,King,Discovery Park,47.6638680,-122.4215317,"",,Unspecified,"","",,,,,,,S82910399,"",,,,,Dryobates villosus,haiwoo,Species,11314,,4.67,6,,2677,4016
303462271,Photo,Hairy Woodpecker,Dryobates villosus,,Matthew Plante,2021-02-01,2021,2,1,1500,United States,US-OH-089,Ohio,Licking,Park Trails,40.0537932,-82.4896630,"",,Unspecified,"","",,,,,,,S80283739,"",,,,,Dryobates villosus,haiwoo,Species,11314,,4.67,6,,3170,4755
233181941,Photo,Hairy Woodpecker,Dryobates villosus,,Dominique Genna,2014-02-22,2014,2,22,1040,Canada,CA-QC-CB,Quebec,La Côte-de-Beaupré,RNF du Cap-Tourmente,47.0780936,-70.7855538,"",,Unspecified,"","",,,,,,,S68840187,"",,,,,Dryobates villosus,haiwoo,Species,11314,,4.67,6,,2562,3843
176075931,Photo,Hairy Woodpecker,Dryobates villosus,,ann carter,2019-08-14,2019,8,14,1435,Canada,CA-AB-EL,Alberta,Edmonton,AB Devon greenspace,53.3496906,-113.7227011,"",,Unspecified,"","",,,,,,,S59594305,"",,,,,Dryobates villosus,haiwoo,Species,11314,,4.67,6,,1500,1500
58701161,Photo,Hairy Woodpecker,Dryobates villosus,,Janet Heintz,2017-05-14,2017,5,14,1100,United States,US-PA-039,Pennsylvania,Crawford,Conneaut Marsh--McMichael/Brown Hill Rd.,41.5872180,-80.2651531,Adult Female,,Unspecified,"","",,,,,,,S37006254,"",,,"female,Hairy Woodpecker feeding young at nest","Male and Female Hairy Woodpecker, were feeding young at nest.",Dryobates villosus,haiwoo,Species,11314,,4.67,6,,2048,1459
544923641,Photo,Hairy Woodpecker,Dryobates villosus,,Paul Nale,2023-03-08,2023,3,8,1003,United States,US-PA-089,Pennsylvania,Monroe,Weir Lake,40.9137963,-75.4210675,Adult Male – 1,Foraging or Eating,Unspecified,"","",,,,,,,S130491268,"",,,,,Dryobates villosus,haiwoo,Species,11314,,4.67,6,"",1266,1899
277612581,Photo,Hairy Woodpecker,Dryobates villosus,,Richard Guillet,2020-11-05,2020,11,5,836,Canada,CA-QC-MR,Quebec,Montréal,Domaine St-Paul,45.4546332,-73.5529532,Adult Male – 1,,Unspecified,"","",,,,,,,S75872976,"",,,,,Dryobates villosus,haiwoo,Species,11314,,4.20,10,,800,1200
126896861,Photo,Hairy Woodpecker,Dryobates villosus,,Suzanne Labbé,2018-12-05,2018,12,5,954,Canada,CA-QC-BM,Quebec,Brome-Missisquoi,George Montgomery Sanctuary,45.0272907,-73.0720129,"",,Unspecified,"","",,,,,,,S50442362,"",,,,,Dryobates villosus,haiwoo,Species,11314,,4.22,9,,1600,1223
60938231,Photo,Hairy Woodpecker,Dryobates villosus,,Monique Maynard,2017-06-12,2017,6,12,1040,Canada,CA-QC-RS,Quebec,Roussillon,"RF Marguerite-D'Youville",45.3914585,-73.7611771,"",,Unspecified,"","",,,,,,,S37558085,"",,,,,Dryobates villosus,haiwoo,Species,11314,,3.82,22,,1088,1646
579658921,Photo,Hairy Woodpecker,Dryobates villosus,,Juan Miguel Artigas Azas,2023-05-31,2023,5,31,845,United States,US-MO-099,Missouri,Jefferson,"212 Golda Ln, Fenton US-MO 38.50031, -90.47755",38.5003090,-90.4775510,"",,Unspecified,"","",,,,,,,S140023206,"",,,,,Dryobates villosus,haiwoo,Species,11314,,4.67,6,,800,1200
453979171,Photo,Hairy Woodpecker,Dryobates villosus,,Neil Bjorklund,2022-05-27,2022,5,27,1004,United States,US-OR-017,Oregon,Deschutes,Calliope Crossing,44.3507699,-121.5526056,"",,Unspecified,"","",,,,,,,S111455621,"",,,,,Dryobates villosus,haiwoo,Species,11314,,4.67,6,,1658,2484
430007781,Photo,Hairy Woodpecker,Dryobates villosus,,Colleen C,2022-03-29,2022,3,29,1045,Canada,CA-ON-TO,Ontario,Toronto,Toronto--Lambton Woods,43.6663505,-79.5137000,"",,Unspecified,"","",,,,,,,S105861590,"",,,,,Dryobates villosus,haiwoo,Species,11314,,4.67,6,,2350,1880
29814921,Photo,Hairy Woodpecker (Pacific),Dryobates villosus [harrisi Group],,Grace Oliver,2016-06-02,2016,6,2,528,United States,US-WA-033,Washington,King,Marymoor Park,47.6625760,-122.1205200,Adult Female,,Unspecified,"","",,,,,,,S30041329,"",,,,,Dryobates villosus,haiwoo1,Group,11322,,4.67,6,,1400,2100
278095581,Photo,Hairy Woodpecker (Eastern),Dryobates villosus [villosus Group],,Michael Stubblefield,2020-11-07,2020,11,7,640,United States,US-NJ-017,New Jersey,Hudson,Liberty SP,40.7025698,-74.0493536,Adult Female,Foraging or Eating,Unspecified,"","",,,,,,,S75932437,"",,,"Hairy Woodpecker (Dryobates villosus villosus), Eastern subspecies group, adult female foraging in Liberty State Park, Jersey City, New Jersey.",,Dryobates villosus,haiwoo2,Group,11315,,4.50,8,Habitat,2063,3095
89008141,Photo,Hairy Woodpecker,Dryobates villosus,,Marya Moosman,2015-04-17,2015,4,17,0,United States,US-ID-059,Idaho,Lemhi,ID - Carmen area,45.2426350,-113.8930106,"",,Unspecified,"","",,,,,,,S23841246,"",,,,,Dryobates villosus,haiwoo,Species,11314,,4.08,12,,2816,2112
613920638,Photo,Hairy Woodpecker,Dryobates villosus,,Margaret Gompper,2024-01-22,2024,1,22,1440,United States,US-WI-067,Wisconsin,Langlade,"45°15'44.1""N 88°44'48.5""W",45.2623672,-88.7468076,Adult Male – 1,Foraging or Eating,Unspecified,"","",,,,,,,S159625519,"",,,Male with extended beak,One visiting Hairy Woodpecker has an extended beak. Photo to be added.,Dryobates villosus,haiwoo,Species,11314,,4.06,16,"",3000,4173
62368751,Photo,Hairy Woodpecker,Dryobates villosus,,Janice Flynn,2016-06-25,2016,6,25,600,Canada,CA-NL-FO,Newfoundland and Labrador,"St. George's-Stephenville",Stephenville--water supply,48.5682998,-58.5767771,Adult Male,,Unspecified,"","",,,,,,,S37914598,"",,,,,Dryobates villosus,haiwoo,Species,11314,,3.93,15,,3456,4608
629187524,Photo,Hairy Woodpecker (Eastern),Dryobates villosus [villosus Group],,Jacob McLaren,2025-01-07,2025,1,7,830,Canada,CA-ON-NU,Ontario,Northumberland,Northumberland Forest between McDonald Trailhead & Woodland Rd,44.1051940,-78.0738587,Adult Male – 1,,Unspecified,"","",,,,,,,S208772931,"",,,,,Dryobates villosus,haiwoo2,Group,11315,,4.43,7,,3175,4776
613590774,Photo,Hairy Woodpecker,Dryobates villosus,,Kyle Gardiner,2024-01-15,2024,1,15,1428,United States,US-DC-001,District of Columbia,District of Columbia,LBJ Memorial Grove - Columbia Island Marina,38.8783386,-77.0510674,"",,Unspecified,"","",,,,,,,S159000717,"",,,,,Dryobates villosus,haiwoo,Species,11314,,4.43,7,,2848,4272
283400401,Photo,Hairy Woodpecker,Dryobates villosus,,Andrew Thomas 🦅🪶,2020-11-27,2020,11,27,900,United States,US-WA-063,Washington,Spokane,"Pine Bluff, Chattaroy",47.8648362,-117.3219439,"",,Unspecified,"","",,,,,,,S76782267,"",,,,,Dryobates villosus,haiwoo,Species,11314,,4.43,7,,3168,4752
204911541,Photo,Hairy Woodpecker (Costa Rican),Dryobates villosus extimus,,Dušan Brinkhuizen,2017-05-06,2017,5,6,0,Costa Rica,CR-C,Cartago,,La Georgina,9.5582003,-83.7239313,"",,Unspecified,"","",,IBC1451656,,,,,S64750602,"",,,"Adult male of the race extimus. Birding tours with www.rockjumperbirding.com Dušan's gallery at www.sapayoa.com. Elevation: 3081 m. Date added to IBC: January 11, 2018.",IBC scientific name: Leuconotopicus villosus extimus.,Dryobates villosus,haiwoo3,Group,11333,,4.43,7,,850,708
198113961,Photo,Hairy Woodpecker,Dryobates villosus,,Laure Wilson Neish,2011-06-30,2011,6,30,730,Canada,CA-BC-OS,British Columbia,Okanagan-Similkameen,Carmi Fire Interpretive Trails,49.4731579,-119.5070887,Juvenile – 1,,Unspecified,"","",,,,,,,S8492104,"",,,,,Dryobates villosus,haiwoo,Species,11314,,4.43,7,,1656,1812
629361670,Photo,Hairy Woodpecker,Dryobates villosus,,Brad Vissia,2025-01-18,2025,1,18,1240,Canada,CA-BC-CO,British Columbia,Central Okanagan,McCulloch X-Country Ski Area,49.7796616,-119.1704454,"",,Unspecified,"","",,,,,,,S209970178,"",,,,,Dryobates villosus,haiwoo,Species,11314,,4.80,5,,2562,3420
618807146,Photo,Hairy Woodpecker,Dryobates villosus,,Greg Courtney,2024-05-05,2024,5,5,1250,United States,US-IA-169,Iowa,Story,North River Valley Park,42.0375483,-93.6023355,"",,Unspecified,"","",,,,,,,S173400166,"",,,,,Dryobates villosus,haiwoo,Species,11314,,4.80,5,,3949,3522
618135809,Photo,Hairy Woodpecker,Dryobates villosus,,Steven Meisel,2024-04-27,2024,4,27,1546,United States,US-MN-007,Minnesota,Beltrami,Lake Bemidji SP,47.5384414,-94.8169041,"",,Unspecified,"","",,,,,,,S170598860,"",,,,,Dryobates villosus,haiwoo,Species,11314,,4.80,5,,5184,3888
614591957,Photo,Hairy Woodpecker (Pacific),Dryobates villosus [harrisi Group],,Liam Hutcheson,2024-02-07,2024,2,7,1506,United States,US-WA-067,Washington,Thurston,Kaiser Wetlands,47.0666378,-122.9585987,"",,Unspecified,"","",,,,,,,S160987791,"",,,,,Dryobates villosus,haiwoo1,Group,11322,,4.80,5,,3012,5355
609666755,Photo,Hairy Woodpecker,Dryobates villosus,,Otto Mayer,2023-10-05,2023,10,5,923,United States,US-WA-041,Washington,Lewis,Mt. Rainier NP--Grove of the Patriarchs,46.7579904,-121.5574202,"",,Unspecified,"","",,,,,,,S151615957,"",,,,,Dryobates villosus,haiwoo,Species,11314,,4.80,5,,3323,3287
560123061,Photo,Hairy Woodpecker,Dryobates villosus,,Justin Flint,2023-03-07,2023,3,7,1245,Canada,CA-BC-FV,British Columbia,Fraser Valley,Great Blue Heron Nature Reserve,49.0963211,-122.0454092,Adult Male – 1,,Unspecified,"","",,,,,,,S130430916,"",,,,3 at feeders 2 in cottonwoods,Dryobates villosus,haiwoo,Species,11314,,4.80,5,,1417,1889
551069351,Photo,Hairy Woodpecker,Dryobates villosus,,carol tuskey,2023-03-29,2023,3,29,1337,United States,US-NC-135,North Carolina,Orange,yard US-North Carolina-Hillsborough-2304 Old Oak Place - 36.052x-79.067,36.0523311,-79.0668654,"",,Unspecified,"","",,,,,,,S132144025,"",,,,,Dryobates villosus,haiwoo,Species,11314,,4.80,5,,3660,4817
543003481,Photo,Hairy Woodpecker,Dryobates villosus,,Todd Fibus,2023-03-07,2023,3,7,848,United States,US-GA-089,Georgia,DeKalb,Murphey Candler Park,33.9102079,-84.3223429,"",,Unspecified,"","",,,,,,,S130394903,"",,,,,Dryobates villosus,haiwoo,Species,11314,,4.80,5,,2160,1728
502915341,Photo,Hairy Woodpecker,Dryobates villosus,,Samuel Stankiewicz,2022-11-11,2022,11,11,920,United States,US-MI-111,Michigan,Midland,Chippewa Nature Center,43.5999888,-84.2918622,"",,Unspecified,"","",,,,,,,S122288344,"",,,,,Dryobates villosus,haiwoo,Species,11314,,4.80,5,,3456,5184
454629341,Photo,Hairy Woodpecker,Dryobates villosus,,Judy Walker,2022-01-25,2022,1,25,850,United States,US-MN-137,Minnesota,St. Louis,Sax-Zim Bog,47.2212004,-92.7009201,Unknown – 1,Foraging or Eating,Unspecified,"","",,,,,,,S101457446,"",,,,,Dryobates villosus,haiwoo,Species,11314,,4.80,5,"",2604,3000
423455691,Photo,Hairy Woodpecker,Dryobates villosus,,Justin Flint,2022-03-08,2022,3,8,1527,Canada,CA-BC-FV,British Columbia,Fraser Valley,Promontory--Bridlewood and Salmon Ridge Trails,49.0952030,-121.9524456,Adult Male – 1,,Unspecified,"","",,,,,,,S104468903,"",,,,,Dryobates villosus,haiwoo,Species,11314,,4.80,5,,2272,1704
395180821,Photo,Hairy Woodpecker,Dryobates villosus,,Susan and Andy Gower/Karassowitsch,2021-12-11,2021,12,11,1138,Canada,CA-BC-CR,British Columbia,Cariboo,Sulphurous Lake,51.6342874,-120.8397388,"",,Unspecified,"","",,,,,,,S98754678,"",,,,,Dryobates villosus,haiwoo,Species,11314,,4.80,5,,2947,2946
374599821,Photo,Hairy Woodpecker,Dryobates villosus,,Charles Fitzpatrick,2021-10-03,2021,10,3,852,Canada,CA-NL-ON,Newfoundland and Labrador,"Avalon Peninsula-St. John's","Blackhead Rd--""Warbler Alley"" area",47.5207221,-52.6453686,"",,Unspecified,"","",,,,,,,S95530474,"",,,,,Dryobates villosus,haiwoo,Species,11314,,4.80,5,,1539,2319
373613321,Photo,Hairy Woodpecker,Dryobates villosus,,Asher  Warkentin,2021-08-31,2021,8,31,713,Canada,CA-MB-EL,Manitoba,Winnipeg,Winnipeg--Assiniboine Park,49.8739509,-97.2314072,Adult Male – 1,,Unspecified,"","",,,,,,,S93987597,"",,,,,Dryobates villosus,haiwoo,Species,11314,,4.80,5,,1855,2840
352198511,Photo,Hairy Woodpecker,Dryobates villosus,,Charles Fitzpatrick,2021-07-03,2021,7,3,940,Canada,CA-NL-ON,Newfoundland and Labrador,"Avalon Peninsula-St. John's",East Coast Trail--Freshwater Bay Access,47.5265095,-52.6974140,"",,Unspecified,"","",,,,,,,S91180745,"",,,,Male continuing in this area...photographed .,Dryobates villosus,haiwoo,Species,11314,,4.80,5,,3299,2564
343434761,Photo,Hairy Woodpecker,Dryobates villosus,,Connor Bowhay,2021-05-29,2021,5,29,940,Canada,CA-AB-EL,Alberta,Edmonton,Terwillegar Park Footbridge gravel path,53.4788138,-113.5943728,"Adult Female – 1; Adult Male – 1",Nest Building,Unspecified,"","",,,,,,,S89220792,"",,,,,Dryobates villosus,haiwoo,Species,11314,,4.80,5,"",1658,2487
321461351,Photo,Hairy Woodpecker,Dryobates villosus,,Aaron Boone,2021-03-30,2021,3,30,1729,United States,US-WV-081,West Virginia,Raleigh,"25843, Ghent US-WV 37.59646, -81.12327",37.5964550,-81.1232680,"",,Unspecified,"","",,,,,,,S84426767,"",,,,,Dryobates villosus,haiwoo,Species,11314,,4.80,5,,1764,2940
317001211,Photo,Hairy Woodpecker,Dryobates villosus,,Gang Wu,2021-03-15,2021,3,15,1521,Canada,CA-ON-OT,Ontario,Ottawa,Ottawa--Stony Swamp (Chipmunk Trail),45.2979619,-75.8211887,"",,Unspecified,"","",,,,,,,S83477114,"",,,,,Dryobates villosus,haiwoo,Species,11314,,4.80,5,,2919,4378
315839051,Photo,Hairy Woodpecker (Rocky Mts.),Dryobates villosus orius/icastus,,Andrew Thomas 🦅🪶,2021-03-11,2021,3,11,1200,United States,US-WA-063,Washington,Spokane,"Pine Bluff, Chattaroy",47.8648362,-117.3219439,"",,Unspecified,"","",,,,,,,S83225131,"",,,,,Dryobates villosus,haiwoo5,Group,11327,,4.80,5,,724,1086
300193891,Photo,Hairy Woodpecker,Dryobates villosus,,Dave HH,2021-01-22,2021,1,22,1045,Canada,CA-ON-TO,Ontario,Toronto,Tommy Thompson Park,43.6282673,-79.3291670,"",,Unspecified,"","",,,,,,,S79703209,"",,,,,Dryobates villosus,haiwoo,Species,11314,,4.80,5,,2112,2816
299894691,Photo,Hairy Woodpecker,Dryobates villosus,,karl  schmidt,2021-01-21,2021,1,21,800,United States,US-NY-003,New York,Allegany,Rushford woods,42.3858341,-78.2519674,"",,Unspecified,"","",,,,,,,S79646712,"",,,,Female,Dryobates villosus,haiwoo,Species,11314,,4.80,5,,1536,2048
294393891,Photo,Hairy Woodpecker (Rocky Mts.),Dryobates villosus orius/icastus,,Richard Bunn,2021-01-03,2021,1,3,920,United States,US-CO-041,Colorado,El Paso,Evergreen Cemetery (CO Springs),38.8169525,-104.7989058,"",,Unspecified,"","",,,,,,,S78638851,"",,,,,Dryobates villosus,haiwoo5,Group,11327,,4.80,5,,2333,3500
247275011,Photo,Hairy Woodpecker,Dryobates villosus,,mark daly,2020-04-11,2020,4,11,800,Canada,CA-BC-GV,British Columbia,Metro Vancouver,Capilano Canyon,49.3426222,-123.1167427,Adult Male – 1,"Flying; Foraging or Eating; Vocalizing",Unspecified,"","",,,,,,,S71097323,"",,,https://natureasart.photoshelter.com,,Dryobates villosus,haiwoo,Species,11314,,4.80,5,"",3700,2606
239330381,Photo,Hairy Woodpecker,Dryobates villosus,,Scott Berglund,2012-03-23,2012,3,23,926,United States,US-MD-027,Maryland,Howard,Patapsco Valley SP--Daniels Area (Howard Co.),39.3150758,-76.8142819,"",,Unspecified,"","",,,,,,,S10246129,"",,,,all interacting in perhaps a territorial dispute,Dryobates villosus,haiwoo,Species,11314,,4.80,5,,1218,879
205873521,Photo,Hairy Woodpecker,Dryobates villosus,,Rémi Bigonneau,2019-09-04,2019,9,4,0,Canada,CA-BC-CP,British Columbia,Capital,East Sooke Regional Park,48.3396494,-123.6720657,Adult Male – 1,,Unspecified,"","",,IBC1609325,,,,,S65182345,"",,,"A male on a trunk. Elevation: 175 m. Date added to IBC: September 8, 2019.",IBC scientific name: Leuconotopicus villosus.,Dryobates villosus,haiwoo,Species,11314,,4.80,5,,1350,900
107431831,Photo,Hairy Woodpecker,Dryobates villosus,,Jim Merritt,2018-07-14,2018,7,14,647,United States,US-CO-041,Colorado,El Paso,Red Rock Canyon Open Space,38.8473432,-104.8811263,"",,Unspecified,"","",,,,,,,S47186866,"",,,,,Dryobates villosus,haiwoo,Species,11314,,4.80,5,,2048,1970
95935981,Photo,Hairy Woodpecker,Dryobates villosus,,Jennifer Allison,2017-09-02,2017,9,2,812,United States,US-AK-122,Alaska,Kenai Peninsula Borough,"Seward--Ava's Place (11560 Salmon Creek Rd.)",60.1455199,-149.4110705,Adult Male,,Unspecified,"","",,,,,,,S38979497,"",,,,,Dryobates villosus,haiwoo,Species,11314,,4.80,5,,3456,2301
83815651,Photo,Hairy Woodpecker,Dryobates villosus,,Ed Harper,2018-01-26,2018,1,26,1330,United States,US-CA-095,California,Solano,Putah Creek--Hwy 128 Bridge (SOL Co.),38.5125206,-122.0956242,Adult Male,,Unspecified,"","",,,,,,,S42331433,"",,,,Photo,Dryobates villosus,haiwoo,Species,11314,,4.80,5,,1024,790
78973691,Photo,Hairy Woodpecker (Eastern),Dryobates villosus [villosus Group],,Alex Lamoreaux,2017-09-09,2017,9,9,635,United States,US-MN-137,Minnesota,St. Louis,Hawk Ridge Nature Reserve,46.8469659,-92.0315212,Female,,Unspecified,"","",,,,,,,S39098630,"",,,,,Dryobates villosus,haiwoo2,Group,11315,,4.80,5,,2475,3703
70912761,Photo,Hairy Woodpecker (Rocky Mts.),Dryobates villosus orius/icastus,,Gregg Goodrich,2017-10-05,2017,10,5,1336,United States,US-CO-035,Colorado,Douglas,Home,39.5519250,-104.9309010,"",,Unspecified,"","",,,,,,,S39569301,"",,,,,Dryobates villosus,haiwoo5,Group,11327,,4.80,5,,2890,2943
69660021,Photo,Hairy Woodpecker,Dryobates villosus,,Michael Bolte,2017-09-22,2017,9,22,1723,United States,US-CA-087,California,Santa Cruz,Natural Bridges SB,36.9523782,-122.0567107,"",,Unspecified,"","",,,,,,,S39340325,"",,,,continuing male and female,Dryobates villosus,haiwoo,Species,11314,,4.80,5,,2326,1868
87452201,Photo,Hairy Woodpecker,Dryobates villosus,,Diane Thériault,2018-02-24,2018,2,24,1342,Canada,CA-QC-CP,Quebec,Longueuil,"Arboretum, Parcs de la Frayère et des Voiles",45.6469012,-73.4426296,Adult Male,"",Unspecified,"","",,,,,,,S43146656,"",,,,,Dryobates villosus,haiwoo,Species,11314,,3.64,36,Watermark,2051,2734
77924011,Photo,Hairy Woodpecker,Dryobates villosus,,Gerald Teig,2017-12-11,2017,12,11,1439,United States,US-DE-003,Delaware,New Castle,Ashland Nature Center and Hawk Watch,39.7970734,-75.6596680,Adult Male,,Unspecified,"","",,,,,,,S41038128,"",,,,,Dryobates villosus,haiwoo,Species,11314,,4.25,8,,1987,1754
52437881,Photo,Hairy Woodpecker,Dryobates villosus,,Tom Frankel,2017-03-26,2017,3,26,1146,United States,US-OH-085,Ohio,Lake,North Chagrin Reservation--Oxbow Lagoon,41.5785297,-81.4162955,"","",Unspecified,"","",,,,,,,S35444245,"",,,,,Dryobates villosus,haiwoo,Species,11314,,3.58,52,Habitat,1587,1587
290969871,Photo,Hairy Woodpecker,Dryobates villosus,,Yves Darveau,2020-12-25,2020,12,25,715,Canada,CA-QC-SAG,Quebec,Saguenay,"Ch. des Puits, Laterrière",48.3375526,-71.1406803,Adult Male – 1,,Unspecified,"","",,,,,,,S77972418,"",,,,,Dryobates villosus,haiwoo,Species,11314,,4.20,10,,5298,3532
122693301,Photo,Hairy Woodpecker (Eastern),Dryobates villosus [villosus Group],,John Sutton,2018-11-09,2018,11,9,1145,United States,US-VT-017,Vermont,Orange,Cookeville Road,44.0314567,-72.3074627,"",,Unspecified,"","",,,,,,,S49783194,"",,,,,Dryobates villosus,haiwoo2,Group,11315,,4.43,7,,2700,1800
46082881,Photo,Hairy Woodpecker,Dryobates villosus,,Robin Roberts,2017-01-18,2017,1,18,800,United States,US-CA-065,California,Riverside,Lake Hemet,33.6666396,-116.6917992,"",,Unspecified,"","",,,,,,,S33814903,"",,,,,Dryobates villosus,haiwoo,Species,11314,,3.68,31,,3888,5184
615651839,Photo,Hairy Woodpecker,Dryobates villosus,,Bob Scheidt,2024-03-04,2024,3,4,1133,United States,US-FL-015,Florida,Charlotte,Babcock-Webb WMA,26.8582653,-81.9401121,"",,Unspecified,"","",,,,,,,S163715470,"",,,,Larger than downy with much large bill.,Dryobates villosus,haiwoo,Species,11314,,4.50,6,,2270,4036
303461961,Photo,Hairy Woodpecker,Dryobates villosus,,Matthew Plante,2021-02-01,2021,2,1,1500,United States,US-OH-089,Ohio,Licking,Park Trails,40.0537932,-82.4896630,"",,Unspecified,"","",,,,,,,S80283739,"",,,,,Dryobates villosus,haiwoo,Species,11314,,4.50,6,,2183,3274
107431861,Photo,Hairy Woodpecker,Dryobates villosus,,Jim Merritt,2018-07-14,2018,7,14,647,United States,US-CO-041,Colorado,El Paso,Red Rock Canyon Open Space,38.8473432,-104.8811263,"",,Unspecified,"","",,,,,,,S47186866,"",,,,,Dryobates villosus,haiwoo,Species,11314,,4.50,6,,2048,1955
59975111,Photo,Hairy Woodpecker,Dryobates villosus,,Bobby Dailey,2017-06-01,2017,6,1,928,Canada,CA-BC-EK,British Columbia,East Kootenay,Gold Creek Mi Casa,49.4749732,-115.7271890,Adult Male,,Unspecified,"","",,,,,,,S37315876,"",,,,,Dryobates villosus,haiwoo,Species,11314,,4.50,6,,1209,1800
345660131,Photo,Hairy Woodpecker,Dryobates villosus,,Dave HH,2021-06-06,2021,6,6,631,Canada,CA-ON-TO,Ontario,Toronto,Toronto--High Park,43.6446469,-79.4625379,"",,Unspecified,"","",,,,,,,S89716751,"",,,,,Dryobates villosus,haiwoo,Species,11314,,4.50,6,,3456,4608
121451951,Photo,Hairy Woodpecker,Dryobates villosus,,Ian Davies,2018-09-16,2018,9,16,651,United States,US-ID-031,Idaho,Cassia,Porcupine Springs,42.1694200,-114.2621200,"",,Unspecified,"","",,,,,,,S48555773,"",,,,,Dryobates villosus,haiwoo,Species,11314,,4.00,11,,1239,2180
61062091,Photo,Hairy Woodpecker,Dryobates villosus,,Mike Reese,2017-06-14,2017,6,14,0,United States,US-WI-071,Wisconsin,Manitowoc,Woodland Dunes SNA,44.1386094,-87.6075554,"","",Unspecified,"","",,,,,,,S37587100,"",,,,I could hear the young making almost constant noise.,Dryobates villosus,haiwoo,Species,11314,,3.59,46,Habitat,768,1024
620833486,Photo,Hairy Woodpecker,Dryobates villosus,,Scott France,2024-06-24,2024,6,24,1015,United States,US-MN-035,Minnesota,Crow Wing,Pelican Lake eastern shore woods (private property),46.5558260,-94.1499459,"",Feeding Young,Unspecified,"","",,,,,,,S183743450,"",,,,,Dryobates villosus,haiwoo,Species,11314,,4.29,7,"",1366,2048
412887121,Photo,Hairy Woodpecker,Dryobates villosus,,Patrice St-Pierre,2022-02-04,2022,2,4,1106,Canada,CA-QC-RM,Quebec,Rimouski-Neigette,"Ch du Rang-Double, Rimouski",48.3877580,-68.3627680,"",Foraging or Eating,Unspecified,"","",,,,,,,S102001175,"",,,,,Dryobates villosus,haiwoo,Species,11314,,4.29,7,"",1450,1167
226179751,Photo,Hairy Woodpecker,Dryobates villosus,,Krista Oswald,2020-04-05,2020,4,5,1123,Canada,CA-ON-MU,Ontario,Muskoka,Canada Home,45.3231765,-79.0999248,"",,Unspecified,"","",,,,,,,S66676360,"",,,,,Dryobates villosus,haiwoo,Species,11314,,4.29,7,,1824,2736
613796520,Photo,Hairy Woodpecker,Dryobates villosus,,Arthur Mercado,2024-01-20,2024,1,20,1047,United States,US-MN-061,Minnesota,Itasca,Lake Winnibigoshish--Bowen Lodge (Sugarbush Point),47.4849754,-94.0874290,"",,Unspecified,"","",,,,,,,S159388747,"",,,,,Dryobates villosus,haiwoo,Species,11314,,4.43,7,,2765,4916
308644601,Photo,Hairy Woodpecker,Dryobates villosus,,Kathy Stewart,2021-02-16,2021,2,16,1240,Canada,CA-BC-FV,British Columbia,Fraser Valley,CA-BC-Kent-Kilby Provincial Park - 49.2369x-121.9622,49.2369330,-121.9621820,Adult Male – 1,Foraging or Eating,Unspecified,"","",,,,,,,S81783841,"",,,Male Hairy Woodpecker,,Dryobates villosus,haiwoo,Species,11314,,4.11,9,"",3456,4608
423114311,Photo,Hairy Woodpecker,Dryobates villosus,,Myron Peterson,2022-03-07,2022,3,7,1314,United States,US-MN-053,Minnesota,Hennepin,Minnesota Valley NWR--Bass Ponds,44.8447900,-93.2300700,"",,Unspecified,"","",,,,,,,S104389611,"",,,,,Dryobates villosus,haiwoo,Species,11314,,4.38,8,,2095,3142
137037641,Photo,Hairy Woodpecker,Dryobates villosus,,Bryan Calk,2019-01-10,2019,1,10,1017,United States,US-NM-028,New Mexico,Los Alamos,Los Alamos,35.8836420,-106.3099510,Adult Female,,Unspecified,"","",,,,,,,S51531487,"",,,,,Dryobates villosus,haiwoo,Species,11314,,4.12,8,,2173,3260
301000651,Photo,Hairy Woodpecker,Dryobates villosus,,Ethan Denton,2021-01-24,2021,1,24,1355,Canada,CA-AB-FN,Alberta,Banff,"Canmore--Policeman's Creek Boardwalk Trail",51.0897987,-115.3557667,Adult Male – 1,,Unspecified,"","",,,,,,,S79852614,"",,,,,Dryobates villosus,haiwoo,Species,11314,,4.50,6,,1325,1990
93694601,Photo,Hairy Woodpecker,Dryobates villosus,,Suzanne Labbé,2018-04-09,2018,4,9,916,Canada,CA-QC-MR,Quebec,Montréal,Domaine St-Paul,45.4546332,-73.5529532,Adult Female,,Unspecified,"","",,,,,,,S44402275,"",,,,,Dryobates villosus,haiwoo,Species,11314,,4.50,6,,1600,1300
61754041,Photo,Hairy Woodpecker,Dryobates villosus,,Larry & Susan,2017-06-20,2017,6,20,900,United States,US-CA-107,California,Tulare,Kings Canyon NP--Redwood Canyon,36.7086037,-118.9210675,"",,Unspecified,"","",,,,,,,S37742393,"",,,,,Dryobates villosus,haiwoo,Species,11314,,3.78,18,,2590,3200
387396711,Photo,Hairy Woodpecker,Dryobates villosus,,Trish Gussler,2021-11-08,2021,11,8,826,United States,US-CA-059,California,Orange,Los Pinos Trailhead--Coulter Pine Grove,33.6726042,-117.4596405,"",,Unspecified,"","",,,,,,,S97467746,"",,,,,Dryobates villosus,haiwoo,Species,11314,,4.00,10,,1548,2103
274537211,Photo,Hairy Woodpecker,Dryobates villosus,,Kalin Ocaña,2020-10-21,2020,10,21,815,Canada,CA-BC-CO,British Columbia,Central Okanagan,Rose Valley Regional Park,49.8916707,-119.5683331,Adult Female – 1,,Unspecified,"","",,,,,,,S75222767,"",,,,,Dryobates villosus,haiwoo,Species,11314,,3.83,24,,3349,4573
511618561,Photo,Hairy Woodpecker (Pacific),Dryobates villosus [harrisi Group],,John F. Gatchet,2022-12-06,2022,12,6,1040,United States,US-WA-031,Washington,Jefferson,832 Gardiner Beach Road my yard,48.0583226,-122.9198055,Adult Male – 1,,Unspecified,"","",,,,,,,S123556019,"",,,Hairy Woodpecker Pacific   Note the yellow outer tail feathers and minimal spotting on the wing feathers,,Dryobates villosus,haiwoo1,Group,11322,,4.29,7,,1395,1181
395187411,Photo,Hairy Woodpecker,Dryobates villosus,,Rain Saulnier,2021-12-11,2021,12,11,1158,Canada,CA-AB-SI,Alberta,Calgary,Fish Creek PP--Bebo Grove,50.9301430,-114.1138744,"",,Unspecified,"","",,,,,,,S98756418,"",,,,,Dryobates villosus,haiwoo,Species,11314,,4.29,7,,720,1080
88945571,Photo,Hairy Woodpecker,Dryobates villosus,,Claude Auchu,2013-01-01,2013,1,1,730,Canada,CA-QC-KA,Quebec,Kamouraska,Rivière-Ouelle,47.4466650,-70.0095606,Adult Female,,Unspecified,"","",,,,,,,S37438729,"",,,,,Dryobates villosus,haiwoo,Species,11314,,3.76,21,,960,1290
628893131,Photo,Hairy Woodpecker,Dryobates villosus,,Enrique Mejía,2023-04-16,2023,4,16,736,Honduras,HN-OC,Ocotepeque,,Res. Biol. El Güisayote,14.4623052,-89.0705395,Male – 1,Foraging or Eating,Unspecified,"","",,,,,,,S133991257,"",,,,,Dryobates villosus,haiwoo,Species,11314,,5.00,4,"",2133,3199
626473428,Photo,Hairy Woodpecker,Dryobates villosus,,Cesar Ponce,2024-10-21,2024,10,21,1248,Canada,CA-ON-TO,Ontario,Toronto,Toronto--James Gardens,43.6710379,-79.5150518,"",,Unspecified,"","",,,,,,,S199819745,"",,,,,Dryobates villosus,haiwoo,Species,11314,,5.00,4,,2985,1990
623321170,Photo,Hairy Woodpecker,Dryobates villosus,,Andrew Whetten,2024-09-04,2024,9,4,814,United States,US-NY-109,New York,Tompkins,Durland Preserve,42.4379956,-76.3979816,"",,Unspecified,"","",,,,,,,S193940315,"",,,,,Dryobates villosus,haiwoo,Species,11314,,5.00,4,,3021,4028
622066686,Photo,Hairy Woodpecker,Dryobates villosus,,Jim Merritt,2024-07-28,2024,7,28,744,United States,US-CO-041,Colorado,El Paso,Stratton Open Space,38.7985137,-104.8655319,"",,Unspecified,"","",,,,,,,S189390548,"",,,,,Dryobates villosus,haiwoo,Species,11314,,5.00,4,,1660,2048
622066685,Photo,Hairy Woodpecker,Dryobates villosus,,Jim Merritt,2024-07-28,2024,7,28,744,United States,US-CO-041,Colorado,El Paso,Stratton Open Space,38.7985137,-104.8655319,"",,Unspecified,"","",,,,,,,S189390548,"",,,,,Dryobates villosus,haiwoo,Species,11314,,5.00,4,,1674,2048
620979964,Photo,Hairy Woodpecker (Pacific),Dryobates villosus [harrisi Group],,D T,2024-06-22,2024,6,22,1229,Canada,CA-BC-CP,British Columbia,Capital,East Sooke Park--Aylard Farm,48.3257266,-123.6382914,"",,Unspecified,"","",,,,,,,S183162402,"",,,,,Dryobates villosus,haiwoo1,Group,11322,,5.00,4,,5504,8256
620896059,Photo,Hairy Woodpecker (Rocky Mts.),Dryobates villosus orius/icastus,,T B,2024-06-27,2024,6,27,515,United States,US-CO-041,Colorado,El Paso,Stratton Open Space,38.7985137,-104.8655319,"",,Unspecified,"","",,,,,,,S184060202,"",,,,Calling.,Dryobates villosus,haiwoo5,Group,11327,,5.00,4,,2448,3264
619752295,Photo,Hairy Woodpecker,Dryobates villosus,,Andrew Thomas 🦅🪶,2024-05-26,2024,5,26,1557,United States,US-WA-063,Washington,Spokane,"Pine Bluff, Chattaroy",47.8648362,-117.3219439,"",,Unspecified,"","",,,,,,,S177636294,"",,,,,Dryobates villosus,haiwoo,Species,11314,,5.00,4,,3666,6207
619542710,Photo,Hairy Woodpecker,Dryobates villosus,,Mary Keleher,2024-05-24,2024,5,24,523,United States,US-MA-001,Massachusetts,Barnstable,Santuit Pond,41.6552018,-70.4597425,"","",Unspecified,"","",,,,,,,S176835166,"",,,Melanistic,Melanistic?,Dryobates villosus,haiwoo,Species,11314,,5.00,4,Aberrant individual,3648,5472
619542709,Photo,Hairy Woodpecker,Dryobates villosus,,Mary Keleher,2024-05-24,2024,5,24,523,United States,US-MA-001,Massachusetts,Barnstable,Santuit Pond,41.6552018,-70.4597425,"","",Unspecified,"","",,,,,,,S176835166,"",,,Melanistic,Melanistic?,Dryobates villosus,haiwoo,Species,11314,,5.00,4,Aberrant individual,3648,5472
619542707,Photo,Hairy Woodpecker,Dryobates villosus,,Mary Keleher,2024-05-24,2024,5,24,523,United States,US-MA-001,Massachusetts,Barnstable,Santuit Pond,41.6552018,-70.4597425,"","",Unspecified,"","",,,,,,,S176835166,"",,,Melanistic,Melanistic?,Dryobates villosus,haiwoo,Species,11314,,5.00,4,Aberrant individual,3186,5100
615595778,Photo,Hairy Woodpecker (Eastern),Dryobates villosus [villosus Group],,Xiaoni Xu,2024-02-26,2024,2,26,1155,United States,US-MN-137,Minnesota,St. Louis,Sax-Zim Bog--Winterberry Bog,47.1720553,-92.5369938,"",,Unspecified,"","",,,,,,,S163016722,"",,,,,Dryobates villosus,haiwoo2,Group,11315,,5.00,4,,3273,4909
615566007,Photo,Hairy Woodpecker,Dryobates villosus,,Kyle Matera,2024-03-02,2024,3,2,1652,United States,US-FL-099,Florida,Palm Beach,John C. and Mariana Jones/Hungryland Wildlife and Environmental Area (Palm Beach County),26.9432930,-80.3206200,Adult Male – 1,,Unspecified,"","",,,,,,,S163506384,"",,,,Scaled-up DOWO with substantially larger bill.  Had a downy nearby for nice comparison. Gave the “sputter” type call a few times. Photos.,Dryobates villosus,haiwoo,Species,11314,,5.00,4,,1409,2114
615264330,Photo,Hairy Woodpecker,Dryobates villosus,,Aarre Ertolahti,2024-02-24,2024,2,24,1522,Canada,CA-ON-TB,Ontario,Thunder Bay,Wishart feeders,48.5528589,-89.2451870,Adult Female – 1,,Unspecified,"","",,,,,,,S162791180,"",,,,,Dryobates villosus,haiwoo,Species,11314,,5.00,4,,2117,2117
613481864,Photo,Hairy Woodpecker,Dryobates villosus,,Andrew Thomas 🦅🪶,2024-01-13,2024,1,13,1455,United States,US-WA-063,Washington,Spokane,"North Conklin Road, Elk",47.9701759,-117.2200244,"",,Unspecified,"","",,,,,,,S158828202,"",,,,,Dryobates villosus,haiwoo,Species,11314,,5.00,4,,2124,1419
611632662,Photo,Hairy Woodpecker,Dryobates villosus,,Zachary Vaughan,2023-11-27,2023,11,27,925,United States,US-PA-003,Pennsylvania,Allegheny,Frick Park Meadow Feeders,40.4369371,-79.9067149,"",,Unspecified,"","",,,,,,,S155330151,"",,,,,Dryobates villosus,haiwoo,Species,11314,,5.00,4,,,
611380275,Photo,Hairy Woodpecker,Dryobates villosus,,Dana Barbato,2023-11-20,2023,11,20,1318,United States,US-NY-085,New York,Richmond,Willowbrook Park,40.6014415,-74.1580582,"",,Unspecified,"","",,,,,,,S154859397,"",,,,Drilling,Dryobates villosus,haiwoo,Species,11314,,5.00,4,,2048,2731
611334183,Photo,Hairy Woodpecker,Dryobates villosus,,Pelin Karaca,2023-11-19,2023,11,19,1259,United States,US-FL-001,Florida,Alachua,Watermelon Pond WEA,29.5803805,-82.6070997,"",,Unspecified,"","",,,,,,,S154815650,"",,,,"Continuing, first record of HAWO in Alachua county  after 5 years, found by Matt and Kaysea Bruce. On the ground with Jose Miguel, later joined by Eric, Tim, and Aurora. It flew across the field towards here: (29.5572161, -82.6115498). It seemed to enjoy the opening in that area, favoring trees surrounding it. Many thanks to Kaysea and Matt for getting the word out so soon, and to Jose Miguel for patiently waiting and helping us relocate it.",Dryobates villosus,haiwoo,Species,11314,,5.00,4,,1090,1385
599581241,Photo,Hairy Woodpecker,Dryobates villosus,,Charles Fitzpatrick,2023-07-31,2023,7,31,831,Canada,CA-NL-ON,Newfoundland and Labrador,"Avalon Peninsula-St. John's",NL--Bellevue--beach/barachois including woods East of main beach,47.6344705,-53.7675622,"",,Unspecified,"","",,,,,,,S146148104,"",,,,An adult female and an immature..photographed,Dryobates villosus,haiwoo,Species,11314,,5.00,4,,2619,2091
578318551,Photo,Hairy Woodpecker,Dryobates villosus,,Nathan Wall,2023-04-20,2023,4,20,1046,United States,US-WA-033,Washington,King,Discovery Park,47.6638680,-122.4215317,Juvenile Male – 1,,Unspecified,"","",,,,,,,S139616624,"",,,,Photo:,Dryobates villosus,haiwoo,Species,11314,,5.00,4,,3524,2349
569658351,Photo,Hairy Woodpecker,Dryobates villosus,,John Mills,2023-05-09,2023,5,9,1716,United States,US-MI-161,Michigan,Washtenaw,Nichols Arboretum,42.2813095,-83.7221074,"",,Unspecified,"","",,,,,,,S136827410,"",,,,,Dryobates villosus,haiwoo,Species,11314,,5.00,4,,2836,2836
569658331,Photo,Hairy Woodpecker,Dryobates villosus,,John Mills,2023-05-09,2023,5,9,1716,United States,US-MI-161,Michigan,Washtenaw,Nichols Arboretum,42.2813095,-83.7221074,"",,Unspecified,"","",,,,,,,S136827410,"",,,,,Dryobates villosus,haiwoo,Species,11314,,5.00,4,,2225,2225
545504341,Photo,Hairy Woodpecker,Dryobates villosus,,Spencer D,2023-03-14,2023,3,14,912,United States,US-ME-003,Maine,Aroostook,Aroostook ME,46.1643709,-68.1204011,Adult Male – 1,"",Unspecified,"","",,,,,,,S130921979,"",,,Found great success with suet pellets! the woodpeckers love them!,,Dryobates villosus,haiwoo,Species,11314,,5.00,4,Habitat,3672,4896
