ML Catalog Number,Format,Common Name,Scientific Name,Background Species,Recordist,Date,Year,Month,Day,Time,Country,Country-State-County,State,County,Locality,Latitude,Longitude,Age/Sex,Behaviors,Playback,Captive,Collected,Specimen ID,Home Archive Catalog Number,Recorder,Microphone,Accessory,Partner Institution,eBird Checklist ID,Unconfirmed,Air Temp(°C),Water Temp(°C),Media notes,Observation Details,Parent Species,eBird Species Code,Taxon Category,Taxonomic Sort,Recordist 2,Average Community Rating,Number of Ratings,Asset Tags,Original Image Height,Original Image Width
412318091,Photo,Merlin,Falco columbarius,,Dorian Anderson,2021-12-02,2021,12,2,915,United States,US-CA-065,California,Riverside,San Jacinto Wildlife Area,33.8854488,-117.1041040,Adult Female – 1,"Carrying Food; Foraging or Eating",Unspecified,"","",,,,,,,S98370558,"",,,,,Falco columbarius,merlin,Species,11947,,4.98,202,"",2990,4483
132158211,Photo,Merlin,Falco columbarius,,Dorian Anderson,2018-12-28,2018,12,28,0,United States,US-CA-065,California,Riverside,San Jacinto Wildlife Area,33.8854488,-117.1041040,"",,Unspecified,"","",,,,,,,S51119335,"",,,,BEST.ENCOUNTER.EVER. Bird demolished prey right in front of me and sat perched for 5 minutes afterwards.,Falco columbarius,merlin,Species,11947,,4.97,210,,1993,2990
132158371,Photo,Merlin,Falco columbarius,,Dorian Anderson,2018-12-28,2018,12,28,0,United States,US-CA-065,California,Riverside,San Jacinto Wildlife Area,33.8854488,-117.1041040,"",,Unspecified,"","",,,,,,,S51119335,"",,,,BEST.ENCOUNTER.EVER. Bird demolished prey right in front of me and sat perched for 5 minutes afterwards.,Falco columbarius,merlin,Species,11947,,4.97,114,,2989,2391
131284571,Photo,Merlin (Taiga),Falco columbarius columbarius,,Brian Sullivan,2018-12-26,2018,12,26,1001,United States,US-CA-069,California,San Benito,Lake Rd. (SBT. Co.),36.9470719,-121.4487076,Adult Male,,Unspecified,"","",,,,,,,S50969396,"",,,,,Falco columbarius,taimer1,Group,11955,,4.94,159,,3000,5000
359173731,Photo,Merlin,Falco columbarius,,Nick Saunders,2021-08-05,2021,8,5,948,Canada,CA-SK-EL,Saskatchewan,Saskatoon,Saskatoon--Hyde Park (includes Trounce Pond),52.0959744,-106.5628356,"",,Unspecified,"","",,,,,,,S92807312,"",,,,All juveniles,Falco columbarius,merlin,Species,11947,,4.94,160,,859,1300
132158471,Photo,Merlin,Falco columbarius,,Dorian Anderson,2018-12-28,2018,12,28,0,United States,US-CA-065,California,Riverside,San Jacinto Wildlife Area,33.8854488,-117.1041040,"",,Unspecified,"","",,,,,,,S51119335,"",,,,BEST.ENCOUNTER.EVER. Bird demolished prey right in front of me and sat perched for 5 minutes afterwards.,Falco columbarius,merlin,Species,11947,,4.99,92,,3024,2419
81230531,Photo,Merlin (Prairie),Falco columbarius richardsonii,,Robb Hinds,2018-01-07,2018,1,7,845,United States,US-CO-041,Colorado,El Paso,Hanover Fire Station area,38.5769500,-104.4604800,"",,Unspecified,"","",,,,,,,S41752384,"",,,,,Falco columbarius,pramer1,Group,11956,,4.91,163,,1348,1206
132158301,Photo,Merlin,Falco columbarius,,Dorian Anderson,2018-12-28,2018,12,28,0,United States,US-CA-065,California,Riverside,San Jacinto Wildlife Area,33.8854488,-117.1041040,"",,Unspecified,"","",,,,,,,S51119335,"",,,,BEST.ENCOUNTER.EVER. Bird demolished prey right in front of me and sat perched for 5 minutes afterwards.,Falco columbarius,merlin,Species,11947,,4.99,77,,2136,3204
185558461,Photo,Merlin (Taiga),Falco columbarius columbarius,,Max McCarthy,2019-11-02,2019,11,2,910,United States,US-MA-009,Massachusetts,Essex,Eastern Point--General Area,42.5847513,-70.6572351,"",,Unspecified,"","",,,,,,,S61112011,"",,,,Caught a Song Sparrow and ate it right in front of us.,Falco columbarius,taimer1,Group,11955,,4.93,107,,1280,2048
475054901,Photo,Merlin (Black),Falco columbarius suckleyi,,Frank Lin,2022-08-10,2022,8,10,1615,Canada,CA-BC-GV,British Columbia,Metro Vancouver,Stanley Park--Lost Lagoon,49.2956320,-123.1403017,"","Carrying Food; Flying",Unspecified,"","",,,,,,,S116699840,"",,,,Hunting dragonflies on the east side of the Lagoon,Falco columbarius,blkmer1,Group,11957,,4.91,129,"",1582,2373
604971121,Photo,Merlin,Falco columbarius,,Amanda Guercio,2023-08-11,2023,8,11,700,Canada,CA-NT-FS,Northwest Territories,Fort Smith,NWT--Hay River Territorial Park,60.8632070,-115.7419260,"",,Unspecified,"","",,,,,,,S147005705,"",,,,,Falco columbarius,merlin,Species,11947,,5.00,61,,3546,5319
475054921,Photo,Merlin (Black),Falco columbarius suckleyi,,Frank Lin,2022-08-10,2022,8,10,1615,Canada,CA-BC-GV,British Columbia,Metro Vancouver,Stanley Park--Lost Lagoon,49.2956320,-123.1403017,"",Flying,Unspecified,"","",,,,,,,S116699840,"",,,,Hunting dragonflies on the east side of the Lagoon,Falco columbarius,blkmer1,Group,11957,,4.97,69,"",2143,3214
490567061,Photo,Merlin,Falco columbarius,,N KC,2022-10-03,2022,10,3,606,United States,US-AL-097,Alabama,Mobile,Dauphin Island--Pelican Island,30.2385292,-88.1218529,"",,Unspecified,"","",,,,,,,S119920646,"",,,,Came in very low and fast over the marsh and scattered the shorebirds I was photographing. Very cool experience!,Falco columbarius,merlin,Species,11947,,4.97,68,,1338,2008
427477501,Photo,Merlin,Falco columbarius,,Mark Chappell,2017-10-16,2017,10,16,910,United States,US-CA-065,California,Riverside,San Jacinto Wildlife Area,33.8854488,-117.1041040,"",,Unspecified,"","",,,,,,,S105339153,"",,,,"small falcon with indistinct face pattern, heavily streaked below, strongly banded tail.  Brownish above.   Eating common green darner and blue-eyed darner dragonflies.",Falco columbarius,merlin,Species,11947,,5.00,55,,1598,2566
512518041,Photo,Merlin,Falco columbarius,,Brad Imhoff,2022-12-12,2022,12,12,1033,United States,US-OH-089,Ohio,Licking,Infirmary Mound Park,40.0234743,-82.5209667,"",,Unspecified,"","",,,,,,,S123861497,"",,,,,Falco columbarius,merlin,Species,11947,,4.94,71,,2225,3336
238785091,Photo,Merlin,Falco columbarius,,Yash Kothiala,2017-12-27,2017,12,27,900,India,IN-RJ-JS,Rajasthan,Jaisalmer,Netsi Lake,27.2946521,70.5019432,"",,Unspecified,"","",,,,,,,S68848248,"",,,,,Falco columbarius,merlin,Species,11947,,4.90,84,,1201,1800
191094531,Photo,Merlin (Prairie),Falco columbarius richardsonii,,Matthew Pendleton,2019-12-02,2019,12,2,950,United States,US-UT-057,Utah,Weber,West Weber -- North 8300 W,41.2863114,-112.1805140,Adult – 1,Foraging or Eating,Unspecified,"","",,,,,,,S61937535,"",,,,,Falco columbarius,pramer1,Group,11956,,4.91,77,"",3571,2381
164941601,Photo,Merlin,Falco columbarius,,Dorian Anderson,2015-11-17,2015,11,17,1500,United States,US-CA-065,California,Riverside,San Jacinto Wildlife Area,33.8854488,-117.1041040,"",,Unspecified,"","",,,,,,,S57520999,"",,,,,Falco columbarius,merlin,Species,11947,,5.00,48,,3021,4531
264076021,Photo,Merlin (Taiga),Falco columbarius columbarius,Sitta canadensis -- Red-breasted Nuthatch,Sam Zhang,2020-09-19,2020,9,19,606,United States,US-MA-009,Massachusetts,Essex,Parker River NWR,42.7639008,-70.8022995,Adult Female – 1,"Flying; Foraging or Eating",Unspecified,"","",,,,,,,S73807257,"",,,,,Falco columbarius,taimer1,Group,11955,,4.92,59,"",1152,2050
52764491,Photo,Merlin,Falco columbarius,,Darren Clark,2014-02-22,2014,2,22,1400,United States,US-ID-051,Idaho,Jefferson,Roberts Boat Launch,43.7233963,-112.0862103,"",,Unspecified,"","",,,,,,,S30588559,"",,,,,Falco columbarius,merlin,Species,11947,,4.92,48,,1006,1500
608542212,Photo,Merlin,Falco columbarius,,Geoff Malosh,2023-09-02,2023,9,2,1810,United States,US-MI-033,Michigan,Chippewa,Whitefish Point,46.7706876,-84.9569493,"",,Unspecified,"","",,,,,,,S148830177,"",,,"With juv Baird's Sandpiper as prey","Took one of the Baird's; photos to add. This was about 15 mins after I left the Baird's flock (above). It landed right behind me and sat there for at least 5 minutes.",Falco columbarius,merlin,Species,11947,,4.91,46,,2200,3300
475054911,Photo,Merlin (Black),Falco columbarius suckleyi,,Frank Lin,2022-08-10,2022,8,10,1615,Canada,CA-BC-GV,British Columbia,Metro Vancouver,Stanley Park--Lost Lagoon,49.2956320,-123.1403017,"","Carrying Food; Flying",Unspecified,"","",,,,,,,S116699840,"",,,,Hunting dragonflies on the east side of the Lagoon,Falco columbarius,blkmer1,Group,11957,,4.97,36,"",1363,2044
47732281,Photo,Merlin (Taiga),Falco columbarius columbarius,,Tim Lenz,2017-02-05,2017,2,5,1126,United States,US-NY-099,New York,Seneca,Van Cleef Lake,42.9117200,-76.7938600,"",,Unspecified,"","",,,,,,,S34212099,"",,,,,Falco columbarius,taimer1,Group,11955,,4.78,79,,3024,2418
617456137,Photo,Merlin,Falco columbarius,,Manny Salas,2024-04-12,2024,4,12,1034,United States,US-MI-061,Michigan,Houghton,Lake Linden Sewage Ponds,47.1859793,-88.4002876,"",,Unspecified,"","",,,,,,,S168258635,"",,,,,Falco columbarius,merlin,Species,11947,,4.92,40,,1415,2122
614629054,Photo,Merlin,Falco columbarius,,Michael Linz,2024-02-09,2024,2,9,1527,United States,US-AR-115,Arkansas,Pope,Atkins Bottoms,35.2096281,-92.9107046,"",,Unspecified,"","",,,,,,,S161047236,"",,,,,Falco columbarius,merlin,Species,11947,,5.00,32,,2732,4096
83938031,Photo,Merlin,Falco columbarius,,Alan Schroeder,2018-01-11,2018,1,11,956,United States,US-MA-009,Massachusetts,Essex,Parker River NWR--Hellcat Dunes Loop,42.7445579,-70.7955307,"",,Unspecified,"","",,,,,,,S41822817,"",,,,,Falco columbarius,merlin,Species,11947,,4.83,54,,1893,2918
287744481,Photo,Merlin,Falco columbarius,,Brian Stahls,2020-12-13,2020,12,13,745,Canada,CA-ON-TO,Ontario,Toronto,Tommy Thompson Park,43.6282673,-79.3291670,"",,Unspecified,"","",,,,,,,S77441138,"",,,,,Falco columbarius,merlin,Species,11947,,4.86,49,,1515,2271
617456604,Photo,Merlin,Falco columbarius,,Manny Salas,2024-04-12,2024,4,12,1034,United States,US-MI-061,Michigan,Houghton,Lake Linden Sewage Ponds,47.1859793,-88.4002876,"",,Unspecified,"","",,,,,,,S168258635,"",,,,,Falco columbarius,merlin,Species,11947,,4.88,43,,3182,4773
259478091,Photo,Merlin,Falco columbarius,,Paul Jones,2020-09-01,2020,9,1,740,Canada,CA-ON-PE,Ontario,Prince Edward,PEC - Royal Road,43.9067053,-77.0840960,"",,Unspecified,"","",,,,,,,S73073980,"",,,,Killed a Mourning Dove.,Falco columbarius,merlin,Species,11947,,4.83,48,,1667,2500
40935581,Photo,Merlin (Taiga),Falco columbarius columbarius,,Jonathan Eckerson,2016-11-23,2016,11,23,701,United States,US-MA-005,Massachusetts,Bristol,Barneys Joy,41.5236159,-70.9894681,"",,Unspecified,"","",,,,,,,S32683082,"",,,,Flying around near the tip.,Falco columbarius,taimer1,Group,11955,,4.84,45,,1647,2470
387241181,Photo,Merlin,Falco columbarius,,Derek Lecy,2021-11-11,2021,11,11,908,United States,US-CA-041,California,Marin,Las Gallinas Valley Sanitary District,38.0274109,-122.5155830,"",,Unspecified,"","",,,,,,,S97441506,"",,,,"Good looks at far SE section of property, in pines. Presumed adult male zoomed over heading west and this bird called repeatedly at it.",Falco columbarius,merlin,Species,11947,,4.86,42,,1619,2429
258521561,Photo,Merlin,Falco columbarius,,Ed McAskill,2020-08-28,2020,8,28,900,Canada,CA-ON-DR,Ontario,Durham,Lynde Shores CA--Cranberry Marsh,43.8429460,-78.9643440,"",,Unspecified,"","",,,,,,,S72916253,"",,,,,Falco columbarius,merlin,Species,11947,,4.94,32,,2400,3000
608542225,Photo,Merlin,Falco columbarius,,Geoff Malosh,2023-09-02,2023,9,2,1810,United States,US-MI-033,Michigan,Chippewa,Whitefish Point,46.7706876,-84.9569493,"",,Unspecified,"","",,,,,,,S148830177,"",,,"With juv Baird's Sandpiper as prey","Took one of the Baird's; photos to add. This was about 15 mins after I left the Baird's flock (above). It landed right behind me and sat there for at least 5 minutes.",Falco columbarius,merlin,Species,11947,,5.00,27,,2100,3150
612912430,Photo,Merlin (Taiga),Falco columbarius columbarius,,Quinn Diaz,2023-12-31,2023,12,31,1638,United States,US-UT-043,Utah,Summit,"I-80 W, Park City US-UT 40.75520, -111.57411",40.7552030,-111.5741100,"",,Unspecified,"","",,,,,,,S157669245,"",,,,,Falco columbarius,taimer1,Group,11955,,5.00,26,,4039,6059
364033181,Photo,Merlin (Prairie),Falco columbarius richardsonii,,Ethan Denton,2021-08-25,2021,8,25,1741,Canada,CA-AB-SI,Alberta,Calgary,Calgary--Bowness Park,51.0981500,-114.2201900,"",,Unspecified,"","",,,,,,,S93735215,"",,,,,Falco columbarius,pramer1,Group,11956,,4.73,63,,2132,3411
366542901,Photo,Merlin,Falco columbarius,,Matt Mason,2021-09-04,2021,9,4,638,United States,US-OH-119,Ohio,Muskingum,Dillon SP--Beach and Trails,40.0174179,-82.1171701,"",,Unspecified,"","",,,,,,,S94159667,"",,,,Continuing bird from yesterday five of us watched it snag a barn swallow and feed.  Will add some photos to my checklist.,Falco columbarius,merlin,Species,11947,,4.79,48,,1351,2026
625246101,Photo,Merlin,Falco columbarius,,Beatrix Pond,2024-10-21,2024,10,21,714,United States,US-MN-139,Minnesota,Scott,Murphy-Hanrehan Park Reserve--Minnregs Lake Trails,44.6907110,-93.3180980,"",,Unspecified,"","",,,,,,,S199761244,"",,,,,Falco columbarius,merlin,Species,11947,,4.75,52,,3106,4657
612912436,Photo,Merlin (Taiga),Falco columbarius columbarius,,Quinn Diaz,2023-12-31,2023,12,31,1638,United States,US-UT-043,Utah,Summit,"I-80 W, Park City US-UT 40.75520, -111.57411",40.7552030,-111.5741100,"",,Unspecified,"","",,,,,,,S157669245,"",,,,,Falco columbarius,taimer1,Group,11955,,4.96,26,,4555,6833
611658573,Photo,Merlin,Falco columbarius,,Mark Penkower,2023-11-27,2023,11,27,746,United States,US-FL-009,Florida,Brevard,T.M. Goodwin WMA--Original Unit,27.8452341,-80.7252359,"",,Unspecified,"","",,,,,,,S155368023,"",,,,,Falco columbarius,merlin,Species,11947,,4.96,26,,3241,2911
272996191,Photo,Merlin,Falco columbarius,,Foster Wang,2020-10-20,2020,10,20,745,United States,US-DC-001,District of Columbia,District of Columbia,Kenilworth Park and Aquatic Gardens,38.9133204,-76.9443433,"",,Unspecified,"","",,,,,,,S75154228,"",,,,,Falco columbarius,merlin,Species,11947,,4.73,51,,1154,2051
184316821,Photo,Merlin,Falco columbarius,,Brian Stahls,2019-10-26,2019,10,26,728,Canada,CA-ON-TO,Ontario,Toronto,Tommy Thompson Park,43.6282673,-79.3291670,"",,Unspecified,"","",,,,,,,S60944353,"",,,,,Falco columbarius,merlin,Species,11947,,4.90,29,,3487,5231
298022961,Photo,Merlin,Falco columbarius,,Frédérick Lelièvre,2021-01-15,2021,1,15,1500,Canada,CA-QC-QU,Quebec,Québec,Rue des Autochtones,46.9009180,-71.2954010,"",,Unspecified,"","",,,,,,,S79286069,"",,,,,Falco columbarius,merlin,Species,11947,,4.70,56,,3413,5120
209806861,Photo,Merlin,Falco columbarius,,Jim Merritt,2020-02-16,2020,2,16,927,United States,US-CO-101,Colorado,Pueblo,Lake Pueblo SP--North Shore Marina,38.2716515,-104.7658396,"",,Unspecified,"","",,,,,,,S64625430,"",,,,,Falco columbarius,merlin,Species,11947,,4.89,28,,9876,10000
318172091,Photo,Merlin,Falco columbarius,,Liam Huber,2021-03-19,2021,3,19,918,United States,US-CA-101,California,Sutter,Sutter NWR,39.0842382,-121.7576981,"",,Unspecified,"","",,,,,,,S83688721,"",,,,,Falco columbarius,merlin,Species,11947,,4.75,44,,1221,2015
609037586,Photo,Merlin,Falco columbarius,,Neo Morpheus,2023-09-19,2023,9,19,1513,United States,US-FL-086,Florida,Miami-Dade,Homestead Racetrack fields,25.4627658,-80.4036999,"",,Unspecified,"","",,,,,,,S150314484,"",,,,,Falco columbarius,merlin,Species,11947,,4.92,25,,2279,4051
437837891,Photo,Merlin,Falco columbarius,,Patrick Maurice,2022-04-16,2022,4,16,1033,United States,US-FL-087,Florida,Monroe,Dry Tortugas NP--Garden Key,24.6276000,-82.8728000,"",,Unspecified,"","",,,,,,,S107225405,"",,,,,Falco columbarius,merlin,Species,11947,,4.74,42,,2650,3969
136654301,Photo,Merlin,Falco columbarius,,Ian Davies,2009-02-16,2009,2,16,1055,United States,US-DC-001,District of Columbia,District of Columbia,East Potomac Park--Hains Pt.,38.8731100,-77.0257888,"",,Unspecified,"","",,,,,,,S4629281,"",,,,,Falco columbarius,merlin,Species,11947,,4.80,35,,2239,3334
302357331,Photo,Merlin,Falco columbarius,,David R. Scott,2021-01-29,2021,1,29,923,Canada,CA-AB-TW,Alberta,Lethbridge,Lethbridge--Nicholas Sheran Park,49.6699332,-112.8807020,"",,Unspecified,"","",,,,,,,S80077850,"",,,,Feeding on a European Starling.,Falco columbarius,merlin,Species,11947,,4.75,36,,2759,3679
429903131,Photo,Merlin,Falco columbarius,,Pavel Štěpánek,2022-02-12,2022,2,12,700,Czech Republic,CZ-JM,Jihomoravský kraj,,Pohořelice,48.9843468,16.5504073,"",,Unspecified,"","",,,,,,,S105839039,"",,,,,Falco columbarius,merlin,Species,11947,,4.76,38,,2816,3800
76826551,Photo,Merlin,Falco columbarius,,Jerry Ting,2017-11-22,2017,11,22,1140,United States,US-CA-001,California,Alameda,Coyote Hills Regional Park,37.5537640,-122.0875025,"",,Unspecified,"","",,,,,,,S40675597,"",,,,,Falco columbarius,merlin,Species,11947,,4.92,24,,1100,1600
616397122,Photo,Merlin,Falco columbarius,,Sarah Hobart,2024-03-23,2024,3,23,941,United States,US-CA-023,California,Humboldt,Arcata Bottoms--V St. Loop,40.8647280,-124.1209670,"",,Unspecified,"","",,,,,,,S165767468,"",,,,,Falco columbarius,merlin,Species,11947,,5.00,20,,2927,2493
507918981,Photo,Merlin (Prairie),Falco columbarius richardsonii,,Owen Sinkus,2022-11-27,2022,11,27,1008,United States,US-NM-001,New Mexico,Bernalillo,Masthead Greenbelt Arroyo & Journal Center Office Park,35.1665509,-106.5890302,"",,Unspecified,"","",,,,,,,S123113444,"",,,,Light tan plumage. Pics.,Falco columbarius,pramer1,Group,11956,,4.77,35,,3663,2442
609037587,Photo,Merlin,Falco columbarius,,Neo Morpheus,2023-09-19,2023,9,19,1513,United States,US-FL-086,Florida,Miami-Dade,Homestead Racetrack fields,25.4627658,-80.4036999,"",,Unspecified,"","",,,,,,,S150314484,"",,,,,Falco columbarius,merlin,Species,11947,,4.91,23,,3926,2617
611214264,Photo,Merlin,Falco columbarius,,Mel Senac,2023-11-16,2023,11,16,954,United States,US-CA-073,California,San Diego,Ramona Grasslands Preserve--Wildflower Loop,33.0370182,-116.9505658,"",,Unspecified,"","",,,,,,,S154592163,"",,,,,Falco columbarius,merlin,Species,11947,,4.95,21,,2414,2095
628632373,Photo,Merlin,Falco columbarius,,ANN PETTIGREW,2024-04-15,2024,4,15,936,United States,US-TX-071,Texas,Chambers,Anahuac NWR (UTC 049),29.6148414,-94.5344353,"",,Unspecified,"","",,,,,,,S168784112,"",,,,,Falco columbarius,merlin,Species,11947,,5.00,19,,1154,1600
289405691,Photo,Merlin,Falco columbarius,,Kaleb Friend,2020-12-19,2020,12,19,817,United States,US-DC-001,District of Columbia,District of Columbia,Kenilworth Park and Aquatic Gardens,38.9133204,-76.9443433,"",,Unspecified,"","",,,,,,,S77712159,"",,,,,Falco columbarius,merlin,Species,11947,,5.00,19,,1785,3111
272848911,Photo,Merlin,Falco columbarius,,Andrew Boycott,2020-09-19,2020,9,19,1200,Canada,CA-BC-GV,British Columbia,Metro Vancouver,Reifel Bird Sanctuary,49.1000000,-123.1850000,"",,Unspecified,"","",,,,,,,S75126516,"",,,,,Falco columbarius,merlin,Species,11947,,4.91,22,,1365,2048
274674851,Photo,Merlin,Falco columbarius,,Darren Clark,2020-10-26,2020,10,26,830,United States,US-ID-065,Idaho,Madison,Cartier Slough WMA,43.8146699,-111.9331388,"",,Unspecified,"","",,,,,,,S75431371,"",,,,,Falco columbarius,merlin,Species,11947,,5.00,18,,2000,3000
114179891,Photo,Merlin,Falco columbarius,,Keenan Yakola,2018-05-10,2018,5,10,558,United States,US-ME-013,Maine,Knox,Seal Island NWR (island vicinity ONLY),43.8894651,-68.7374814,"",,Unspecified,"","",,,,,,,S45536688,"",,,,,Falco columbarius,merlin,Species,11947,,5.00,18,,3648,5472
626724054,Photo,Merlin (Taiga),Falco columbarius columbarius,,Andrew Newmark,2024-11-25,2024,11,25,725,United States,US-CA-073,California,San Diego,Seacoast Drive to Tijuana River mouth,32.5665347,-117.1322003,"",,Unspecified,"","",,,,,,,S203627484,"",,,,,Falco columbarius,taimer1,Group,11955,,5.00,17,,2974,4461
617227711,Photo,Merlin,Falco columbarius,,Grzegorz Długosz,2023-06-27,2023,6,27,1310,Iceland,IS-6,Norðurland eystra,,"660, Mývatn IS-Norðurland eystra 65.59690, -17.05612",65.5969050,-17.0561210,Adult Male – 1,,Unspecified,"","",,,,,,,S142856642,"",,,,,Falco columbarius,merlin,Species,11947,,5.00,17,,2010,3013
621649417,Photo,Merlin,Falco columbarius,,Anne Inga,2024-07-19,2024,7,19,730,United States,US-VT-007,Vermont,Chittenden,"Thompson's Point",44.2686204,-73.3019399,"",,Unspecified,"","",,,,,,,S187781025,"",,,,Two adult and two immature birds near nesting site.  Intermittently saw individuals and all four simultaneously.,Falco columbarius,merlin,Species,11947,,4.94,18,,1569,1736
480387311,Photo,Merlin,Falco columbarius,,Ryan Sanderson,2022-09-01,2022,9,1,715,United States,US-IN-011,Indiana,Boone,Lebanon Sod Farm,40.0793646,-86.5374532,Adult – 1,,Unspecified,"","",,,,,,,S117906346,"",,,,,Falco columbarius,merlin,Species,11947,,4.94,18,,4640,6960
429902951,Photo,Merlin,Falco columbarius,,Pavel Štěpánek,2022-02-12,2022,2,12,700,Czech Republic,CZ-JM,Jihomoravský kraj,,Pohořelice,48.9843468,16.5504073,"",,Unspecified,"","",,,,,,,S105839039,"",,,,,Falco columbarius,merlin,Species,11947,,4.94,18,,2788,3800
232254721,Photo,Merlin,Falco columbarius,,Aseem Kothiala,2017-12-27,2017,12,27,900,India,IN-RJ-JS,Rajasthan,Jaisalmer,Netsi Lake,27.2946521,70.5019432,Adult Male – 1,,Unspecified,"","",,,,,,,S68647646,"",,,,,Falco columbarius,merlin,Species,11947,,4.86,21,,1200,1800
399122671,Photo,Merlin,Falco columbarius,,Mel Green,2021-12-24,2021,12,24,654,United States,US-NC-055,North Carolina,Dare,Cape Hatteras NS--Salt Pond,35.2300561,-75.5322504,"",,Unspecified,"","",,,,,,,S99357731,"",,,,,Falco columbarius,merlin,Species,11947,,4.82,22,,2475,3713
487552721,Photo,Merlin,Falco columbarius,,Patrick Maurice,2022-09-15,2022,9,15,745,United States,US-NJ-009,New Jersey,Cape May,Cape Island--CMPSP--Hawkwatch Platform,38.9328558,-74.9579416,"",,Unspecified,"","",,,,,,,S118806135,"",,,,,Falco columbarius,merlin,Species,11947,,4.53,58,,2451,3577
429902811,Photo,Merlin,Falco columbarius,,Pavel Štěpánek,2022-02-12,2022,2,12,700,Czech Republic,CZ-JM,Jihomoravský kraj,,Pohořelice,48.9843468,16.5504073,"",,Unspecified,"","",,,,,,,S105839039,"",,,,,Falco columbarius,merlin,Species,11947,,5.00,16,,2800,3675
114839631,Photo,Merlin,Falco columbarius,,Darren Clark,2018-09-13,2018,9,13,900,United States,US-ID-043,Idaho,Fremont,"sealy's",44.0338040,-111.5661810,"",,Unspecified,"","",,,,,,,S48481530,"",,,,,Falco columbarius,merlin,Species,11947,,5.00,16,,1875,2500
63348611,Photo,Merlin,Falco columbarius,,Simon Best,2017-02-23,2017,2,23,724,United States,US-MD-005,Maryland,Baltimore,Lombard St. stormwater pond (restricted access),39.2948751,-76.5452120,"",,Unspecified,"","",,,,,,,S34663258,"",,,,Perched on snag surveying open field.,Falco columbarius,merlin,Species,11947,,4.89,19,,1929,2373
622807778,Photo,Merlin,Falco columbarius,Sitta canadensis -- Red-breasted Nuthatch,Paul Jones,2024-08-22,2024,8,22,700,Canada,CA-ON-PE,Ontario,Prince Edward,Point Petre Provincial Wildlife Area--Point Petre,43.8421416,-77.1536565,Juvenile – 1,"Flying; Foraging or Eating",Unspecified,"","",,,,,,,S192370228,"",,,Hunting night migrants heading back to shore at dawn.,"Hunting migrating passerines off the SW tip. Two tag-teamed a Red-breasted Nuthatch and twice drove it into the water, but it still made it safely to shore.",Falco columbarius,merlin,Species,11947,,4.75,24,"",2667,4000
480387421,Photo,Merlin,Falco columbarius,,Ryan Sanderson,2022-09-01,2022,9,1,715,United States,US-IN-011,Indiana,Boone,Lebanon Sod Farm,40.0793646,-86.5374532,Adult – 1,,Unspecified,"","",,,,,,,S117906346,"",,,,,Falco columbarius,merlin,Species,11947,,4.94,17,,4289,4289
120159771,Photo,Merlin (Black),Falco columbarius suckleyi,,John Garrett,2018-10-21,2018,10,21,700,United States,US-CA-075,California,San Francisco,"Southeast Farallon Island (Farallon Islands NWR, restricted access)",37.6985200,-123.0027890,"",,Unspecified,"","",,,,,,,S49361424,"",,,,,Falco columbarius,blkmer1,Group,11957,,4.94,17,,2468,3701
51619781,Photo,Merlin,Falco columbarius,,"Alix d'Entremont",2012-08-07,2012,8,7,2000,Canada,CA-NS-YA,Nova Scotia,Yarmouth,"NS--Yar--West Pubnico--Anthony d'Eon's House",43.6416656,-65.8094734,"",,Unspecified,"","",,,,,,,S17756772,"",,,,,Falco columbarius,merlin,Species,11947,,4.94,17,,1747,2520
264079371,Photo,Merlin (Black),Falco columbarius suckleyi,,Joachim Bertrands | Ornis Birding Expeditions,2020-09-19,2020,9,19,1410,Canada,CA-BC-CP,British Columbia,Capital,Sooke--Whiffin Spit Park,48.3590448,-123.7175942,"",,Unspecified,"","",,,,,,,S73798275,"",,,,,Falco columbarius,blkmer1,Group,11957,,4.79,24,,1414,2164
364031441,Photo,Merlin (Prairie),Falco columbarius richardsonii,,Ethan Denton,2021-08-25,2021,8,25,1741,Canada,CA-AB-SI,Alberta,Calgary,Calgary--Bowness Park,51.0981500,-114.2201900,"",,Unspecified,"","",,,,,,,S93735215,"",,,,,Falco columbarius,pramer1,Group,11956,,4.85,20,,1881,2822
512518051,Photo,Merlin,Falco columbarius,,Brad Imhoff,2022-12-12,2022,12,12,1033,United States,US-OH-089,Ohio,Licking,Infirmary Mound Park,40.0234743,-82.5209667,"",,Unspecified,"","",,,,,,,S123861497,"",,,,,Falco columbarius,merlin,Species,11947,,5.00,15,,1631,2446
413836501,Photo,Merlin,Falco columbarius,,Sharif Uddin,2022-02-06,2022,2,6,1530,United States,US-CA-037,California,Los Angeles,Antelope Valley--110th St. E at E Ave. I,34.7044350,-117.9337692,"",Flying,Unspecified,"","",,,,,,,S102190674,"",,,,,Falco columbarius,merlin,Species,11947,,5.00,15,"",1615,2423
187453331,Photo,Merlin,Falco columbarius,,Joel McNeal,2019-11-07,2019,11,7,1026,United States,US-GA-015,Georgia,Bartow,Brandon Farm & Taff Rd.,34.0974841,-84.9066460,"","Flying; Foraging or Eating",Unspecified,"","",,,,,,,S61252391,"",,,,,Falco columbarius,merlin,Species,11947,,5.00,15,"",2400,3200
608542168,Photo,Merlin,Falco columbarius,,Geoff Malosh,2023-09-02,2023,9,2,1810,United States,US-MI-033,Michigan,Chippewa,Whitefish Point,46.7706876,-84.9569493,"",,Unspecified,"","",,,,,,,S148830177,"",,,"With juv Baird's Sandpiper as prey","Took one of the Baird's; photos to add. This was about 15 mins after I left the Baird's flock (above). It landed right behind me and sat there for at least 5 minutes.",Falco columbarius,merlin,Species,11947,,5.00,15,,1700,2550
615793550,Photo,Merlin,Falco columbarius,,Patrice St-Pierre,2024-03-08,2024,3,8,615,Canada,CA-QC-RM,Quebec,Rimouski-Neigette,"Rue Léonard, Rimouski",48.4571637,-68.5145717,"",,Unspecified,"","",,,,,,,S164131395,"",,,,,Falco columbarius,merlin,Species,11947,,4.84,19,,1761,2641
429902891,Photo,Merlin,Falco columbarius,,Pavel Štěpánek,2022-02-12,2022,2,12,700,Czech Republic,CZ-JM,Jihomoravský kraj,,Pohořelice,48.9843468,16.5504073,"",,Unspecified,"","",,,,,,,S105839039,"",,,,,Falco columbarius,merlin,Species,11947,,4.94,16,,2900,3767
413541661,Photo,Merlin,Falco columbarius,,Brad Vissia,2022-02-05,2022,2,5,1525,Canada,CA-BC-OS,British Columbia,Okanagan-Similkameen,Penticton--Okanagan Lake,49.5038924,-119.5961804,"",,Unspecified,"","",,,,,,,S102102887,"",,,,,Falco columbarius,merlin,Species,11947,,4.94,16,,3455,5184
372719621,Photo,Merlin,Falco columbarius,,Paul Prior,2021-09-26,2021,9,26,715,Canada,CA-ON-TO,Ontario,Toronto,Tommy Thompson Park,43.6282673,-79.3291670,"",,Unspecified,"","",,,,,,,S95208675,"",,,,,Falco columbarius,merlin,Species,11947,,4.94,16,,1577,2470
395059691,Photo,Merlin,Falco columbarius,,Thomas Creel,2021-12-11,2021,12,11,807,United States,US-TX-439,Texas,Tarrant,Winscott Plover Road,32.5562658,-97.5213862,"",,Unspecified,"","",,,,,,,S98739314,"",,,,,Falco columbarius,merlin,Species,11947,,4.63,27,,2000,1333
414163121,Photo,Merlin,Falco columbarius,,Brad Vissia,2022-02-05,2022,2,5,1525,Canada,CA-BC-OS,British Columbia,Okanagan-Similkameen,Penticton--Okanagan Lake,49.5038924,-119.5961804,"",,Unspecified,"","",,,,,,,S102102887,"",,,,,Falco columbarius,merlin,Species,11947,,4.45,56,,3114,4666
396183491,Photo,Merlin (Eurasian),Falco columbarius [aesalon Group],,Fanis Theofanopoulos (ASalafa Deri),2021-12-15,2021,12,15,849,Greece,GR-A-03,Eastern Macedonia and Thrace,Evros,Evros Delta National Park,40.8057961,26.0742655,Adult Male – 1,"Carrying Food; Foraging or Eating",Unspecified,"","",,,,,,,S98912166,"",,,aesalon,aesalon,Falco columbarius,merlin1,Group,11948,,4.67,27,Habitat,2139,1918
360551861,Photo,Merlin,Falco columbarius,,Simon Boivin,2021-08-10,2021,8,10,1646,Canada,CA-QC-LS,Quebec,Lac-Saint-Jean-Est,"Station d'épuration, St-Bruno",48.4716496,-71.6401935,"",,Unspecified,"","",,,,,,,S93071261,"",,,,,Falco columbarius,merlin,Species,11947,,4.47,64,,2060,2988
532330611,Photo,Merlin,Falco columbarius,,Graeme Colmer,2020-02-07,2020,2,7,1330,United States,US-CA-077,California,San Joaquin,Staten Island,38.2020281,-121.5043546,Adult Male – 1,,Unspecified,"","",,,,,,,S64239113,"",,,,,Falco columbarius,merlin,Species,11947,,4.79,19,,1365,2048
600057431,Photo,Merlin,Falco columbarius,,Joachim Bertrands | Ornis Birding Expeditions,2023-08-03,2023,8,3,523,Canada,CA-BC-CP,British Columbia,Capital,Rocky Point Bird Observatory (no public access),48.3198007,-123.5471500,"",,Unspecified,"","",,,,,,,S146367664,"",,,,,Falco columbarius,merlin,Species,11947,,4.83,18,,2337,3497
624949833,Photo,Merlin (Prairie),Falco columbarius richardsonii,,Sasha Smith,2024-10-12,2024,10,12,1309,Canada,CA-SK-EL,Saskatchewan,Saskatoon,Saskatoon--Millar Ave Swale (N of 71st St),52.2110387,-106.6464343,"",,Unspecified,"","",,,,,,,S198753735,"",,,,,Falco columbarius,pramer1,Group,11956,,5.00,14,,2336,3504
557649551,Photo,Merlin (Prairie),Falco columbarius richardsonii,,Nick Saunders,2023-04-13,2023,4,13,1922,Canada,CA-SK-TV,Saskatchewan,Battleford,Range Rd. Nr Pike Lake,51.9677122,-106.8040438,"",,Unspecified,"","",,,,,,,S133664225,"",,,,"Male, eating junco.",Falco columbarius,pramer1,Group,11956,,5.00,14,,1015,1400
529193331,Photo,Merlin,Falco columbarius,,David Shoch,2023-01-28,2023,1,28,1528,United States,US-VA-003,Virginia,Albemarle,"1110 Leonard St, Charlottesville US-VA 38.02249, -78.47192",38.0224890,-78.4719250,"",,Unspecified,"","",,,,,,,S127117734,"",,,,,Falco columbarius,merlin,Species,11947,,5.00,14,,2374,3508
520834731,Photo,Merlin,Falco columbarius,,Deborah H,2023-01-05,2023,1,5,1018,United States,US-VA-810,Virginia,Virginia Beach,**Back Bay NWR,36.6721270,-75.9156610,"",,Unspecified,"","",,,,,,,S125493803,"",,,,,Falco columbarius,merlin,Species,11947,,5.00,14,,1287,1287
512518071,Photo,Merlin,Falco columbarius,,Brad Imhoff,2022-12-12,2022,12,12,1033,United States,US-OH-089,Ohio,Licking,Infirmary Mound Park,40.0234743,-82.5209667,"",,Unspecified,"","",,,,,,,S123861497,"",,,,,Falco columbarius,merlin,Species,11947,,5.00,14,,2145,3216
485975621,Photo,Merlin,Falco columbarius,,Scott Mullens,2022-09-19,2022,9,19,810,United States,US-NC-037,North Carolina,Chatham,Jordan Lake SRA--Ebenezer Point,35.7081198,-79.0276623,"",,Unspecified,"","",,,,,,,S119111426,"",,,,,Falco columbarius,merlin,Species,11947,,5.00,14,,2617,3925
132910121,Photo,Merlin (Taiga),Falco columbarius columbarius,,Brian Sullivan,2018-12-26,2018,12,26,1001,United States,US-CA-069,California,San Benito,Lake Rd. (SBT. Co.),36.9470719,-121.4487076,Adult Male,,Unspecified,"","",,,,,,,S50969396,"",,,,,Falco columbarius,taimer1,Group,11955,,5.00,14,,3000,5000
500386781,Photo,Merlin,Falco columbarius,,Linda Chittum,2022-10-30,2022,10,30,1327,United States,US-CO-077,Colorado,Mesa,Riverside Trail - 32 Road to 33.5 Road,39.0636760,-108.4385690,"",,Unspecified,"","",,,,,,,S121814701,"",,,,,Falco columbarius,merlin,Species,11947,,4.71,24,,1937,2906
608583640,Photo,Merlin,Falco columbarius,,Johanne Charette,2023-09-07,2023,9,7,1030,Canada,CA-QC-BO,Quebec,Bonaventure,Ile à St-Siméon (plage et baie),48.0656634,-65.5443585,"","",Unspecified,"","",,,,,,,S149204634,"",,,Portrait par Alain Charette,Photos Alain Charette,Falco columbarius,merlin,Species,11947,,4.93,15,Habitat,4521,4521
401315241,Photo,Merlin,Falco columbarius,,Peter Hamner,2021-12-31,2021,12,31,1040,United States,US-PA-101,Pennsylvania,Philadelphia,Pennypack on the Delaware,40.0285634,-75.0103783,"",,Unspecified,"","",,,,,,,S99765526,"",,,,,Falco columbarius,merlin,Species,11947,,4.93,15,,1949,2729
186716111,Photo,Merlin,Falco columbarius,,Brooke Miller,2019-11-08,2019,11,8,928,United States,US-CA-085,California,Santa Clara,Los Gatos Creek County Park and Oka Ponds,37.2664712,-121.9515038,"",,Unspecified,"","",,,,,,,S61273521,"",,,,,Falco columbarius,merlin,Species,11947,,4.93,15,,1993,1791
79389051,Photo,Merlin,Falco columbarius,,Michael Bolte,2017-12-26,2017,12,26,1400,United States,US-WA-029,Washington,Island,Crockett Lake,48.1666667,-122.6500000,"",,Unspecified,"","",,,,,,,S41337456,"",,,,,Falco columbarius,merlin,Species,11947,,4.93,15,,1864,2100
402789081,Photo,Merlin,Falco columbarius,,Garry  Sadler,2022-01-04,2022,1,4,1422,Canada,CA-ON-KT,Ontario,Chatham-Kent,Chatham St edge of Blenhiem,42.3308967,-81.9874539,"",,Unspecified,"","",,,,,,,S100197708,"",,,,,Falco columbarius,merlin,Species,11947,,4.71,24,,1540,2605
137458401,Photo,Merlin,Falco columbarius,,Brad Imhoff,2018-12-04,2018,12,4,816,United States,US-OH-089,Ohio,Licking,Buckeye Lake SP--North Shore,39.9322696,-82.4780355,"",,Unspecified,"","",,,,,,,S50420086,"",,,,,Falco columbarius,merlin,Species,11947,,4.61,31,,1325,1987
44987191,Photo,Merlin,Falco columbarius,,Thaddaeus Shaum,2017-01-07,2017,1,7,1225,United States,US-IN-087,Indiana,LaGrange,LGC 2380S CR375W,41.6064104,-85.4965138,"",,Unspecified,"","",,,,,,,S33572222,"",,,,,Falco columbarius,merlin,Species,11947,,4.75,20,,2655,1770
536287761,Photo,Merlin,Falco columbarius,,Nic Abler,2023-02-17,2023,2,17,1622,United States,US-CA-023,California,Humboldt,Bayshore Mall willows & pond,40.7839134,-124.1877768,"",,Unspecified,"","",,,,,,,S128616388,"",,,,,Falco columbarius,merlin,Species,11947,,4.88,16,,3456,4608
187053921,Photo,Merlin,Falco columbarius,,Brandon Edwards,2019-11-10,2019,11,10,1324,Canada,CA-ON-LM,Ontario,Lambton,"7334 Lasalle Line, Watford, Ontario, CA (42.904, -81.922)",42.9039746,-81.9217703,"",,Unspecified,"","",,,,,,,S61334202,"",,,,,Falco columbarius,merlin,Species,11947,,4.76,21,,1738,2607
609959089,Photo,Merlin,Falco columbarius,,Andrew Thomas 🦅🪶,2023-10-14,2023,10,14,1815,United States,US-WA-063,Washington,Spokane,Riverfront Park,47.6620575,-117.4196938,"",,Unspecified,"","",,,,,,,S152268493,"",,,,Selected a Pigeon away from the flock and chased it into a car. Then came down to finish it off! It was in the road so I went over to move it and it got very defensive. Moved the pigeon over onto the sidewalk and let the Taiga Merlin continue with dinner.,Falco columbarius,merlin,Species,11947,,5.00,13,,4640,6960
598985011,Photo,Merlin (Black),Falco columbarius suckleyi,,Blair Dudeck,2023-07-30,2023,7,30,905,Canada,CA-BC-CP,British Columbia,Capital,Island View Beach,48.5751003,-123.3681107,"",,Unspecified,"","",,,,,,,S146035416,"",,,,,Falco columbarius,blkmer1,Group,11957,,5.00,13,,2010,3013
64423441,Photo,Merlin,Falco columbarius,,Ryan Merrill,2017-07-24,2017,7,24,710,United States,US-WA-033,Washington,King,Broadview Bird Observatory,47.7250290,-122.3629289,"",,Unspecified,"","",,,,,,,S38304014,"",,,,,Falco columbarius,merlin,Species,11947,,5.00,13,,3072,4608
27354311,Photo,Merlin,Falco columbarius,,Brian Sullivan,2012-02-18,2012,2,18,1245,United States,US-CA-093,California,Siskiyou,Sierra Cascade Nursery,41.9291620,-121.5674860,Adult Male,,Unspecified,"","",,,,,,,S9876594,"",,,,,Falco columbarius,merlin,Species,11947,,5.00,13,,2400,4000
335657511,Photo,Merlin,Falco columbarius,,Gavin McKinnon,2021-05-06,2021,5,6,539,Canada,CA-AB-SI,Alberta,Calgary,Range Road 284 Slough,50.9305375,-113.8644724,"",,Unspecified,"","",,,,,,,S87239396,"",,,,,Falco columbarius,merlin,Species,11947,,4.44,48,,1883,2824
625210450,Photo,Merlin,Falco columbarius,,Ana Rivas,2024-10-20,2024,10,20,1041,Spain,ES-GA-LG,Galicia,Lugo,Ribadeo--A Devesa,43.5529673,-7.1423603,"",,Unspecified,"","",,,,,,,S199566837,"",,,,1cy.,Falco columbarius,merlin,Species,11947,,4.93,14,,2538,3808
519630241,Photo,Merlin,Falco columbarius,,Scott Gruwell,2023-01-02,2023,1,2,1054,United States,US-MN-109,Minnesota,Olmsted,"6117–6543 Silver Creek Rd NE, Eyota US-MN 44.03566, -92.34870",44.0356610,-92.3487020,"",,Unspecified,"","",,,,,,,S125187935,"",,,,,Falco columbarius,merlin,Species,11947,,4.93,14,,2840,4260
511028451,Photo,Merlin,Falco columbarius,,Kenneth Eyster,2022-12-04,2022,12,4,800,United States,US-LA-023,Louisiana,Cameron,Lacassine NWR--Wildlife Loop only,30.0011418,-92.8946292,"",,Unspecified,"","",,,,,,,S123611643,"",,,,,Falco columbarius,merlin,Species,11947,,4.93,14,,1603,1582
498248161,Photo,Merlin,Falco columbarius,,Skye Haas,2022-10-27,2022,10,27,835,United States,US-MI-041,Michigan,Delta,Peninsula Point,45.6704443,-86.9660568,"",,Unspecified,"","",,,,,,,S121424191,"",,,,,Falco columbarius,merlin,Species,11947,,4.93,14,,1052,1414
522825531,Photo,Merlin (Taiga),Falco columbarius columbarius,,David Mathieu,2023-01-10,2023,1,10,1107,United States,US-CT-009,Connecticut,New Haven,Hammonasset Beach SP,41.2619859,-72.5548234,"",,Unspecified,"","",,,,,,,S125867521,"",,,,,Falco columbarius,taimer1,Group,11955,,4.87,15,,1810,2715
613102657,Photo,Merlin,Falco columbarius,,Ken Pride,2024-01-04,2024,1,4,1009,Canada,CA-AB-SI,Alberta,Calgary,Calgary--Carburn Park,50.9743186,-114.0326786,"",,Unspecified,"","",,,,,,,S158109604,"",,,,,Falco columbarius,merlin,Species,11947,,4.87,15,,3644,5101
364435991,Photo,Merlin,Falco columbarius,,Bethan Clyne,2021-08-22,2021,8,22,800,United Kingdom,GB-ENG-ERY,England,East Riding of Yorkshire,Spurn Bird Observatory Recording Area,53.6007672,0.1461485,"",Foraging or Eating,Unspecified,"","",,,,,,,S93809991,"",,,1cy female catching and eating Emperor dragonflies on Canal Scrape,Showing very well on Canal Scrape,Falco columbarius,merlin,Species,11947,,4.87,15,Habitat,2891,4571
364031451,Photo,Merlin (Prairie),Falco columbarius richardsonii,,Ethan Denton,2021-08-25,2021,8,25,1741,Canada,CA-AB-SI,Alberta,Calgary,Calgary--Bowness Park,51.0981500,-114.2201900,"",,Unspecified,"","",,,,,,,S93735215,"",,,,,Falco columbarius,pramer1,Group,11956,,4.67,24,,1915,2872
45904611,Photo,Merlin,Falco columbarius,,Cynthia Bridge,2017-01-15,2017,1,15,1431,United States,US-WI-025,Wisconsin,Dane,"Balzer Rd, Springfield",43.1336240,-89.4907460,"",,Unspecified,"","",,,,,,,S33709176,"",,,,,Falco columbarius,merlin,Species,11947,,4.59,29,,909,1136
370927541,Photo,Merlin (Prairie),Falco columbarius richardsonii,,Steve Wickliffe,2021-04-07,2021,4,7,950,United States,US-MT-023,Montana,Deer Lodge,FR 935 - LaMarche Creek Road,45.8796090,-113.1930950,Adult Male – 1,,Unspecified,"","",,,,,,,S85053649,"",,,,,Falco columbarius,pramer1,Group,11956,,4.81,16,,2082,1561
264076011,Photo,Merlin (Taiga),Falco columbarius columbarius,,Sam Zhang,2020-09-19,2020,9,19,606,United States,US-MA-009,Massachusetts,Essex,Parker River NWR,42.7639008,-70.8022995,Adult Female – 1,"Flying; Foraging or Eating",Unspecified,"","",,,,,,,S73807257,"",,,,,Falco columbarius,taimer1,Group,11955,,4.54,26,"",1090,1937
359676171,Photo,Merlin,Falco columbarius,,James MacKenzie,2021-08-06,2021,8,6,1000,Canada,CA-BC-CX,British Columbia,Comox-Strathcona,Cumberland--Maple Lake,49.6384357,-125.0158651,"",,Unspecified,"","",,,,,,,S92863727,"",,,,,Falco columbarius,merlin,Species,11947,,4.76,17,,2065,2581
213529821,Photo,Merlin,Falco columbarius,,Matthew Garvin,2020-03-04,2020,3,4,1206,Canada,CA-ON-PB,Ontario,Peterborough,Peterborough--300 Water St to Mark St Loop,44.2993829,-78.3168018,"",,Unspecified,"","",,,,,,,S65429570,"",,,,,Falco columbarius,merlin,Species,11947,,4.60,25,,2898,4346
429902981,Photo,Merlin,Falco columbarius,,Pavel Štěpánek,2022-02-12,2022,2,12,700,Czech Republic,CZ-JM,Jihomoravský kraj,,Pohořelice,48.9843468,16.5504073,"",,Unspecified,"","",,,,,,,S105839039,"",,,,,Falco columbarius,merlin,Species,11947,,4.74,19,,2804,3800
608542164,Photo,Merlin,Falco columbarius,,Geoff Malosh,2023-09-02,2023,9,2,1810,United States,US-MI-033,Michigan,Chippewa,Whitefish Point,46.7706876,-84.9569493,"",,Unspecified,"","",,,,,,,S148830177,"",,,"With juv Baird's Sandpiper as prey","Took one of the Baird's; photos to add. This was about 15 mins after I left the Baird's flock (above). It landed right behind me and sat there for at least 5 minutes.",Falco columbarius,merlin,Species,11947,,5.00,12,,1800,2700
395059711,Photo,Merlin,Falco columbarius,,Thomas Creel,2021-12-11,2021,12,11,807,United States,US-TX-439,Texas,Tarrant,Winscott Plover Road,32.5562658,-97.5213862,"",,Unspecified,"","",,,,,,,S98739314,"",,,,,Falco columbarius,merlin,Species,11947,,5.00,12,,2000,1333
623995421,Photo,Merlin,Falco columbarius,,Nick Swan,2024-09-21,2024,9,21,800,Canada,CA-BC-CO,British Columbia,Central Okanagan,Kelowna--Maude-Roxby Sanctuary,49.8705064,-119.4970085,"",,Unspecified,"","",,,,,,,S195961835,"",,,,,Falco columbarius,merlin,Species,11947,,5.00,12,,2384,3240
559989551,Photo,Merlin (Prairie),Falco columbarius richardsonii,,Nick Saunders,2023-04-13,2023,4,13,1922,Canada,CA-SK-TV,Saskatchewan,Battleford,Range Rd. Nr Pike Lake,51.9677122,-106.8040438,"",,Unspecified,"","",,,,,,,S133664225,"",,,,"Male, eating junco.",Falco columbarius,pramer1,Group,11956,,5.00,12,,987,1300
488899641,Photo,Merlin,Falco columbarius,,Ted Bradford,2022-09-29,2022,9,29,1616,United States,US-MA-001,Massachusetts,Barnstable,Race Point,42.0691855,-70.2381706,"",,Unspecified,"","",,,,,,,S119679858,"",,,,,Falco columbarius,merlin,Species,11947,,5.00,12,,3152,4728
411446471,Photo,Merlin,Falco columbarius,,Neil Bjorklund,2022-01-30,2022,1,30,1212,United States,US-OR-039,Oregon,Lane,K.R. Nielsen Rd.,44.0465117,-123.2499504,"",,Unspecified,"","",,,,,,,S101742190,"",,,,,Falco columbarius,merlin,Species,11947,,5.00,12,,1194,1795
289405701,Photo,Merlin,Falco columbarius,,Kaleb Friend,2020-12-19,2020,12,19,817,United States,US-DC-001,District of Columbia,District of Columbia,Kenilworth Park and Aquatic Gardens,38.9133204,-76.9443433,"",,Unspecified,"","",,,,,,,S77712159,"",,,,,Falco columbarius,merlin,Species,11947,,5.00,12,,1937,3252
510394031,Photo,Merlin,Falco columbarius,,Timothy Graves,2022-12-05,2022,12,5,1254,United States,US-NY-005,New York,Bronx,Pelham Bay Park--Southern Meadow and environs,40.8533174,-73.8219978,Juvenile – 1,Flying,Unspecified,"","",,,,,,,S123509049,"",,,,,Falco columbarius,merlin,Species,11947,,4.92,13,"",1885,2827
274674831,Photo,Merlin,Falco columbarius,,Darren Clark,2020-10-26,2020,10,26,830,United States,US-ID-065,Idaho,Madison,Cartier Slough WMA,43.8146699,-111.9331388,"",,Unspecified,"","",,,,,,,S75431371,"",,,,,Falco columbarius,merlin,Species,11947,,4.92,13,,2000,3000
261787901,Photo,Merlin,Falco columbarius,,Bernard Barsalo,2020-09-07,2020,9,7,1221,Canada,CA-QC-MM,Quebec,Montmagny,"Station d'épuration, Cap-St-Ignace",47.0402991,-70.4660940,"",,Unspecified,"","",,,,,,,S73305142,"",,,,,Falco columbarius,merlin,Species,11947,,4.92,13,,1869,3323
622924024,Photo,Merlin,Falco columbarius,,Julie Paquette,2024-08-25,2024,8,25,1026,Canada,CA-QC-SH,Quebec,Sherbrooke,"Belvédère d'Hydro-Sherbrooke",45.3911791,-71.9200112,"",,Unspecified,"","",,,,,,,S192750912,"",,,,,Falco columbarius,merlin,Species,11947,,4.92,13,,1421,1673
622331205,Photo,Merlin,Falco columbarius,,Michel Proulx,2024-08-06,2024,8,6,1141,Canada,CA-QC-CB,Quebec,La Côte-de-Beaupré,RNF du Cap-Tourmente,47.0780936,-70.7855538,"",,Unspecified,"","",,,,,,,S190485649,"",,,,,Falco columbarius,merlin,Species,11947,,4.92,13,,2882,4177
609531411,Photo,Merlin,Falco columbarius,,Sylvain Reyt,2023-10-03,2023,10,3,0,France,FR-BRE-29,Bretagne,Finistère,Etang de Trunvel-Tréogat,47.8955426,-4.3520021,"",,Unspecified,"","",,,,,,,S151323932,"",,,,,Falco columbarius,merlin,Species,11947,,4.92,13,,2747,4120
519763791,Photo,Merlin,Falco columbarius,,Kara Zanni,2023-01-02,2023,1,2,1251,United States,US-RI-009,Rhode Island,Washington,East Beach,41.3485928,-71.6697192,"",,Unspecified,"","",,,,,,,S125223173,"",,,,Almost always see this bird at dusk.,Falco columbarius,merlin,Species,11947,,4.92,13,,1429,1429
399073821,Photo,Merlin,Falco columbarius,,Kathy Paulin,2021-12-26,2021,12,26,834,United States,US-UT-047,Utah,Uintah,Maeser yard,40.4775743,-109.5833391,"",,Unspecified,"","",,,,,,,S99455310,"",,,,,Falco columbarius,merlin,Species,11947,,4.92,13,,839,1258
204790331,Photo,Merlin (Pallid),Falco columbarius pallidus,,Andrey Kovalenko,2016-06-24,2016,6,24,0,Kazakhstan,KZ-SEV,Soltüstik Qazaqstan oblysy,,"Akmola Province (52.961, 71.9052)",52.9610000,71.9052000,Adult Female – 1,,Unspecified,"","",,IBC1286656,,,,,S65002400,"",,,"Adult female. Elevation: 186 m. Date added to IBC: October 30, 2016.",,Falco columbarius,merlin2,Group,11954,,4.92,13,,854,1200
123086771,Photo,Merlin (Prairie),Falco columbarius richardsonii,,Andy Bankert,2018-11-11,2018,11,11,1412,United States,US-CO-069,Colorado,Larimer,"7375 Owl Canyon Road, Wellington, Colorado, US (40.755, -104.963)",40.7550295,-104.9631247,"",,Unspecified,"","",,,,,,,S49870055,"",,,,,Falco columbarius,pramer1,Group,11956,,4.92,13,,2809,4153
625190817,Photo,Merlin,Falco columbarius,,Brad Reinhardt,2024-10-16,2024,10,16,845,Canada,CA-ON-NG,Ontario,Niagara,"Port Colborne--Morgan's Point CA",42.8578308,-79.3466091,Adult – 1,Foraging or Eating,Unspecified,"","",,,,,,,S199186996,"",,,,,Falco columbarius,merlin,Species,11947,,4.86,14,"",1766,2649
267166771,Photo,Merlin,Falco columbarius,,Connor Smith,2020-09-30,2020,9,30,744,Canada,CA-ON-TO,Ontario,Toronto,Tommy Thompson Park,43.6282673,-79.3291670,"",,Unspecified,"","",,,,,,,S74263420,"",,,,,Falco columbarius,merlin,Species,11947,,4.86,14,,3456,4608
341368591,Photo,Merlin,Falco columbarius,,Jaden Shah,2021-05-22,2021,5,22,1140,United States,US-MI-069,Michigan,Iosco,Tawas Point SP,44.2569829,-83.4456809,"",,Unspecified,"","",,,,,,,S88767009,"",,,,,Falco columbarius,merlin,Species,11947,,4.67,18,,3200,4800
358633501,Photo,Merlin,Falco columbarius,,Charlotte Byers,2021-08-02,2021,8,2,851,United States,US-WA-061,Washington,Snohomish,Leque Island--Eide Rd.,48.2320943,-122.3829746,"",,Unspecified,"","",,,,,,,S92662864,"",,,,"This Merlin sat quietly for several minutes as we advanced along the dike to where it was sitting not far way in a dead tree.  It was being bombarded by Barn Swallows.  Finally, due to the swallow harassment, it flew around and then away.",Falco columbarius,merlin,Species,11947,,4.75,16,,1851,2202
264079381,Photo,Merlin (Black),Falco columbarius suckleyi,,Joachim Bertrands | Ornis Birding Expeditions,2020-09-19,2020,9,19,1410,Canada,CA-BC-CP,British Columbia,Capital,Sooke--Whiffin Spit Park,48.3590448,-123.7175942,"",,Unspecified,"","",,,,,,,S73798275,"",,,,,Falco columbarius,blkmer1,Group,11957,,4.75,16,,1527,2330
610566865,Photo,Merlin,Falco columbarius,,Saúl Román Raso,2023-10-29,2023,10,29,1425,Spain,ES-GA-LG,Galicia,Lugo,Ribadeo--Piñeira,43.5512449,-7.0692130,"",,Unspecified,"","",,,,,,,S153328910,"",,,,Hembra/inmaduro.,Falco columbarius,merlin,Species,11947,,4.63,19,,1749,2623
612359579,Photo,Merlin,Falco columbarius,,Brad Vissia,2023-12-17,2023,12,17,1255,Canada,CA-BC-CO,British Columbia,Central Okanagan,Lake Country Bottom Wood Lake Rd,50.0379588,-119.4017339,"",,Unspecified,"","",,,,,,,S156595820,"",,,,,Falco columbarius,merlin,Species,11947,,5.00,11,,2765,4145
609959032,Photo,Merlin,Falco columbarius,,Andrew Thomas 🦅🪶,2023-10-14,2023,10,14,1815,United States,US-WA-063,Washington,Spokane,Riverfront Park,47.6620575,-117.4196938,"",,Unspecified,"","",,,,,,,S152268493,"",,,,Selected a Pigeon away from the flock and chased it into a car. Then came down to finish it off! It was in the road so I went over to move it and it got very defensive. Moved the pigeon over onto the sidewalk and let the Taiga Merlin continue with dinner.,Falco columbarius,merlin,Species,11947,,5.00,11,,4351,6526
608660248,Photo,Merlin,Falco columbarius,,Simon Villeneuve,2023-09-06,2023,9,6,930,Canada,CA-QC-QU,Quebec,Québec,Pointe de Maizerets,46.8390880,-71.1960840,"",Flying,Unspecified,"","",,,,,,,S149123569,"",,,,,Falco columbarius,merlin,Species,11947,,5.00,11,"",2249,3373
555068301,Photo,Merlin,Falco columbarius,,Denny Swaby,2023-04-08,2023,4,8,915,Cayman Islands,KY-EE,East End,,Colliers Wilderness Reserve,19.3286518,-81.1033621,"",,Unspecified,"","",,,,,,,S133086786,"",,,,,Falco columbarius,merlin,Species,11947,,5.00,11,,1544,2100
512393731,Photo,Merlin,Falco columbarius,,Matt Zuro,2022-01-04,2022,1,4,1515,United States,US-IN-111,Indiana,Newton,Natural Prairie Dairy Farm Ponds (View From Road),41.0581030,-87.4807850,"",,Unspecified,"","",,,,,,,S123848490,"",,,,,Falco columbarius,merlin,Species,11947,,5.00,11,,,
507097041,Photo,Merlin,Falco columbarius,,Mark Schocken,2022-11-25,2022,11,25,700,United States,US-FL-103,Florida,Pinellas,Roosevelt Wetland,27.8708722,-82.6895428,"",,Unspecified,"","",,,,,,,S122986498,"",,,,,Falco columbarius,merlin,Species,11947,,5.00,11,,1557,1301
93983571,Photo,Merlin (Taiga),Falco columbarius columbarius,,Tom Reed,2018-04-11,2018,4,11,628,United States,US-NJ-009,New Jersey,Cape May,Cape Island--CMP--Coral Ave. dune crossing,38.9327948,-74.9651502,"",,Unspecified,"","",,,,,,,S44468244,"",,,,,Falco columbarius,taimer1,Group,11955,,5.00,11,,1822,2915
598985001,Photo,Merlin (Black),Falco columbarius suckleyi,,Blair Dudeck,2023-07-30,2023,7,30,905,Canada,CA-BC-CP,British Columbia,Capital,Island View Beach,48.5751003,-123.3681107,"",,Unspecified,"","",,,,,,,S146035416,"",,,,,Falco columbarius,blkmer1,Group,11957,,4.92,12,,2010,3013
439414591,Photo,Merlin,Falco columbarius,,Jason Dain,2022-04-21,2022,4,21,1636,Canada,CA-NS-HL,Nova Scotia,Halifax,"159 Buckingham Dr, Halifax CA-NS 44.69873, -63.84260",44.6987300,-63.8425970,Adult Male – 1,"Courtship, Display, or Copulation; Vocalizing",Unspecified,"","",,,,,,,S107635320,"",,,,,Falco columbarius,merlin,Species,11947,,4.92,12,"",1365,2048
365798731,Photo,Merlin,Falco columbarius,,Steve Kelling,2021-09-01,2021,9,1,1120,United States,US-NY-045,New York,Jefferson,Raptor Survey Lyme Cape Vincent,44.1117620,-76.2368450,"",Foraging or Eating,Unspecified,"","",,,,,,,S94034516,"",,,,,Falco columbarius,merlin,Species,11947,,4.92,12,"",1500,2500
359551921,Photo,Merlin,Falco columbarius,,Noam Markus,2021-08-07,2021,8,7,635,Canada,CA-ON-TO,Ontario,Toronto,Tommy Thompson Park,43.6282673,-79.3291670,"",,Unspecified,"","",,,,,,,S92890491,"",,,,Hunting at Pipit Point.,Falco columbarius,merlin,Species,11947,,4.92,12,,2752,4381
351159201,Photo,Merlin,Falco columbarius,,Matt Mason,2021-06-29,2021,6,29,857,United States,US-OH-049,Ohio,Franklin,"Stakeout—Merlin nest—Bedford Rd, Upper Arlington US-OH (39.9973,-83.0568)",39.9972590,-83.0568330,"",,Unspecified,"","",,,,,,,S90982824,"",,,,"Nestwatch; FIVE recently fledged young, approximately 26-30 days old. Upon arrival at 8:00 they were dispersed and tough to find in the dense canopy of ginkgo and maple. We could find what I assumed were the three young I had barely seen the heads of in the nest a week ago. It was pretty quiet until 9:00 when adults brought in food, and suddenly there were FOUR lined up on one limb! The FIFTH and presumed youngest was still by the nest but watching his nestmates closely and is close to being able to make the leap from the ginkgo to the maple. We watched the female bring in two birds and saw two fledglings pluck prey and eat. The young birds seemed content to wait their turn and never crowded the feeding bird. A lot of down was sifting out as the juvenile birds preened. We had a scope set up and showed the birds to neighbors and kids passing by.",Falco columbarius,merlin,Species,11947,,4.92,12,,1304,2011
327632351,Photo,Merlin (Taiga),Falco columbarius columbarius,,Sue&Gary Milks,2015-11-05,2015,11,5,923,Canada,CA-ON-OT,Ontario,Ottawa,"Ottawa--Shirley's Bay",45.3646900,-75.8830500,Adult Female – 1,,Unspecified,"","",,,,,,,S25710650,"",,,,,Falco columbarius,taimer1,Group,11955,,4.92,12,,1605,2247
625246100,Photo,Merlin,Falco columbarius,,Beatrix Pond,2024-10-21,2024,10,21,714,United States,US-MN-139,Minnesota,Scott,Murphy-Hanrehan Park Reserve--Minnregs Lake Trails,44.6907110,-93.3180980,"",,Unspecified,"","",,,,,,,S199761244,"",,,,,Falco columbarius,merlin,Species,11947,,4.79,14,,2559,3836
519055851,Photo,Merlin,Falco columbarius,,Henrey Deese,2023-01-01,2023,1,1,1255,United States,US-IL-031,Illinois,Cook,"Rainbow Beach, Chicago",41.7588348,-87.5493196,Adult Male – 1,,Unspecified,"","",,,,,,,S125100355,"",,,,,Falco columbarius,merlin,Species,11947,,4.79,14,,1867,2801
273318331,Photo,Merlin (Taiga),Falco columbarius columbarius,,Jerry Liguori,2003-10-05,2003,10,5,0,United States,US-NJ-009,New Jersey,Cape May,Cape Island--CMPSP--Hawkwatch Platform,38.9328558,-74.9579416,Juvenile – 1,Flying,Unspecified,"","",,,,,,,S75197660,"",,,,,Falco columbarius,taimer1,Group,11955,,4.79,14,"",1231,1930
559067141,Photo,Merlin,Falco columbarius,,Nathan Wall,2023-04-16,2023,4,16,625,United States,US-WA-033,Washington,King,Discovery Park,47.6638680,-122.4215317,Adult – 1,Carrying Food,Unspecified,"","",,,,,,,S133975792,"",,,,"1 at Sludge Meadow, 1 East of the South Parking Lot with ANHU for breakfast. Photos:",Falco columbarius,merlin,Species,11947,,4.73,15,Habitat,3586,5379
79090471,Photo,Merlin (Taiga),Falco columbarius columbarius,,Alex Lamoreaux,2017-09-18,2017,9,18,650,United States,US-MN-137,Minnesota,St. Louis,Hawk Ridge Nature Reserve,46.8469659,-92.0315212,Juvenile – 1,Flying,Unspecified,"","",,,,,,,S39259570,"",,,,,Falco columbarius,taimer1,Group,11955,,4.73,15,"",2482,3722
256957121,Photo,Merlin,Falco columbarius,,Bridget Spencer,2020-08-20,2020,8,20,1510,Canada,CA-BC-GV,British Columbia,Metro Vancouver,Boundary Bay Regional Park,49.0181810,-123.0461152,"",,Unspecified,"","",,,,,,,S72654721,"",,,,,Falco columbarius,merlin,Species,11947,,4.42,33,,3053,4580
149347851,Photo,Merlin,Falco columbarius,,Court Harding,2019-04-06,2019,4,6,1027,United States,US-FL-001,Florida,Alachua,Harding House,29.6586181,-82.4030177,"",,Unspecified,"","",,,,,,,S54623804,"",,,,"Banded: black on right, nothing on left. Took bird from my bird feeder. Have photos of merlin feeding. Small hooded raptor. Observed at a respectable distance as it fed.",Falco columbarius,merlin,Species,11947,,4.52,23,,1638,2048
364031471,Photo,Merlin (Prairie),Falco columbarius richardsonii,,Ethan Denton,2021-08-25,2021,8,25,1741,Canada,CA-AB-SI,Alberta,Calgary,Calgary--Bowness Park,51.0981500,-114.2201900,"",,Unspecified,"","",,,,,,,S93735215,"",,,,,Falco columbarius,pramer1,Group,11956,,4.61,18,,2039,3059
376586391,Photo,Merlin (Taiga),Falco columbarius columbarius,,Sam Zhang,2021-10-09,2021,10,9,640,United States,US-MA-009,Massachusetts,Essex,Parker River NWR,42.7639008,-70.8022995,"",Flying,Unspecified,"","",,,,,,,S95908847,"",,,,,Falco columbarius,taimer1,Group,11955,,4.50,20,"",1480,2220
409494961,Photo,Merlin (Prairie),Falco columbarius richardsonii,,Tom Crabtree,2022-01-24,2022,1,24,1137,United States,US-OR-017,Oregon,Deschutes,First Street River Trail,44.0696883,-121.3122797,"",,Unspecified,"","",,,,,,,S101368037,"",,,,Continuing. Photos.,Falco columbarius,pramer1,Group,11956,,4.71,14,,1659,2490
404900461,Photo,Merlin,Falco columbarius,,Kalin Ocaña,2022-01-03,2022,1,3,1100,Mexico,MX-VER-011,Veracruz,Alvarado,"95258, Costa de la Palma MX-VER (18.7711,-95.8718)",18.7711170,-95.8718190,Unknown – 1,Foraging or Eating,Unspecified,"","",,,,,,,S100063070,"",,,Eating Indigo bunting,,Falco columbarius,merlin,Species,11947,,4.77,13,"",3195,4169
429902851,Photo,Merlin,Falco columbarius,,Pavel Štěpánek,2022-02-12,2022,2,12,700,Czech Republic,CZ-JM,Jihomoravský kraj,,Pohořelice,48.9843468,16.5504073,"",,Unspecified,"","",,,,,,,S105839039,"",,,,,Falco columbarius,merlin,Species,11947,,4.83,12,,2768,3775
626834524,Photo,Merlin,Falco columbarius,,David Dopereiro,2022-12-03,2022,12,3,1200,Spain,ES-GA-AC,Galicia,A Coruña,Baldaio--área general,43.2931730,-8.6652946,"",,Unspecified,"","",,,,,,,S203886239,"",,,,,Falco columbarius,merlin,Species,11947,,4.91,11,,2504,3756
598984981,Photo,Merlin (Black),Falco columbarius suckleyi,,Blair Dudeck,2023-07-30,2023,7,30,905,Canada,CA-BC-CP,British Columbia,Capital,Island View Beach,48.5751003,-123.3681107,"",,Unspecified,"","",,,,,,,S146035416,"",,,,,Falco columbarius,blkmer1,Group,11957,,4.91,11,,2010,3013
516740911,Photo,Merlin,Falco columbarius,,Mark Schocken,2022-12-26,2022,12,26,810,United States,US-FL-103,Florida,Pinellas,Honeymoon Island SP,28.0706000,-82.8314000,"",,Unspecified,"","",,,,,,,S124640787,"",,,,,Falco columbarius,merlin,Species,11947,,4.91,11,,1400,1502
93983551,Photo,Merlin (Taiga),Falco columbarius columbarius,,Tom Reed,2018-04-11,2018,4,11,628,United States,US-NJ-009,New Jersey,Cape May,Cape Island--CMP--Coral Ave. dune crossing,38.9327948,-74.9651502,"",,Unspecified,"","",,,,,,,S44468244,"",,,,,Falco columbarius,taimer1,Group,11955,,4.91,11,,1616,2585
626575098,Photo,Merlin,Falco columbarius,,Joel McNeal,2024-11-22,2024,11,22,722,United States,US-GA-015,Georgia,Bartow,Brandon Farm & Taff Rd.,34.0974841,-84.9066460,"",Foraging or Eating,Unspecified,"","",,,,,,,S203241641,"",,,,Caught and ate a female cowbird while I was there.,Falco columbarius,merlin,Species,11947,,5.00,10,"",2400,3200
620644856,Photo,Merlin,Falco columbarius,,Pam Hardy,2024-06-19,2024,6,19,1646,Canada,CA-AB-FI,Alberta,Drumheller,"108 Service Rd SE, Vulcan CA-AB 50.40708, -113.25458",50.4070750,-113.2545840,"",,Unspecified,"","",,,,,,,S182549498,"",,,,I only managed to catch one of the birds in photos. But there was a male and a female.,Falco columbarius,merlin,Species,11947,,5.00,10,,1645,2303
613680034,Photo,Merlin,Falco columbarius,,Mike Henry,2024-01-18,2024,1,18,759,United States,US-AZ-019,Arizona,Pima,Case Natural Resource Park,32.2138359,-110.7807577,"",,Unspecified,"","",,,,,,,S159200701,"",,,,Photo,Falco columbarius,merlin,Species,11947,,5.00,10,,1751,1401
613544487,Photo,Merlin (Prairie),Falco columbarius richardsonii,,Andrew Thomas 🦅🪶,2024-01-14,2024,1,14,1445,United States,US-WA-063,Washington,Spokane,"Pine Bluff, Chattaroy",47.8648362,-117.3219439,"",,Unspecified,"","",,,,,,,S158934604,"",,,,Photos. Palest subspecies. Had here before.,Falco columbarius,pramer1,Group,11956,,5.00,10,,1754,2974
612912441,Photo,Merlin (Taiga),Falco columbarius columbarius,,Quinn Diaz,2023-12-31,2023,12,31,1638,United States,US-UT-043,Utah,Summit,"I-80 W, Park City US-UT 40.75520, -111.57411",40.7552030,-111.5741100,"",,Unspecified,"","",,,,,,,S157669245,"",,,,,Falco columbarius,taimer1,Group,11955,,5.00,10,,4027,6041
612912440,Photo,Merlin (Taiga),Falco columbarius columbarius,,Quinn Diaz,2023-12-31,2023,12,31,1638,United States,US-UT-043,Utah,Summit,"I-80 W, Park City US-UT 40.75520, -111.57411",40.7552030,-111.5741100,"",,Unspecified,"","",,,,,,,S157669245,"",,,,,Falco columbarius,taimer1,Group,11955,,5.00,10,,4857,7286
612912438,Photo,Merlin (Taiga),Falco columbarius columbarius,,Quinn Diaz,2023-12-31,2023,12,31,1638,United States,US-UT-043,Utah,Summit,"I-80 W, Park City US-UT 40.75520, -111.57411",40.7552030,-111.5741100,"",,Unspecified,"","",,,,,,,S157669245,"",,,,,Falco columbarius,taimer1,Group,11955,,5.00,10,,4883,7324
612116482,Photo,Merlin,Falco columbarius,,Rui Pereira | Portugal Birding,2023-12-06,2023,12,6,1200,Portugal,PT-11-VX,Lisboa,Vila Franca de Xira,Lezíria Grande de Vila Franca de Xira--área geral (acesso condicionado),38.8915673,-8.9387512,"",,Unspecified,"","",,,,,,,S155846692,"",,,,,Falco columbarius,merlin,Species,11947,,5.00,10,,2383,4250
609959033,Photo,Merlin,Falco columbarius,,Andrew Thomas 🦅🪶,2023-10-14,2023,10,14,1815,United States,US-WA-063,Washington,Spokane,Riverfront Park,47.6620575,-117.4196938,"",,Unspecified,"","",,,,,,,S152268493,"",,,,Selected a Pigeon away from the flock and chased it into a car. Then came down to finish it off! It was in the road so I went over to move it and it got very defensive. Moved the pigeon over onto the sidewalk and let the Taiga Merlin continue with dinner.,Falco columbarius,merlin,Species,11947,,5.00,10,,4640,6960
608550568,Photo,Merlin,Falco columbarius,,David Turgeon,2023-09-06,2023,9,6,655,Canada,CA-QC-HC,Quebec,La Haute-Côte-Nord,Banc de Portneuf-sur-Mer,48.6087989,-69.0891989,Adult Female – 1,,Unspecified,"","",,,,,,,S149127503,"",,,,,Falco columbarius,merlin,Species,11947,,5.00,10,,3007,4511
413542421,Photo,Merlin,Falco columbarius,,Brad Vissia,2022-02-05,2022,2,5,1525,Canada,CA-BC-OS,British Columbia,Okanagan-Similkameen,Penticton--Okanagan Lake,49.5038924,-119.5961804,"",,Unspecified,"","",,,,,,,S102102887,"",,,,,Falco columbarius,merlin,Species,11947,,5.00,10,,3351,5019
397001951,Photo,Merlin,Falco columbarius,,Ken Pride,2021-12-18,2021,12,18,1324,Canada,CA-AB-SI,Alberta,Calgary,Frank Lake--NW lookout/blind/outflow,50.5652486,-113.7179804,"",,Unspecified,"","",,,,,,,S99079435,"",,,,,Falco columbarius,merlin,Species,11947,,5.00,10,,2426,1733
218806191,Photo,Merlin (Taiga),Falco columbarius columbarius,,Sharif Uddin,2020-03-28,2020,3,28,725,United States,US-CA-071,California,San Bernardino,San Timoteo Creek (SBE Co.),34.0239962,-117.1946812,"",,Unspecified,"","",,,,,,,S66330915,"",,,,,Falco columbarius,taimer1,Group,11955,,5.00,10,,2404,3606
84600841,Photo,Merlin,Falco columbarius,,António Gonçalves,2018-02-03,2018,2,3,801,Portugal,PT-11-VX,Lisboa,Vila Franca de Xira,Lezíria Grande de Vila Franca de Xira--área geral (acesso condicionado),38.8915673,-8.9387512,"",,Unspecified,"","",,,,,,,S42488164,"",,,,,Falco columbarius,merlin,Species,11947,,4.71,14,,803,1204
529350731,Photo,Merlin,Falco columbarius,,Isaac Polanski,2023-01-27,2023,1,27,1536,United States,US-MI-161,Michigan,Washtenaw,Vreeland Rd.,42.2910722,-83.5701871,"",,Unspecified,"","",,,,,,,S127068020,"",,,,Eating a fresh kill right on the side of the road.,Falco columbarius,merlin,Species,11947,,4.60,20,,4474,6711
103676931,Photo,Merlin,Falco columbarius,,Jim Carroll,2018-06-06,2018,6,6,1156,Canada,CA-NB-SJ,New Brunswick,Saint John,Tynemouth Creek,45.3009761,-65.6556860,Adult,,Unspecified,"","",,,,,,,S46391635,"",,,,Merlin was sitting on wire watching for prey to come out of covered bridge,Falco columbarius,merlin,Species,11947,,4.48,23,,2948,2328
515365051,Photo,Merlin,Falco columbarius,,Dylan S.,2022-12-21,2022,12,21,1530,United States,US-IL-043,Illinois,DuPage,Fermilab (DuPage Co.),41.8395126,-88.2190218,"",,Unspecified,"","",,,,,,,S124391122,"",,,,,Falco columbarius,merlin,Species,11947,,4.48,21,,1647,2588
428620841,Photo,Merlin (Black),Falco columbarius suckleyi,,Ted Keyel,2022-03-23,2022,3,23,638,United States,US-CA-037,California,Los Angeles,Angeles NF--Bear Divide,34.3602832,-118.3958924,"",Flying,Unspecified,"","",,,,,,,S105441412,"",,,,"Female, Probably. Black tail, no defined malar, dark crown and black/white underwing coverts, uniformly dark blackish back.",Falco columbarius,blkmer1,Group,11957,,4.34,29,"",2473,3709
357951461,Photo,Merlin,Falco columbarius,,Yves Dugré,2021-07-31,2021,7,31,542,Canada,CA-QC-NY,Quebec,Nicolet-Yamaska,"1 - Maison, 2880 rang de l'île",46.1980981,-72.5752437,"",,Unspecified,"","",,,,,,,S92539119,"",,,,,Falco columbarius,merlin,Species,11947,,4.53,17,,1643,2167
429902801,Photo,Merlin,Falco columbarius,,Pavel Štěpánek,2022-02-12,2022,2,12,700,Czech Republic,CZ-JM,Jihomoravský kraj,,Pohořelice,48.9843468,16.5504073,"",,Unspecified,"","",,,,,,,S105839039,"",,,,,Falco columbarius,merlin,Species,11947,,4.75,12,,2300,3308
272999221,Photo,Merlin,Falco columbarius,,Foster Wang,2020-10-20,2020,10,20,745,United States,US-DC-001,District of Columbia,District of Columbia,Kenilworth Park and Aquatic Gardens,38.9133204,-76.9443433,"",,Unspecified,"","",,,,,,,S75154228,"",,,,,Falco columbarius,merlin,Species,11947,,4.75,12,,987,1754
509325501,Photo,Merlin,Falco columbarius,,Roger Friedman,2022-12-02,2022,12,2,1330,United States,US-OH-035,Ohio,Cuyahoga,Brooklyn Heights Cemetery,41.4291930,-81.7001490,"",,Unspecified,"","",,,,,,,S123349089,"",,,,Big thanks to Ken Andrews for the find!,Falco columbarius,merlin,Species,11947,,4.64,14,,1226,1780
71823081,Photo,Merlin,Falco columbarius,,Lee Larrew,2017-09-30,2017,9,30,800,United States,US-SC-043,South Carolina,Georgetown,Huntington Beach SP,33.5083000,-79.0659000,"",,Unspecified,"","",,,,,,,S39916773,"",,,,,Falco columbarius,merlin,Species,11947,,4.50,18,,2000,3000
616515197,Photo,Merlin,Falco columbarius,,County Lister Brendan,2024-03-24,2024,3,24,1218,United States,US-MI-051,Michigan,Gladwin,Beaverton Cemetery,43.8833100,-84.5001700,"",,Unspecified,"","",,,,,,,S165829599,"",,,,,Falco columbarius,merlin,Species,11947,,4.82,11,,1367,2050
598985031,Photo,Merlin (Black),Falco columbarius suckleyi,,Blair Dudeck,2023-07-30,2023,7,30,905,Canada,CA-BC-CP,British Columbia,Capital,Island View Beach,48.5751003,-123.3681107,"",,Unspecified,"","",,,,,,,S146035416,"",,,,,Falco columbarius,blkmer1,Group,11957,,4.82,11,,2242,3361
500794971,Photo,Merlin,Falco columbarius,,Zeno Taylord-Hawk,2022-11-05,2022,11,5,735,United States,US-TX-157,Texas,Fort Bend,Darst / Ricefield roads area,29.4249608,-95.9442913,"",,Unspecified,"","",,,,,,,S121894845,"",,,,,Falco columbarius,merlin,Species,11947,,4.82,11,,4000,6000
188949261,Photo,Merlin,Falco columbarius,,Linda Ankerstjerne Olsen,2019-11-20,2019,11,20,1100,United States,US-CT-001,Connecticut,Fairfield,Short Beach Park,41.1648434,-73.1104136,"",,Unspecified,"","",,,,,,,S61616139,"",,,,While looking at geese Merlin shot along waters edge then perched in tree,Falco columbarius,merlin,Species,11947,,4.69,13,,1383,1429
624131455,Photo,Merlin (Taiga),Falco columbarius columbarius,,Peter Mundale,2024-09-24,2024,9,24,1042,United States,US-MN-137,Minnesota,St. Louis,Park Point Nature Trail,46.7213289,-92.0401472,"",Flying,Unspecified,"","",,,,,,,S196375110,"",,,,,Falco columbarius,taimer1,Group,11955,,4.90,10,"",1981,2971
598985021,Photo,Merlin (Black),Falco columbarius suckleyi,,Blair Dudeck,2023-07-30,2023,7,30,905,Canada,CA-BC-CP,British Columbia,Capital,Island View Beach,48.5751003,-123.3681107,"",,Unspecified,"","",,,,,,,S146035416,"",,,,,Falco columbarius,blkmer1,Group,11957,,4.90,10,,2010,3013
598984991,Photo,Merlin (Black),Falco columbarius suckleyi,,Blair Dudeck,2023-07-30,2023,7,30,905,Canada,CA-BC-CP,British Columbia,Capital,Island View Beach,48.5751003,-123.3681107,"",,Unspecified,"","",,,,,,,S146035416,"",,,,,Falco columbarius,blkmer1,Group,11957,,4.90,10,,2244,3365
528002081,Photo,Merlin,Falco columbarius,,Russell Hoffman,2023-01-24,2023,1,24,1000,United States,US-PA-011,Pennsylvania,Berks,Blue Marsh Lake SRA--Dry Brooks Day Use Area,40.3847603,-76.0408562,"",,Unspecified,"","",,,,,,,S126891723,"",,,,,Falco columbarius,merlin,Species,11947,,4.90,10,,1410,1880
429902821,Photo,Merlin,Falco columbarius,,Pavel Štěpánek,2022-02-12,2022,2,12,700,Czech Republic,CZ-JM,Jihomoravský kraj,,Pohořelice,48.9843468,16.5504073,"",,Unspecified,"","",,,,,,,S105839039,"",,,,,Falco columbarius,merlin,Species,11947,,4.90,10,,2850,3775
415224771,Photo,Merlin,Falco columbarius,,Susan Elliott,2022-02-11,2022,2,11,1405,United States,US-VT-021,Vermont,Rutland,"862–1098 Goodrich Crossroad, Benson US-VT 43.69816, -73.33155",43.6981640,-73.3315540,"",,Unspecified,"","",,,,,,,S102443242,"",,,,"heavily streaked, small falcon, hint of sideburns",Falco columbarius,merlin,Species,11947,,4.90,10,,3888,5184
414163081,Photo,Merlin,Falco columbarius,,Brad Vissia,2022-02-05,2022,2,5,1525,Canada,CA-BC-OS,British Columbia,Okanagan-Similkameen,Penticton--Okanagan Lake,49.5038924,-119.5961804,"",,Unspecified,"","",,,,,,,S102102887,"",,,,,Falco columbarius,merlin,Species,11947,,4.90,10,,2904,4364
399919551,Photo,Merlin,Falco columbarius,,Cesar Ponce,2021-12-26,2021,12,26,1322,Canada,CA-ON-TO,Ontario,Toronto,Toronto--Colonel Samuel Smith Park,43.5910609,-79.5112485,"",,Unspecified,"","",,,,,,,S99500174,"",,,,,Falco columbarius,merlin,Species,11947,,4.90,10,,2587,2213
351159481,Photo,Merlin,Falco columbarius,,Matt Mason,2021-06-29,2021,6,29,755,United States,US-OH-049,Ohio,Franklin,Bedford Road,39.9972876,-83.0568790,"",,Unspecified,"","",,,,,,,S90973413,"",,,,Parents feeding fledglings from nearby nest. Very vocal.,Falco columbarius,merlin,Species,11947,,4.90,10,,1314,1984
65585691,Photo,Merlin (Taiga),Falco columbarius columbarius,,Alex Lamoreaux,2017-08-03,2017,8,3,1240,United States,US-AK-122,Alaska,Kenai Peninsula Borough,Anchor Point,59.7790573,-151.8633485,Juvenile – 1,,Unspecified,"","",,,,,,,S38463730,"",,,,Juvenile,Falco columbarius,taimer1,Group,11955,,4.90,10,,2339,3501
627632640,Photo,Merlin,Falco columbarius,,Thomas Creel,2024-12-16,2024,12,16,1223,United States,US-TX-439,Texas,Tarrant,Benbrook Lake--Mustang Park (PPW-W 065),32.6098812,-97.4725914,"",,Unspecified,"","",,,,,,,S205631026,"",,,,,Falco columbarius,merlin,Species,11947,,5.00,9,,1333,2000
626114649,Photo,Merlin,Falco columbarius,,Lois Farrington,2024-11-10,2024,11,10,1515,United States,US-NM-007,New Mexico,Colfax,Hwy 505 west of Maxwell,36.5481987,-104.6307591,"",,Unspecified,"","",,,,,,,S202111641,"",,,,on fence line with Horned Lark in talons,Falco columbarius,merlin,Species,11947,,5.00,9,,1562,1851
612912437,Photo,Merlin (Taiga),Falco columbarius columbarius,,Quinn Diaz,2023-12-31,2023,12,31,1638,United States,US-UT-043,Utah,Summit,"I-80 W, Park City US-UT 40.75520, -111.57411",40.7552030,-111.5741100,"",,Unspecified,"","",,,,,,,S157669245,"",,,,,Falco columbarius,taimer1,Group,11955,,5.00,9,,4289,6433
611541217,Photo,Merlin,Falco columbarius,,Tomás García,2023-11-25,2023,11,25,810,Spain,ES-MC,"Murcia, Región de",,Campo Mar Menor Zona General,37.7447253,-0.9012021,Adult Male – 1,Foraging or Eating,Unspecified,"","",,,,,,,S155154524,"",,,,Un macho alimentándose de un alaudido. Posiblemente  una alondra común. Fotos.,Falco columbarius,merlin,Species,11947,,5.00,9,"",3456,4331
611504072,Photo,Merlin,Falco columbarius,,Brad Imhoff,2023-11-24,2023,11,24,1316,United States,US-OH-089,Ohio,Licking,Tagg Rd.,40.2260480,-82.7241790,"",,Unspecified,"","",,,,,,,S155107678,"",,,,,Falco columbarius,merlin,Species,11947,,5.00,9,,1612,2420
610523442,Photo,Merlin (Black),Falco columbarius suckleyi,,Garrett Hughes,2023-10-28,2023,10,28,1325,United States,US-WA-049,Washington,Pacific,Grayland Beach State Park,46.7880721,-124.0941381,"",,Unspecified,"","",,,,,,,S153276451,"",,,,,Falco columbarius,blkmer1,Group,11957,,5.00,9,,3364,5980
609959064,Photo,Merlin,Falco columbarius,,Andrew Thomas 🦅🪶,2023-10-14,2023,10,14,1815,United States,US-WA-063,Washington,Spokane,Riverfront Park,47.6620575,-117.4196938,"",,Unspecified,"","",,,,,,,S152268493,"",,,,Selected a Pigeon away from the flock and chased it into a car. Then came down to finish it off! It was in the road so I went over to move it and it got very defensive. Moved the pigeon over onto the sidewalk and let the Taiga Merlin continue with dinner.,Falco columbarius,merlin,Species,11947,,5.00,9,,4640,6960
609959029,Photo,Merlin,Falco columbarius,,Andrew Thomas 🦅🪶,2023-10-14,2023,10,14,1815,United States,US-WA-063,Washington,Spokane,Riverfront Park,47.6620575,-117.4196938,"",,Unspecified,"","",,,,,,,S152268493,"",,,,Selected a Pigeon away from the flock and chased it into a car. Then came down to finish it off! It was in the road so I went over to move it and it got very defensive. Moved the pigeon over onto the sidewalk and let the Taiga Merlin continue with dinner.,Falco columbarius,merlin,Species,11947,,5.00,9,,4640,3093
609274587,Photo,Merlin,Falco columbarius,,Andrew Thomas 🦅🪶,2023-09-23,2023,9,23,1326,United States,US-WA-027,Washington,Grays Harbor,Bottle Beach,46.8932770,-124.0468136,Immature – 1,,Unspecified,"","",,,,,,,S150776861,"",,,Tigia Subspecies.,Taiga subspecies. Picked off a Least Sandpiper.,Falco columbarius,merlin,Species,11947,,5.00,9,,1383,2069
608368744,Photo,Merlin,Falco columbarius,,Daniel Campeau,2023-09-01,2023,9,1,605,Canada,CA-QC-CB,Quebec,La Côte-de-Beaupré,RNF du Cap-Tourmente,47.0780936,-70.7855538,"",,Unspecified,"","",,,,,,,S148716497,"",,,,,Falco columbarius,merlin,Species,11947,,5.00,9,,1813,2719
547324691,Photo,Merlin,Falco columbarius,,John Davis,2023-03-19,2023,3,19,855,United States,US-OR-027,Oregon,Hood River,Hood River mouth,45.7152892,-121.5063858,"",,Unspecified,"","",,,,,,,S131324732,"",,,,,Falco columbarius,merlin,Species,11947,,5.00,9,,1280,1280
512393721,Photo,Merlin,Falco columbarius,,Matt Zuro,2022-01-04,2022,1,4,1515,United States,US-IN-111,Indiana,Newton,Natural Prairie Dairy Farm Ponds (View From Road),41.0581030,-87.4807850,"",,Unspecified,"","",,,,,,,S123848490,"",,,,,Falco columbarius,merlin,Species,11947,,5.00,9,,4805,7207
443443111,Photo,Merlin,Falco columbarius,,Joey  Hausler,2022-05-02,2022,5,2,1841,United States,US-AK-122,Alaska,Kenai Peninsula Borough,Anchor River--Anchor Point beach,59.7790981,-151.8631308,"",,Unspecified,"","",,,,,,,S108785405,"",,,,,Falco columbarius,merlin,Species,11947,,5.00,9,,1771,2420
435191601,Photo,Merlin (Taiga),Falco columbarius columbarius,,🐦‍⬛ Jason 🦚 K 🦩Pietrzak 🦃,2022-04-13,2022,4,13,1638,United States,US-NH-013,New Hampshire,Merrimack,"Woodcrest Heights, the Dark Plain, Rumford",43.2217839,-71.4988732,"",,Unspecified,"","",,,,,,,S106966420,"",,,,,Falco columbarius,taimer1,Group,11955,,5.00,9,,1356,2000
417275441,Photo,Merlin (Prairie),Falco columbarius richardsonii,,Bryan Calk,2021-12-17,2021,12,17,849,United States,US-TX-271,Texas,Kinney,Standard Ln ,29.2530120,-100.5412720,"",,Unspecified,"","",,,,,,,S102873570,"",,,,,Falco columbarius,pramer1,Group,11956,,5.00,9,,1946,3459
410495401,Photo,Merlin,Falco columbarius,,Parmil Kumar,2022-01-14,2022,1,14,1145,India,IN-JK-JA,Jammu and Kashmir,Jammu,"(32.719, 74.845)Tawi 4th Bridge",32.7192383,74.8447433,"",,Unspecified,"","",,,,,,,S101567524,"",,,,Seen and photographed,Falco columbarius,merlin,Species,11947,,5.00,9,,908,1454
315116291,Photo,Merlin,Falco columbarius,,Rui Jorge,2021-03-09,2021,3,9,1550,Portugal,PT-02-OD,Beja,Odemira,PN Sudoeste Alentejano e Costa Vicentina--Monte do Zambujeiro,37.7104550,-8.7562108,"",,Unspecified,"","",,,,,,,S83078455,"",,,,,Falco columbarius,merlin,Species,11947,,5.00,9,,900,1600
266601351,Photo,Merlin,Falco columbarius,,Doug Hommert,2020-09-28,2020,9,28,843,United States,US-MO-183,Missouri,St. Charles,Riverlands Migratory Bird Sanctuary,38.8719313,-90.1843917,"",,Unspecified,"","",,,,,,,S74180471,"",,,,,Falco columbarius,merlin,Species,11947,,5.00,9,,1200,1800
205708141,Photo,Merlin,Falco columbarius,,AUDEVARD Aurélien,2009-03-22,2009,3,22,0,South Korea,KR-46,Jeonranamdo,,Heuksan-do Island,34.6882000,125.4280000,Female – 1,,Unspecified,"","",,IBC953653,,,,,S65133513,"",,,"female. Elevation: 228 m. Date added to IBC: June 21, 2016.",,Falco columbarius,merlin,Species,11947,,5.00,9,,802,1000
132910061,Photo,Merlin (Taiga),Falco columbarius columbarius,,Brian Sullivan,2018-12-26,2018,12,26,1001,United States,US-CA-069,California,San Benito,Lake Rd. (SBT. Co.),36.9470719,-121.4487076,Adult Male,,Unspecified,"","",,,,,,,S50969396,"",,,,,Falco columbarius,taimer1,Group,11955,,5.00,9,,3000,5000
86355561,Photo,Merlin,Falco columbarius,,Sophia Wong,2018-02-17,2018,2,17,1330,United States,US-MA-009,Massachusetts,Essex,Salisbury Beach State Reservation,42.8268013,-70.8180008,"",,Unspecified,"","",,,,,,,S42912830,"",,,,,Falco columbarius,merlin,Species,11947,,5.00,9,,2071,2835
280048361,Photo,Merlin,Falco columbarius,,Jorge Montalvo,2020-11-14,2020,11,14,645,United States,US-NY-119,New York,Westchester,Croton Point Park,41.1871668,-73.8891219,"",,Unspecified,"","",,,,,,,S76259526,"",,,,,Falco columbarius,merlin,Species,11947,,5.00,9,,1500,2100
622115563,Photo,Merlin,Falco columbarius,,Sunny Zhang,2024-07-30,2024,7,30,1500,Canada,CA-BC-GV,British Columbia,Metro Vancouver,Burnaby Lake Regional Park (general),49.2429874,-122.9440498,"",,Unspecified,"","",,,,,,,S189976717,"",,,,,Falco columbarius,merlin,Species,11947,,4.82,11,,2349,1778
610205573,Photo,Merlin,Falco columbarius,,Christos Christodoulou,2023-10-21,2023,10,21,639,Greece,GR-I-52,Attica,Islands,Antikythira Bird Observatory (Ορνιθολογικός Σταθμός Αντικυθήρων),35.8643650,23.3070767,"",,Unspecified,"","",,,,,,,S152751922,"",,,,"Female, photo",Falco columbarius,merlin,Species,11947,,4.82,11,,2960,4466
627101071,Photo,Merlin,Falco columbarius,,Sylvie Martel / Gaétan Giroux,2024-12-04,2024,12,4,829,Canada,CA-QC-VR,Quebec,La Vallée-du-Richelieu,Ancien site de compostage & Ch. des Trente,45.5225257,-73.2634449,"",,Unspecified,"","",,,,,,,S204451317,"",,,,,Falco columbarius,merlin,Species,11947,,4.47,17,,1188,1363
187751031,Photo,Merlin,Falco columbarius,,Jorge Eduardo Ruano,2017-12-27,2017,12,27,1421,Belize,BZ-OW,Orange Walk,,"Eduardo's Back Yard.",17.7527027,-88.6592566,"",,Unspecified,"","",,,,,,,S41407873,"",,,,,Falco columbarius,merlin,Species,11947,,4.29,24,,1819,2728
191896071,Photo,Merlin,Falco columbarius,,Samuel Denault,2019-12-07,2019,12,7,1005,Canada,CA-QC-MR,Quebec,Montréal,Parc Maynard-Ferguson,45.4464071,-73.5565570,"",,Unspecified,"","",,,,,,,S62114961,"",,,,,Falco columbarius,merlin,Species,11947,,4.32,22,,2888,4000
514876331,Photo,Merlin,Falco columbarius,,Ryan Justice,2022-12-11,2022,12,11,903,United States,US-NC-055,North Carolina,Dare,Alligator River NWR,35.8640750,-75.8620100,"",,Unspecified,"","",,,,,,,S123793145,"",,,,,Falco columbarius,merlin,Species,11947,,4.33,21,,3945,3399
328642011,Photo,Merlin,Falco columbarius,,Nat Carmichael,2021-04-21,2021,4,21,559,United States,US-IL-097,Illinois,Lake,Waukegan Beach,42.3640000,-87.8139000,"",,Unspecified,"","",,,,,,,S86016190,"",,,,Bad day to be a cowbird!,Falco columbarius,merlin,Species,11947,,4.60,15,,1072,1500
626373411,Photo,Merlin,Falco columbarius,,Mileta Čeković,2024-11-17,2024,11,17,1000,Serbia,RS-VO,Vojvodina,,"Sakule ribnjak--jezero Jer (private fish farm, ask for permission)",45.1366351,20.4742240,"",,Unspecified,"","",,,,,,,S202750786,"",,,,"Napokon je dolijao, Mali soko, Falco columbarius, Merlin! Prelet preko njiva između dva jezera prema istoku.",Falco columbarius,merlin,Species,11947,,4.62,13,,1350,1800
204202701,Photo,Merlin (Black),Falco columbarius suckleyi,,Lorenzo Vinciguerra,2017-08-01,2017,8,1,0,Canada,CA-BC-GV,British Columbia,Metro Vancouver,Deer Lake Park,49.2376833,-122.9678577,"","Flying; Foraging or Eating",Unspecified,"","",,IBC1402882,,,,,S64972316,"",,,"Merlin eating a Dragonfly. Elevation: 21 m. Date added to IBC: August 6, 2017.",,Falco columbarius,blkmer1,Group,11957,,4.62,13,"",1920,2400
394923521,Photo,Merlin (Taiga),Falco columbarius columbarius,,Long-eared Owl,2021-12-08,2021,12,8,1341,United States,US-CA-079,California,San Luis Obispo,Las Pilitas Rd Bridges at Salinas River,35.3485232,-120.5132282,"",,Unspecified,"","",,,,,,,S98642714,"",,,,,Falco columbarius,taimer1,Group,11955,,4.36,22,,929,1239
122009731,Photo,Merlin,Falco columbarius,,Mike Stewart,2018-11-04,2018,11,4,730,United States,US-TX-029,Texas,Bexar,Crescent Bend Nature Park (Bexar Co.),29.5502272,-98.2325739,"",,Unspecified,"","",,,,,,,S49667555,"",,,,,Falco columbarius,merlin,Species,11947,,4.73,11,,836,836
264076051,Photo,Merlin (Taiga),Falco columbarius columbarius,,Sam Zhang,2020-09-19,2020,9,19,606,United States,US-MA-009,Massachusetts,Essex,Parker River NWR,42.7639008,-70.8022995,Adult Female – 1,Foraging or Eating,Unspecified,"","",,,,,,,S73807257,"",,,,,Falco columbarius,taimer1,Group,11955,,4.37,19,"",1549,2754
500386741,Photo,Merlin,Falco columbarius,,Linda Chittum,2022-10-30,2022,10,30,1327,United States,US-CO-077,Colorado,Mesa,Riverside Trail - 32 Road to 33.5 Road,39.0636760,-108.4385690,"",,Unspecified,"","",,,,,,,S121814701,"",,,,,Falco columbarius,merlin,Species,11947,,4.69,13,,2234,3351
526583201,Photo,Merlin,Falco columbarius,,Lou Ann Harris,2023-01-21,2023,1,21,800,United States,US-MT-031,Montana,Gallatin,Harris Residence,45.7280063,-111.0574815,Adult Female – 1,Foraging or Eating,Unspecified,"","",,,,,,,S126643684,"",,,,Prairie ssp.,Falco columbarius,merlin,Species,11947,,4.80,10,"",1280,1148
428475661,Photo,Merlin,Falco columbarius,,Pavel Štěpánek,2022-02-05,2022,2,5,700,Czech Republic,CZ-JM,Jihomoravský kraj,,Pohořelice,48.9815210,16.5213069,"",,Unspecified,"","",,,,,,,S105536382,"",,,,,Falco columbarius,merlin,Species,11947,,4.80,10,,2758,3800
335441261,Photo,Merlin,Falco columbarius,,Ted Keyel,2021-05-08,2021,5,8,522,United States,US-MN-137,Minnesota,St. Louis,Stoney Point,46.9245458,-91.8176841,"",Flying,Unspecified,"","",,,,,,,S87488896,"",,,,,Falco columbarius,merlin,Species,11947,,4.80,10,"",1890,2835
301032751,Photo,Merlin,Falco columbarius,,Thomas Creel,2021-01-24,2021,1,24,830,United States,US-TX-439,Texas,Tarrant,Winscott Plover Road,32.5562658,-97.5213862,"",,Unspecified,"","",,,,,,,S79810230,"",,,,,Falco columbarius,merlin,Species,11947,,4.80,10,,1016,1500
421750901,Photo,Merlin,Falco columbarius,,Marisa Hernandez,2022-03-03,2022,3,3,1000,United States,US-NY-047,New York,Kings,Prospect Park,40.6602841,-73.9689534,"",,Unspecified,"","",,,,,,,S104099821,"",,,,,Falco columbarius,merlin,Species,11947,,4.73,11,,1278,1126
70300281,Photo,Merlin,Falco columbarius,,Tom Long,2017-09-29,2017,9,29,755,Canada,CA-QC-RS,Quebec,Roussillon,"RF Marguerite-D'Youville",45.3914585,-73.7611771,"",,Unspecified,"","",,,,,,,S39454157,"",,,,,Falco columbarius,merlin,Species,11947,,3.91,181,,957,1505
628143527,Photo,Merlin,Falco columbarius,,Yonatan Gordon,2024-12-27,2024,12,27,1140,Israel,IL-Z,HaZafon,,Hula Valley--Lake Agmon אגמון החולה,33.1093000,35.6041000,"",,Unspecified,"","",,,,,,,S206750374,"",,,,,Falco columbarius,merlin,Species,11947,,4.89,9,,1143,1715
624120446,Photo,Merlin,Falco columbarius,,Michel Proulx,2024-09-21,2024,9,21,900,Canada,CA-QC-RM,Quebec,Rimouski-Neigette,"Quai, Pointe-au-Père",48.5188557,-68.4732342,"",,Unspecified,"","",,,,,,,S195937249,"",,,,,Falco columbarius,merlin,Species,11947,,4.89,9,,2899,4135
615793551,Photo,Merlin,Falco columbarius,,Patrice St-Pierre,2024-03-08,2024,3,8,615,Canada,CA-QC-RM,Quebec,Rimouski-Neigette,"Rue Léonard, Rimouski",48.4571637,-68.5145717,"",,Unspecified,"","",,,,,,,S164131395,"",,,,,Falco columbarius,merlin,Species,11947,,4.89,9,,1761,2641
613544488,Photo,Merlin (Prairie),Falco columbarius richardsonii,,Andrew Thomas 🦅🪶,2024-01-14,2024,1,14,1445,United States,US-WA-063,Washington,Spokane,"Pine Bluff, Chattaroy",47.8648362,-117.3219439,"",,Unspecified,"","",,,,,,,S158934604,"",,,,Photos. Palest subspecies. Had here before.,Falco columbarius,pramer1,Group,11956,,4.89,9,,1822,2908
612912435,Photo,Merlin (Taiga),Falco columbarius columbarius,,Quinn Diaz,2023-12-31,2023,12,31,1638,United States,US-UT-043,Utah,Summit,"I-80 W, Park City US-UT 40.75520, -111.57411",40.7552030,-111.5741100,"",,Unspecified,"","",,,,,,,S157669245,"",,,,,Falco columbarius,taimer1,Group,11955,,4.89,9,,4164,6247
612912429,Photo,Merlin (Taiga),Falco columbarius columbarius,,Quinn Diaz,2023-12-31,2023,12,31,1638,United States,US-UT-043,Utah,Summit,"I-80 W, Park City US-UT 40.75520, -111.57411",40.7552030,-111.5741100,"",,Unspecified,"","",,,,,,,S157669245,"",,,,,Falco columbarius,taimer1,Group,11955,,4.89,9,,3806,5709
598985041,Photo,Merlin (Black),Falco columbarius suckleyi,,Blair Dudeck,2023-07-30,2023,7,30,905,Canada,CA-BC-CP,British Columbia,Capital,Island View Beach,48.5751003,-123.3681107,"",,Unspecified,"","",,,,,,,S146035416,"",,,,,Falco columbarius,blkmer1,Group,11957,,4.89,9,,2546,3817
473985311,Photo,Merlin,Falco columbarius,,Drew Weber,2022-08-08,2022,8,8,1001,United States,US-MI-101,Michigan,Manistee,Arcadia Marsh,44.4888979,-86.2285888,"",,Unspecified,"","",,,,,,,S116557562,"",,,,,Falco columbarius,merlin,Species,11947,,4.89,9,,2959,4931
382079791,Photo,Merlin,Falco columbarius,,Karalyn Lamb,2021-10-23,2021,10,23,1505,United States,US-NY-119,New York,Westchester,Croton Point Park,41.1871668,-73.8891219,"",,Unspecified,"","",,,,,,,S96612459,"",,,,,Falco columbarius,merlin,Species,11947,,4.89,9,,1846,2599
111207731,Photo,Merlin,Falco columbarius,,Chris Rees,2018-08-16,2018,8,16,1845,Canada,CA-AB-EL,Alberta,Edmonton,Fort Saskatchewan--Gravel Pits,53.6576494,-113.2706791,"",,Unspecified,"","",,,,,,,S47894735,"",,,,Bird was actively capturing dragonflies tonight.,Falco columbarius,merlin,Species,11947,,4.89,9,,3141,4712
475653721,Photo,Merlin,Falco columbarius,,Rain Saulnier,2022-08-15,2022,8,15,1752,Canada,CA-AB-SI,Alberta,Calgary,Fish Creek PP--Boat Launch,50.8973148,-114.0124655,"",,Unspecified,"","",,,,,,,S117015628,"",,,,2 of them (apparent juveniles) chasing flickers around,Falco columbarius,merlin,Species,11947,,4.80,10,,1365,2048
421747311,Photo,Merlin,Falco columbarius,,Charles Fitzpatrick,2022-03-03,2022,3,3,931,Canada,CA-NL-ON,Newfoundland and Labrador,"Avalon Peninsula-St. John's","St. John's--Bowring Park",47.5278631,-52.7467354,"",,Unspecified,"","",,,,,,,S104093159,"",,,,Adult male flew in and perched on the top of a dead Balsam Fir tree directly across from the Amphitheatre..photographed,Falco columbarius,merlin,Species,11947,,4.80,10,,1771,1516
363232991,Photo,Merlin (Taiga),Falco columbarius columbarius,,Andrew Thomas 🦅🪶,2021-08-21,2021,8,21,900,United States,US-WA-063,Washington,Spokane,"Pine Bluff, Chattaroy",47.8648362,-117.3219439,"",,Unspecified,"","",,,,,,,S93609814,"",,,,Darker than prairie subspecies.,Falco columbarius,taimer1,Group,11955,,4.80,10,,1856,2784
363232951,Photo,Merlin (Taiga),Falco columbarius columbarius,,Andrew Thomas 🦅🪶,2021-08-21,2021,8,21,900,United States,US-WA-063,Washington,Spokane,"Pine Bluff, Chattaroy",47.8648362,-117.3219439,"",,Unspecified,"","",,,,,,,S93609814,"",,,,Darker than prairie subspecies.,Falco columbarius,taimer1,Group,11955,,4.80,10,,1907,2860
363232941,Photo,Merlin (Taiga),Falco columbarius columbarius,,Andrew Thomas 🦅🪶,2021-08-21,2021,8,21,900,United States,US-WA-063,Washington,Spokane,"Pine Bluff, Chattaroy",47.8648362,-117.3219439,"",,Unspecified,"","",,,,,,,S93609814,"",,,,Darker than prairie subspecies.,Falco columbarius,taimer1,Group,11955,,4.80,10,,1808,2711
622924026,Photo,Merlin,Falco columbarius,,Julie Paquette,2024-08-25,2024,8,25,1026,Canada,CA-QC-SH,Quebec,Sherbrooke,"Belvédère d'Hydro-Sherbrooke",45.3911791,-71.9200112,"",,Unspecified,"","",,,,,,,S192750912,"",,,,,Falco columbarius,merlin,Species,11947,,5.00,8,,1247,1806
615588325,Photo,Merlin,Falco columbarius,,Randall Everts,2024-03-03,2024,3,3,900,United States,US-IL-043,Illinois,DuPage,Danada Forest Preserve--West,41.8243000,-88.1167000,"",,Unspecified,"","",,,,,,,S163586496,"",,,,,Falco columbarius,merlin,Species,11947,,5.00,8,,1274,1888
613849551,Photo,Merlin,Falco columbarius,,Mike Cameron,2024-01-21,2024,1,21,1624,United States,US-TX-085,Texas,Collin,Lavon Lake - Lakeland PK,33.1036050,-96.4433780,Adult Male – 1,,Unspecified,"","",,,,,,,S159498638,"",,,,Male and female perched together.  Photos,Falco columbarius,merlin,Species,11947,,5.00,8,,1536,2048
613544486,Photo,Merlin (Prairie),Falco columbarius richardsonii,,Andrew Thomas 🦅🪶,2024-01-14,2024,1,14,1445,United States,US-WA-063,Washington,Spokane,"Pine Bluff, Chattaroy",47.8648362,-117.3219439,"",,Unspecified,"","",,,,,,,S158934604,"",,,,Photos. Palest subspecies. Had here before.,Falco columbarius,pramer1,Group,11956,,5.00,8,,1756,2813
613544485,Photo,Merlin (Prairie),Falco columbarius richardsonii,,Andrew Thomas 🦅🪶,2024-01-14,2024,1,14,1445,United States,US-WA-063,Washington,Spokane,"Pine Bluff, Chattaroy",47.8648362,-117.3219439,"",,Unspecified,"","",,,,,,,S158934604,"",,,,Photos. Palest subspecies. Had here before.,Falco columbarius,pramer1,Group,11956,,5.00,8,,1607,2621
612912434,Photo,Merlin (Taiga),Falco columbarius columbarius,,Quinn Diaz,2023-12-31,2023,12,31,1638,United States,US-UT-043,Utah,Summit,"I-80 W, Park City US-UT 40.75520, -111.57411",40.7552030,-111.5741100,"",,Unspecified,"","",,,,,,,S157669245,"",,,,,Falco columbarius,taimer1,Group,11955,,5.00,8,,4199,6298
612912428,Photo,Merlin (Taiga),Falco columbarius columbarius,,Quinn Diaz,2023-12-31,2023,12,31,1638,United States,US-UT-043,Utah,Summit,"I-80 W, Park City US-UT 40.75520, -111.57411",40.7552030,-111.5741100,"",,Unspecified,"","",,,,,,,S157669245,"",,,,,Falco columbarius,taimer1,Group,11955,,5.00,8,,3841,5761
612337297,Photo,Merlin,Falco columbarius,,J Tanner,2023-12-15,2023,12,15,1400,United States,US-CA-001,California,Alameda,Coyote Hills Regional Park,37.5537640,-122.0875025,"",,Unspecified,"","",,,,,,,S156404665,"",,,,,Falco columbarius,merlin,Species,11947,,5.00,8,,1762,2643
612306387,Photo,Merlin (Taiga),Falco columbarius columbarius,,Ian Nicholson,2023-12-14,2023,12,14,913,Canada,CA-ON-OT,Ontario,Ottawa,"Ottawa--Shirley's Bay (Hilda Road feeders)",45.3630185,-75.8797129,"",,Unspecified,"","",,,,,,,S156294974,"",,,,,Falco columbarius,taimer1,Group,11955,,5.00,8,,3000,4000
610978652,Photo,Merlin (Prairie),Falco columbarius richardsonii,,David Drews,2023-11-08,2023,11,8,1117,United States,US-CO-075,Colorado,Logan,Tamarack Ranch SWA--385 Rd,40.8438139,-102.7554274,Adult Female – 1,,Unspecified,"","",,,,,,,S154047844,"",,,With prey (small bird),,Falco columbarius,pramer1,Group,11956,,5.00,8,,2448,3267
610523441,Photo,Merlin (Black),Falco columbarius suckleyi,,Garrett Hughes,2023-10-28,2023,10,28,1325,United States,US-WA-049,Washington,Pacific,Grayland Beach State Park,46.7880721,-124.0941381,"",,Unspecified,"","",,,,,,,S153276451,"",,,,,Falco columbarius,blkmer1,Group,11957,,5.00,8,,2910,5174
610404845,Photo,Merlin,Falco columbarius,,Mike Affinito,2023-10-17,2023,10,17,945,United States,US-IL-097,Illinois,Lake,"North Point Marina/State Line Beach, Winthrop Harbor",42.4877956,-87.8023911,"",,Unspecified,"","",,,,,,,S152508369,"",,,,Excellent views,Falco columbarius,merlin,Species,11947,,5.00,8,,1082,1623
609959099,Photo,Merlin,Falco columbarius,,Andrew Thomas 🦅🪶,2023-10-14,2023,10,14,1815,United States,US-WA-063,Washington,Spokane,Riverfront Park,47.6620575,-117.4196938,"",,Unspecified,"","",,,,,,,S152268493,"",,,,Selected a Pigeon away from the flock and chased it into a car. Then came down to finish it off! It was in the road so I went over to move it and it got very defensive. Moved the pigeon over onto the sidewalk and let the Taiga Merlin continue with dinner.,Falco columbarius,merlin,Species,11947,,5.00,8,,6960,4640
609274751,Photo,Merlin,Falco columbarius,,Andrew Thomas 🦅🪶,2023-09-23,2023,9,23,1326,United States,US-WA-027,Washington,Grays Harbor,Bottle Beach,46.8932770,-124.0468136,Immature – 1,,Unspecified,"","",,,,,,,S150776861,"",,,Tigia Subspecies.,Taiga subspecies. Picked off a Least Sandpiper.,Falco columbarius,merlin,Species,11947,,5.00,8,,1680,2515
608360022,Photo,Merlin,Falco columbarius,,Lev Frid,2023-09-01,2023,9,1,742,Canada,CA-ON-YO,Ontario,York,Kortright Conservation Centre,43.8281377,-79.5880688,"",,Unspecified,"","",,,,,,,S148696414,"",,,,,Falco columbarius,merlin,Species,11947,,5.00,8,,1497,2246
550477771,Photo,Merlin,Falco columbarius,,Steven Meisel,2023-03-27,2023,3,27,1435,United States,US-MN-163,Minnesota,Washington,Neal Ave S--south of 70th St.,44.8118113,-92.8417709,"",,Unspecified,"","",,,,,,,S131990121,"",,,,,Falco columbarius,merlin,Species,11947,,5.00,8,,3888,5184
502474121,Photo,Merlin,Falco columbarius,,Karalyn Lamb,2022-11-10,2022,11,10,1315,United States,US-NY-119,New York,Westchester,Croton Point Park,41.1784295,-73.8937758,"",,Unspecified,"","",,,,,,,S122200016,"",,,,Dive-bombing a red tail on landfill,Falco columbarius,merlin,Species,11947,,5.00,8,,2016,2623
498222571,Photo,Merlin (Taiga),Falco columbarius columbarius,,Nathan French,2022-10-27,2022,10,27,1533,United States,US-CA-073,California,San Diego,San Diego River mudflats & Robb Field,32.7569331,-117.2394124,"",,Unspecified,"","",,,,,,,S121421818,"",,,,Seen on one of the field lights getting harassed by crows. It flew the distance of the field and tried to catch a bird unsuccessfully before returning to the light and eventually flew south.,Falco columbarius,taimer1,Group,11955,,5.00,8,,1333,2000
487134971,Photo,Merlin,Falco columbarius,,Brian Stahls,2022-09-24,2022,9,24,705,Canada,CA-ON-TO,Ontario,Toronto,Tommy Thompson Park,43.6282673,-79.3291670,"",,Unspecified,"","",,,,,,,S119355537,"",,,,,Falco columbarius,merlin,Species,11947,,5.00,8,,2687,4031
443683181,Photo,Merlin,Falco columbarius,,R Miller,2022-05-03,2022,5,3,855,United States,US-NY-111,New York,Ulster,Saugerties Lighthouse,42.0722249,-73.9367873,"",,Unspecified,"","",,,,,,,S108853646,"",,,,,Falco columbarius,merlin,Species,11947,,5.00,8,,969,1722
397356061,Photo,Merlin,Falco columbarius,,Brian Genge,2021-12-19,2021,12,19,1438,United States,US-CO-041,Colorado,El Paso,Fountain Creek Regional Park,38.7071991,-104.7164001,"",,Unspecified,"","",,,,,,,S99148680,"",,,,,Falco columbarius,merlin,Species,11947,,5.00,8,,1400,1120
364435871,Photo,Merlin,Falco columbarius,,Bethan Clyne,2021-08-22,2021,8,22,800,United Kingdom,GB-ENG-ERY,England,East Riding of Yorkshire,Spurn Bird Observatory Recording Area,53.6007672,0.1461485,"",Foraging or Eating,Unspecified,"","",,,,,,,S93809991,"",,,1cy female catching and eating Emperor dragonflies on Canal Scrape,Showing very well on Canal Scrape,Falco columbarius,merlin,Species,11947,,5.00,8,Habitat,2739,4386
364435191,Photo,Merlin,Falco columbarius,,Bethan Clyne,2021-08-22,2021,8,22,800,United Kingdom,GB-ENG-ERY,England,East Riding of Yorkshire,Spurn Bird Observatory Recording Area,53.6007672,0.1461485,"","Flying; Foraging or Eating",Unspecified,"","",,,,,,,S93809991,"",,,1cy female catching and eating Emperor dragonflies on Canal Scrape,Showing very well on Canal Scrape,Falco columbarius,merlin,Species,11947,,5.00,8,Habitat,2048,3467
304883151,Photo,Merlin,Falco columbarius,,Scott Evans,2021-02-06,2021,2,6,1714,United States,US-IN-105,Indiana,Monroe,Peppergrass,39.1257721,-86.5231353,"",,Unspecified,"","",,,,,,,S80548626,"",,,,,Falco columbarius,merlin,Species,11947,,5.00,8,,1601,2401
301032661,Photo,Merlin,Falco columbarius,,Thomas Creel,2021-01-24,2021,1,24,830,United States,US-TX-439,Texas,Tarrant,Winscott Plover Road,32.5562658,-97.5213862,"",,Unspecified,"","",,,,,,,S79810230,"",,,,,Falco columbarius,merlin,Species,11947,,5.00,8,,1500,1141
96322421,Photo,Merlin,Falco columbarius,,Timothy P. Jones,2007-11-12,2007,11,12,0,United States,US-AR-093,Arkansas,Mississippi,Big Lake WMA--Mallard Lake,35.8795926,-90.0926971,"",,Unspecified,"","",,,,,,,S4295885,"",,,,,Falco columbarius,merlin,Species,11947,,5.00,8,,1456,2184
81909141,Photo,Merlin (Taiga),Falco columbarius columbarius,,Brian Sullivan,2018-01-12,2018,1,12,1505,United States,US-CA-053,California,Monterey,Gloria Road & Camphora-Gloria Road,36.5034448,-121.3649744,"",,Unspecified,"","",,,,,,,S41851387,"",,,,,Falco columbarius,taimer1,Group,11955,,5.00,8,,1500,2500
39789321,Photo,Merlin,Falco columbarius,,Bob Stymeist,2016-11-13,2016,11,13,1110,United States,US-MA-025,Massachusetts,Suffolk,Winthrop Beach and Five Sisters,42.3747938,-70.9681878,"",,Unspecified,"","",,,,,,,S32521331,"",,,,"walking in the area the snow buntings were feeding, see pics",Falco columbarius,merlin,Species,11947,,5.00,8,,2202,1985
37562571,Photo,Merlin (Prairie),Falco columbarius richardsonii,,Chris Anderson,2016-10-16,2016,10,16,1138,United States,US-SD-135,South Dakota,Yankton,US-SD-Lesterville-29809-29833 429th Ave - 43.0554x-97.6166,43.0553610,-97.6165710,"",,Unspecified,"","",,,,,,,S32066482,"",,,,,Falco columbarius,pramer1,Group,11956,,5.00,8,,2343,3124
199373361,Photo,Merlin,Falco columbarius,,Hilary Bradnam,2020-01-14,2020,1,14,1206,Canada,CA-AB-SI,Alberta,Calgary,"8120 47 Ave NW, Calgary CA-AB (51.0950,-114.2034)",51.0950370,-114.2033650,"",,Unspecified,"","",,,,,,,S63394701,"",,,,,Falco columbarius,merlin,Species,11947,,4.19,31,,3230,4833
600256531,Photo,Merlin,Falco columbarius,,Leah Turner,2023-08-04,2023,8,4,615,United States,US-WA-033,Washington,King,Juanita Bay Park,47.6981686,-122.2101878,"",,Unspecified,"","",,,,,,,S146427094,"",,,,,Falco columbarius,merlin,Species,11947,,4.54,13,,990,1407
143137881,Photo,Merlin (Prairie),Falco columbarius richardsonii,,Ed Harper,2019-02-28,2019,2,28,1558,United States,US-CA-113,California,Yolo,Yolo: Road 88 from Moody to Rd 32A,38.5380453,-121.9895589,Adult Male,,Unspecified,"","",,,,,,,S53240015,"",,,,"Unusual race in the Central Valley, but tail pattern and facial features support richardsonii.",Falco columbarius,pramer1,Group,11956,,4.35,17,,790,1024
390386191,Photo,Merlin (Prairie),Falco columbarius richardsonii,,Anonymous,2021-11-22,2021,11,22,750,United States,US-CA-065,California,Riverside,Desert Center--Lake Tamarisk,33.7402932,-115.3947902,"",,Unspecified,"","",,,,,,,S97968399,"",,,,"Continuing male. Seen in leafless tree along west side of larger south lake. Powder blue back, subtle face pattern, brown streaking on breast.",Falco columbarius,pramer1,Group,11956,,4.57,14,,2658,4052
296768791,Photo,Merlin,Falco columbarius,,Brad Imhoff,2021-01-07,2021,1,7,931,United States,US-OH-089,Ohio,Licking,Buckeye Lake SP--North Shore,39.9322696,-82.4780355,"",,Unspecified,"","",,,,,,,S78818920,"",,,,,Falco columbarius,merlin,Species,11947,,4.27,26,,1681,2521
199105671,Photo,Merlin,Falco columbarius,,Mário Estevens,2020-01-11,2020,1,11,914,Portugal,PT-11-VX,Lisboa,Vila Franca de Xira,Lezíria Grande de Vila Franca de Xira--área geral (acesso condicionado),38.8915673,-8.9387512,"",,Unspecified,"","",,,,,,,S63276437,"",,,,Female,Falco columbarius,merlin,Species,11947,,4.64,11,,3203,2130
152597841,Photo,Merlin,Falco columbarius,,Yves Darveau,2019-04-21,2019,4,21,1015,Canada,CA-QC-SAG,Quebec,Saguenay,"Ch. des Puits, Laterrière",48.3375526,-71.1406803,"",,Unspecified,"","",,,,,,,S55230057,"",,,,,Falco columbarius,merlin,Species,11947,,4.54,13,,,
612198018,Photo,Merlin,Falco columbarius,,N. Wade Snyder,2023-12-13,2023,12,13,1040,United States,US-WV-037,West Virginia,Jefferson,"USDA, Appalachian Fruit Research Station, Bardane",39.3511011,-77.8815943,"",,Unspecified,"","",,,,,,,S156259652,"",,,,"Initially seen perched on some wild grape vines growing into a cluster of trees. An American Crow did not accept the Merlin's presence, and chased it from that perch to a perch in one of the apple tree blocks. I feel fortunate to have been able to get photos of both upper and lower body.",Falco columbarius,merlin,Species,11947,,4.70,10,,1681,2354
514278781,Photo,Merlin,Falco columbarius,,Stan Lilley,2022-12-18,2022,12,18,1146,United States,US-MI-073,Michigan,Isabella,"4001–4351 N Littlefield Rd, Weidman US-MI 43.70215, -84.94865",43.7021480,-84.9486500,"",,Unspecified,"","",,,,,,,S124187983,"",,,,,Falco columbarius,merlin,Species,11947,,4.70,10,,2830,4246
402422161,Photo,Merlin,Falco columbarius,,Chris Dean,2022-01-04,2022,1,4,922,United States,US-CA-037,California,Los Angeles,Jesse Owens Park,33.9462081,-118.3108234,"",,Unspecified,"","",,,,,,,S100104791,"",,,,"Perched north of playground, eating male House Sparrow. The coloration looked different than those I've observed lately. Kimball kindly provided feedback on this interesting individual, ""I agree with you that this looks a bit darker than a typical richardsoni. On the other hand, it is certainly at the pale end for columbarius (which is a highly variable subspecies, spanning almost the continuum of phenotypes from dark extreme richardsoni to pale-extreme suckleyi.  Factoring in also the intergradation that occurs at subspecies boundaries, and I wonder if it is wise to put a subspecies name on this bird.  Both richardsoni and columbarius have expanded their breeding ranges in recent decades, and I suspect that intergradation is frequent.""",Falco columbarius,merlin,Species,11947,,4.70,10,,2509,3626
87329091,Photo,Merlin,Falco columbarius,,Jonathan Nikkila,2018-02-24,2018,2,24,1750,United States,US-NE-019,Nebraska,Buffalo,Cabelas Parking Lot,40.7067123,-99.0333402,"",,Unspecified,"","",,,,,,,S43155260,"",,,,,Falco columbarius,merlin,Species,11947,,4.70,10,,3187,4781
550086751,Photo,Merlin,Falco columbarius,,Kathy L. Mock,2023-03-26,2023,3,26,1704,United States,US-OH-153,Ohio,Summit,"Greenlawn Memorial Park Cemetery, Akron",41.0439593,-81.5852773,"",,Unspecified,"","",,,,,,,S131910039,"",,,,,Falco columbarius,merlin,Species,11947,,4.64,11,,3079,3856
256957141,Photo,Merlin,Falco columbarius,,Bridget Spencer,2020-08-20,2020,8,20,1510,Canada,CA-BC-GV,British Columbia,Metro Vancouver,Boundary Bay Regional Park,49.0181810,-123.0461152,"",,Unspecified,"","",,,,,,,S72654721,"",,,,,Falco columbarius,merlin,Species,11947,,4.64,11,,3135,4702
