ML Catalog Number,Format,Common Name,Scientific Name,Background Species,Recordist,Date,Year,Month,Day,Time,Country,Country-State-County,State,County,Locality,Latitude,Longitude,Age/Sex,Behaviors,Playback,Captive,Collected,Specimen ID,Home Archive Catalog Number,Recorder,Microphone,Accessory,Partner Institution,eBird Checklist ID,Unconfirmed,Air Temp(°C),Water Temp(°C),Media notes,Observation Details,Parent Species,eBird Species Code,Taxon Category,Taxonomic Sort,Recordist 2,Average Community Rating,Number of Ratings,Asset Tags,Original Image Height,Original Image Width
387876921,Photo,White-eyed Vireo,Vireo griseus,,Frédérick Lelièvre,2021-11-13,2021,11,13,1256,Canada,CA-QC-QU,Quebec,Québec,Base de plein air de Ste-Foy,46.7906725,-71.3303447,"",,Unspecified,"","",,,,,,,S97530240,"",,,,Trouvé ce matin par Philippe Jobin et France Carbonneau dans la tourbière.,Vireo griseus,whevir,Species,18966,,4.92,145,,2560,3840
442287721,Photo,White-eyed Vireo,Vireo griseus,,Cody Bassindale,2022-04-30,2022,4,30,1345,Canada,CA-ON-NF,Ontario,Norfolk,"Long Point--'New' Provincial Park",42.5806413,-80.3857613,"",,Unspecified,"","",,,,,,,S108541524,"",,,,,Vireo griseus,whevir,Species,18966,,4.94,95,,2135,3202
182270251,Photo,White-eyed Vireo,Vireo griseus,,Martina Nordstrand,2019-09-30,2019,9,30,910,United States,US-NC-179,North Carolina,Union,Rosewater Lane,35.0456712,-80.6590318,Immature – 1,,Unspecified,"","",,,,,,,S60233314,"",,,,2nd yard record,Vireo griseus,whevir,Species,18966,,4.96,79,,3284,4925
230077021,Photo,White-eyed Vireo,Vireo griseus,,Matthew Addicks,2020-05-02,2020,5,2,728,United States,US-MD-025,Maryland,Harford,Susquehanna SP--Deer Creek Picnic Area,39.6193754,-76.1586857,"",,Unspecified,"","",,,,,,,S68273225,"",,,,,Vireo griseus,whevir,Species,18966,,4.89,98,,1812,2850
388787481,Photo,White-eyed Vireo,Vireo griseus,,Jian Mei,2021-11-17,2021,11,17,924,Canada,CA-ON-TO,Ontario,Toronto,Toronto--Staines Pond,43.8204863,-79.2185605,"",,Unspecified,"","",,,,,,,S97704329,"",,,,Continuing bird. Seen by many. Photos taken,Vireo griseus,whevir,Species,18966,,4.93,70,,1005,1508
388602211,Photo,White-eyed Vireo,Vireo griseus,,Brian Stahls,2021-11-16,2021,11,16,1335,Canada,CA-ON-TO,Ontario,Toronto,"Toronto--Ashbridge's Bay Park",43.6599861,-79.3093553,"",,Unspecified,"","",,,,,,,S97678692,"",,,,Found by Noam this morning. Thanks to Jesse who relocated this afternoon.,Vireo griseus,whevir,Species,18966,,4.98,54,,1470,2204
561325421,Photo,White-eyed Vireo,Vireo griseus,,Erica Heusser,2023-04-22,2023,4,22,715,United States,US-NJ-005,New Jersey,Burlington,Michael Huber Prairie Warbler Preserve,39.8674559,-74.6084976,"",,Unspecified,"","",,,,,,,S134632609,"",,,,,Vireo griseus,whevir,Species,18966,,4.87,79,,3496,4634
431151441,Photo,White-eyed Vireo,Vireo griseus,,Denny Swaby,2022-04-02,2022,4,2,800,United States,US-FL-081,Florida,Manatee,Leffis Key,27.4522656,-82.6890434,"",,Unspecified,"","",,,,,,,S106112760,"",,,,,Vireo griseus,whevir,Species,18966,,4.98,44,,1542,2300
440225621,Photo,White-eyed Vireo,Vireo griseus,,Alicia Ambers,2022-04-19,2022,4,19,1345,United States,US-VA-800,Virginia,Suffolk,Great Dismal Swamp NWR--Railroad Ditch,36.6191100,-76.5273285,Adult Male – 1,,Unspecified,"","",,,,,,,S108032313,"",,,,,Vireo griseus,whevir,Species,18966,,4.87,55,,1241,1861
182270221,Photo,White-eyed Vireo,Vireo griseus,,Martina Nordstrand,2019-09-30,2019,9,30,910,United States,US-NC-179,North Carolina,Union,Rosewater Lane,35.0456712,-80.6590318,Immature – 1,,Unspecified,"","",,,,,,,S60233314,"",,,"Came too close, got cut off! ",2nd yard record,Vireo griseus,whevir,Species,18966,,4.76,85,,2535,3803
387876811,Photo,White-eyed Vireo,Vireo griseus,,Frédérick Lelièvre,2021-11-13,2021,11,13,1256,Canada,CA-QC-QU,Quebec,Québec,Base de plein air de Ste-Foy,46.7906725,-71.3303447,"",,Unspecified,"","",,,,,,,S97530240,"",,,,Trouvé ce matin par Philippe Jobin et France Carbonneau dans la tourbière.,Vireo griseus,whevir,Species,18966,,4.84,61,,2560,3840
49101761,Photo,White-eyed Vireo,Vireo griseus,,Craig Brelsford,2017-02-21,2017,2,21,722,United States,US-FL-127,Florida,Volusia,Gemini Springs Park,28.8657036,-81.3090849,"","",Unspecified,"","",,,,,,,S34614955,"",,,"White-eyed Vireo Vireo griseus, Gemini Springs Park, Volusia County, Florida, USA, 21 February 2017. © 2017 by Craig Brelsford (www.craigbrelsford.com, www.shanghaibirding.com).",singing,Vireo griseus,whevir,Species,18966,,4.84,50,Watermark,1250,1667
614779890,Photo,White-eyed Vireo,Vireo griseus,,Aquiles Brinco,2020-02-23,2020,2,23,834,Mexico,MX-TAM-032,Tamaulipas,Reynosa,Rancho Santa Ercilia -- Acceso restringido,25.5392510,-98.2716180,Adult – 1,"",Unspecified,"","",,,,,,,S161404448,"",,,,,Vireo griseus,whevir,Species,18966,,5.00,30,In-hand,1200,1600
153092931,Photo,White-eyed Vireo,Vireo griseus,,Brad Imhoff,2019-04-23,2019,4,23,733,United States,US-OH-089,Ohio,Licking,Denison University Biological Reserve,40.0836864,-82.5186539,"",,Unspecified,"","",,,,,,,S55300626,"",,,,,Vireo griseus,whevir,Species,18966,,4.78,60,,,
614619695,Photo,White-eyed Vireo,Vireo griseus,,Matt Felperin,2024-01-21,2024,1,21,803,United States,US-TX-061,Texas,Cameron,Resaca de la Palma SP WBC (Brownsville) (LTC 048),25.9965839,-97.5690513,"",,Unspecified,"","",,,,,,,S159467390,"",,,,,Vireo griseus,whevir,Species,18966,,5.00,26,,1816,2723
219691331,Photo,White-eyed Vireo,Vireo griseus,,Scott Martin,2020-03-01,2020,3,1,715,United States,US-FL-095,Florida,Orange,Orlando Wetlands Park,28.5700783,-80.9963373,"",,Unspecified,"","",,,,,,,S66182496,"",,,,,Vireo griseus,whevir,Species,18966,,4.72,71,,1602,2400
389627151,Photo,White-eyed Vireo,Vireo griseus,,Steeve R. Baker,2021-11-20,2021,11,20,858,Canada,CA-QC-QU,Quebec,Québec,Base de plein air de Ste-Foy,46.7906725,-71.3303447,Adult – 1,Foraging or Eating,Unspecified,"","",,,,,,,S97853168,"",,,,"Oiseau dont la présence est connue depuis une semaine. A fait une apparition vers 9:49, non loin au nord de la passerelle de la tourbière durant une dizaine de minutes. Il était à la recherche d’insectes dans les arbustes. Il venu très près de la passerelle avant de traverser de l’autre côté puis se déplacer vers l’ouest. Viréo jaunâtre, deux bandes alaires jaune très pâle, oeil blanc. De nombreux observateurs étaient présents.",Vireo griseus,whevir,Species,18966,,4.82,39,Habitat,3333,5000
229562561,Photo,White-eyed Vireo,Vireo griseus,,Brad Imhoff,2020-05-01,2020,5,1,631,United States,US-OH-089,Ohio,Licking,Blackhand Gorge--Marie Hickey Trail,40.0587274,-82.2385293,"",,Unspecified,"","",,,,,,,S68190650,"",,,,,Vireo griseus,whevir,Species,18966,,4.86,35,,1432,2148
388669281,Photo,White-eyed Vireo,Vireo griseus,,David Wallace,2021-11-16,2021,11,16,1200,Canada,CA-ON-TO,Ontario,Toronto,Toronto--Staines Pond,43.8204863,-79.2185605,"",,Unspecified,"","",,,,,,,S97686012,"",,,,Picture added.,Vireo griseus,whevir,Species,18966,,4.96,27,,3258,3680
332161301,Photo,White-eyed Vireo,Vireo griseus,,Tyler Ficker,2021-04-30,2021,4,30,651,United States,US-OH-025,Ohio,Clermont,East Fork SP--Bridle Trail Parking Area,39.0394316,-84.1214511,"",,Unspecified,"","",,,,,,,S86714215,"",,,,,Vireo griseus,whevir,Species,18966,,5.00,24,,1725,2584
284946621,Photo,White-eyed Vireo,Vireo griseus,,Amanda Guercio,2020-11-28,2020,11,28,755,Canada,CA-ON-TO,Ontario,Toronto,Toronto--Colonel Samuel Smith Park,43.5910609,-79.5112485,"",,Unspecified,"","",,,,,,,S76790052,"",,,,Continuing and showing well at the bridge,Vireo griseus,whevir,Species,18966,,4.74,50,,1642,2463
330126351,Photo,White-eyed Vireo,Vireo griseus,,Henry Gorski,2021-04-25,2021,4,25,656,United States,US-MO-183,Missouri,St. Charles,Busch CA,38.7053400,-90.7404800,"",,Unspecified,"","",,,,,,,S86342115,"",,,,Felt like there was one or more calling at every stop.,Vireo griseus,whevir,Species,18966,,4.79,39,,2782,4395
610782987,Photo,White-eyed Vireo,Vireo griseus,,Zane Shantz,2023-11-04,2023,11,4,1040,Canada,CA-ON-BC,Ontario,Bruce,"Bruce Peninsula--Dyer's Bay",45.1529902,-81.3232040,"",,Unspecified,"","",,,,,,,S153728450,"",,,,"Nice bird foraging with YRWA's. Pics",Vireo griseus,whevir,Species,18966,,4.81,32,,2303,3436
258752521,Photo,White-eyed Vireo,Vireo griseus,,John Sterling,2020-08-28,2020,8,28,720,United States,US-CA-111,California,Ventura,Matilija Riparian and Lake,34.4914545,-119.3152463,"",,Unspecified,"","",,,,,,,S72958712,"",,,,"confirmed presence on previous day, singing male",Vireo griseus,whevir,Species,18966,,4.95,21,,1186,1792
388052191,Photo,White-eyed Vireo,Vireo griseus,,Marsha Duggan,2021-11-14,2021,11,14,1028,Canada,CA-ON-TO,Ontario,Toronto,Toronto--Staines Pond,43.8204863,-79.2185605,"",,Unspecified,"","",,,,,,,S97587956,"",,,,Seen by a number of people. Photo attached.,Vireo griseus,whevir,Species,18966,,4.88,24,,2134,3201
388044341,Photo,White-eyed Vireo,Vireo griseus,,Denny Swaby,2021-11-14,2021,11,14,830,Cayman Islands,KY-WB,West Bay,,"9 Batabano Road, West Bay, West Bay, KY (19.377, -81.393)",19.3771502,-81.3930823,"",,Unspecified,"","",,,,,,,S97586255,"",,,,,Vireo griseus,whevir,Species,18966,,4.88,24,,1215,1900
387876851,Photo,White-eyed Vireo,Vireo griseus,,Frédérick Lelièvre,2021-11-13,2021,11,13,1256,Canada,CA-QC-QU,Quebec,Québec,Base de plein air de Ste-Foy,46.7906725,-71.3303447,"",,Unspecified,"","",,,,,,,S97530240,"",,,,Trouvé ce matin par Philippe Jobin et France Carbonneau dans la tourbière.,Vireo griseus,whevir,Species,18966,,5.00,19,,2560,3840
592447311,Photo,White-eyed Vireo,Vireo griseus,,Ryan Sanderson,2023-07-03,2023,7,3,910,United States,US-IN-013,Indiana,Brown,Yellowwood SF--Lucas Hollow (HEE Unit 8),39.1051424,-86.3298563,Juvenile – 1,,Unspecified,"","",,,,,,,S143442329,"",,,,,Vireo griseus,whevir,Species,18966,,4.95,20,,1867,2334
388471821,Photo,White-eyed Vireo,Vireo griseus,,Eric Parent,2021-11-15,2021,11,15,815,Canada,CA-QC-QU,Quebec,Québec,Base de plein air de Ste-Foy,46.7906725,-71.3303447,"",,Unspecified,"","",,,,,,,S97652969,"",,,,"Trouvé par Sylvain Gosselin, voir photo",Vireo griseus,whevir,Species,18966,,4.66,41,,1416,1582
450874121,Photo,White-eyed Vireo,Vireo griseus,,Ethan Denton,2022-05-10,2022,5,10,517,Canada,CA-ON-ES,Ontario,Essex,Point Pelee National Park (general location),41.9553986,-82.5139999,"",,Unspecified,"","",,,,,,,S109876757,"",,,,"Vireo with white eye, photos",Vireo griseus,whevir,Species,18966,,5.00,18,,1985,3176
610629525,Photo,White-eyed Vireo,Vireo griseus,,Anne Inga,2023-11-01,2023,11,1,735,United States,US-FL-081,Florida,Manatee,Terra Ceia Preserve SP--Hightower Trail,27.5813861,-82.5726682,"",,Unspecified,"","",,,,,,,S153532970,"",,,,,Vireo griseus,whevir,Species,18966,,4.68,37,,2216,3143
240322311,Photo,White-eyed Vireo,Vireo griseus,,Bryan Calk,2020-05-11,2020,5,11,1642,United States,US-TX-271,Texas,Kinney,Kickapoo Cavern SP (Kinney Co.),29.6115400,-100.4533000,Adult – 1,,Unspecified,"","",,,,,,,S68904257,"",,,,,Vireo griseus,whevir,Species,18966,,4.76,25,,2215,3938
578916641,Photo,White-eyed Vireo,Vireo griseus,,Brennan Mulrooney,2023-05-29,2023,5,29,1300,United States,US-CA-073,California,San Diego,Lake Murray--northwest side,32.7901775,-117.0456053,"",,Unspecified,"","",,,,,,,S139804626,"",,,,"(32.7971439, -117.0364607) singing for about 15 minutes at 13:00.",Vireo griseus,whevir,Species,18966,,5.00,16,,3946,5919
387876821,Photo,White-eyed Vireo,Vireo griseus,,Frédérick Lelièvre,2021-11-13,2021,11,13,1256,Canada,CA-QC-QU,Quebec,Québec,Base de plein air de Ste-Foy,46.7906725,-71.3303447,"",,Unspecified,"","",,,,,,,S97530240,"",,,,Trouvé ce matin par Philippe Jobin et France Carbonneau dans la tourbière.,Vireo griseus,whevir,Species,18966,,5.00,16,,2560,3840
387876801,Photo,White-eyed Vireo,Vireo griseus,,Frédérick Lelièvre,2021-11-13,2021,11,13,1256,Canada,CA-QC-QU,Quebec,Québec,Base de plein air de Ste-Foy,46.7906725,-71.3303447,"",,Unspecified,"","",,,,,,,S97530240,"",,,,Trouvé ce matin par Philippe Jobin et France Carbonneau dans la tourbière.,Vireo griseus,whevir,Species,18966,,5.00,16,,2560,3840
387472961,Photo,White-eyed Vireo,Vireo griseus,,Bill Schneider,2021-11-12,2021,11,12,754,United States,US-TX-157,Texas,Fort Bend,Brazos Bend SP (UTC 117),29.3735739,-95.6230259,Adult – 1,Vocalizing,Unspecified,"","",,,,,,,S97475449,"",,,,Together foraging low in brush,Vireo griseus,whevir,Species,18966,,5.00,16,"",1745,2623
513851851,Photo,White-eyed Vireo,Vireo griseus,,Ron Buening,2022-12-17,2022,12,17,712,United States,US-FL-103,Florida,Pinellas,Sawgrass Lake Park,27.8398000,-82.6705000,"",,Unspecified,"","",,,,,,,S124113537,"",,,,,Vireo griseus,whevir,Species,18966,,5.00,16,,2945,4417
559886811,Photo,White-eyed Vireo,Vireo griseus,,Ryan Justice,2023-04-15,2023,4,15,1126,United States,US-NC-037,North Carolina,Chatham,Old Bynum Bridge,35.7730400,-79.1435458,"",,Unspecified,"","",,,,,,,S133838728,"",,,,,Vireo griseus,whevir,Species,18966,,4.81,21,,1953,1610
254254691,Photo,White-eyed Vireo,Vireo griseus,,Andrew Newmark,2020-08-08,2020,8,8,741,United States,US-CA-073,California,San Diego,El Camino Memorial Park,32.8948312,-117.1836090,"",,Unspecified,"","",,,,,,,S72217781,"",,,,"Continuing; distinctive white eye, yellowish spectacles, and yellow wash on the sides. Found in the bushes on the west side of the road, intermittently singing starting around 8am where it perched in the open for a couple minutes.  Started moving rapidly through the bushes, before moving to the very top of one and then flying East across the street into the heavy foliage around 8:15am.  Did not see it again after that but could hear it singing on and off deep in the bushes until I left around 10.",Vireo griseus,whevir,Species,18966,,4.75,24,,1351,2029
611128683,Photo,White-eyed Vireo,Vireo griseus,,Sylvie Martel / Gaétan Giroux,2023-11-14,2023,11,14,833,Canada,CA-QC-RS,Quebec,Roussillon,RécréoParc (Côte-Ste-Catherine),45.4088164,-73.5745737,"",,Unspecified,"","",,,,,,,S154440264,"",,,,"Petit viréo jaune, yeux blancs, lunettes jaunes, barre alaires blanches. Se déplace sur des courtes distances en s’alimentant. Trouvé par Lucien Lemay le 11 novembre.",Vireo griseus,whevir,Species,18966,,4.84,19,,1404,2140
149373251,Photo,White-eyed Vireo,Vireo griseus,,Aaron Boone,2019-04-03,2019,4,3,1429,United States,US-TX-479,Texas,Webb,Max A Mandel Golf Course,27.6601460,-99.6668500,"",,Unspecified,"","",,,,,,,S54526330,"",,,,,Vireo griseus,whevir,Species,18966,,4.69,26,,2347,3911
461289671,Photo,White-eyed Vireo,Vireo griseus,,Matt Zuro,2022-06-20,2022,6,20,1730,United States,US-IL-031,Illinois,Cook,McGinty Slough / John J. Duffy Grasslands,41.6588008,-87.9223180,"",,Unspecified,"","",,,,,,,S113407222,"",,,,"Likely more, can't confirm more than 2 however.",Vireo griseus,whevir,Species,18966,,5.00,15,,2944,2069
388775921,Photo,White-eyed Vireo,Vireo griseus,,Su Li,2021-11-17,2021,11,17,924,Canada,CA-ON-TO,Ontario,Toronto,Toronto--Staines Pond,43.8204863,-79.2185605,"",,Unspecified,"","",,,,,,,S97704328,"",,,,Continuing bird. Seen by many. Photos taken,Vireo griseus,whevir,Species,18966,,5.00,15,,1067,1600
369707631,Photo,White-eyed Vireo,Vireo griseus,,Sam Miller,2021-09-15,2021,9,15,610,United States,US-RI-009,Rhode Island,Washington,Camp Cronin,41.3621949,-71.4872164,"",,Unspecified,"","",,,,,,,S94686560,"",,,,Interestingly my first here. Was actually singing sporadically throughout the morning by the bunker,Vireo griseus,whevir,Species,18966,,5.00,15,,2443,3664
504948631,Photo,White-eyed Vireo,Vireo griseus,,Jake Nafziger,2022-11-18,2022,11,18,1012,Canada,CA-ON-WL,Ontario,Wellington,Guelph--Wastewater Treatment Plant/Speed River Area,43.5233014,-80.2630234,"",,Unspecified,"","",,,,,,,S122604588,"",,,,"Continuing bird in same general area as first reported by Jeff DeRuyter. Took a long time to find it but popped up beside the trail for some great views once I finally did. Yellow wings, flanks, and face with gray nape, white throat, and blueish white eyes. White wing bars with yellow wash. Last seen working it's way along the river before crossing over",Vireo griseus,whevir,Species,18966,,4.84,19,,1638,2048
387876871,Photo,White-eyed Vireo,Vireo griseus,,Frédérick Lelièvre,2021-11-13,2021,11,13,1256,Canada,CA-QC-QU,Quebec,Québec,Base de plein air de Ste-Foy,46.7906725,-71.3303447,"",,Unspecified,"","",,,,,,,S97530240,"",,,,Trouvé ce matin par Philippe Jobin et France Carbonneau dans la tourbière.,Vireo griseus,whevir,Species,18966,,4.94,16,,2560,3840
233992261,Photo,White-eyed Vireo,Vireo griseus,,Jim Merritt,2020-05-12,2020,5,12,908,United States,US-CO-041,Colorado,El Paso,Chico Basin Ranch (El Paso Co) (mandatory registration required at www.aikenaudubon.com),38.5471585,-104.4583511,"",,Unspecified,"","",,,,,,,S68944595,"",,,,Continuing,Vireo griseus,whevir,Species,18966,,4.94,16,,7983,10000
556041241,Photo,White-eyed Vireo,Vireo griseus,,Dale Lambert,2023-04-10,2023,4,10,843,United States,US-NC-183,North Carolina,Wake,American Tobacco Trail--New Hill-Olive Chapel Road Access,35.7153046,-78.9430814,"","",Unspecified,"","",,,,,,,S133320427,"",,,,,Vireo griseus,whevir,Species,18966,,4.77,22,Nest,2386,2386
512303221,Photo,White-eyed Vireo,Vireo griseus,,David Paez,2022-12-11,2022,12,11,906,United States,US-FL-086,Florida,Miami-Dade,Greynolds Park,25.9419000,-80.1543000,"",,Unspecified,"","",,,,,,,S123810502,"",,,,,Vireo griseus,whevir,Species,18966,,4.88,17,,1728,2160
69015551,Photo,White-eyed Vireo,Vireo griseus,,Evan Lipton,2017-09-16,2017,9,16,648,United States,US-RI-001,Rhode Island,Bristol,Colt State Park,41.6806368,-71.3021922,Adult,,Unspecified,"","",,,,,,,S39207811,"",,,,,Vireo griseus,whevir,Species,18966,,4.88,17,,2197,3295
445780731,Photo,White-eyed Vireo,Vireo griseus,,Arav and Aranya Karighattam,2022-05-08,2022,5,8,1047,United States,US-MA-017,Massachusetts,Middlesex,Horn Pond Recreation Area,42.4680852,-71.1582396,"",,Unspecified,"","",,,,,,,S109357620,"",,,,,Vireo griseus,whevir,Species,18966,,4.83,18,,1924,2672
610750168,Photo,White-eyed Vireo,Vireo griseus,,Neil Dowling,2023-11-04,2023,11,4,1544,United States,US-MA-027,Massachusetts,Worcester,Dowling Yards and immediate area.,42.3405470,-71.6563540,Adult – 1,,Unspecified,"","",,,,,,,S153743613,"",,,,Pics. 3 years in a row within 1 mile of this location.,Vireo griseus,whevir,Species,18966,,4.88,17,,2457,3603
450874131,Photo,White-eyed Vireo,Vireo griseus,,Ethan Denton,2022-05-10,2022,5,10,517,Canada,CA-ON-ES,Ontario,Essex,Point Pelee National Park (general location),41.9553986,-82.5139999,"",,Unspecified,"","",,,,,,,S109876757,"",,,,"Vireo with white eye, photos",Vireo griseus,whevir,Species,18966,,5.00,14,,1956,2934
153230171,Photo,White-eyed Vireo,Vireo griseus,,Gary Mueller,2019-04-23,2019,4,23,1430,United States,US-MO-161,Missouri,Phelps,Acorn Trail,37.9283971,-91.7500556,Adult Male,,Unspecified,"","",,,,,,,S55316280,"",,,,,Vireo griseus,whevir,Species,18966,,4.71,24,,,
616858564,Photo,White-eyed Vireo,Vireo griseus,,Todd Fibus,2024-04-03,2024,4,3,838,United States,US-GA-089,Georgia,DeKalb,Murphey Candler Park,33.9102079,-84.3223429,"",Foraging or Eating,Unspecified,"","",,,,,,,S167049098,"",,,,,Vireo griseus,whevir,Species,18966,,4.93,15,"",1728,2160
191257361,Photo,White-eyed Vireo,Vireo griseus,,Mark S. Garland,2019-12-03,2019,12,3,1309,United States,US-NJ-009,New Jersey,Cape May,Cape Island--Cape May Point SP (CMPSP),38.9338272,-74.9550854,"",,Unspecified,"","",,,,,,,S61957448,"",,,,Photo coming,Vireo griseus,whevir,Species,18966,,4.65,23,,1923,2564
507057821,Photo,White-eyed Vireo,Vireo griseus,,Tim K,2022-11-19,2022,11,19,920,Canada,CA-ON-WL,Ontario,Wellington,Guelph--Wastewater Treatment Plant/Speed River Area,43.5233014,-80.2630234,"",,Unspecified,"","",,,,,,,S122729149,"",,,,Continuing,Vireo griseus,whevir,Species,18966,,4.65,26,,3131,4638
624547497,Photo,White-eyed Vireo,Vireo griseus,,Todd Fibus,2024-10-05,2024,10,5,905,United States,US-GA-089,Georgia,DeKalb,Murphey Candler Park,33.9102079,-84.3223429,"",,Unspecified,"","",,,,,,,S197617809,"",,,,,Vireo griseus,whevir,Species,18966,,5.00,13,,1728,2160
611011551,Photo,White-eyed Vireo,Vireo griseus,,Suzanne Labbé,2023-11-11,2023,11,11,1302,Canada,CA-QC-RS,Quebec,Roussillon,RécréoParc (Côte-Ste-Catherine),45.4088164,-73.5745737,"",,Unspecified,"","",,,,,,,S154235005,"",,,,Découvert par Lucien Lemay,Vireo griseus,whevir,Species,18966,,5.00,13,,2862,4090
379830821,Photo,White-eyed Vireo,Vireo griseus,,Steve Wilson,2021-10-15,2021,10,15,834,United States,US-KY-067,Kentucky,Fayette,University of KY Arboretum and Woods,38.0157754,-84.5054626,"",,Unspecified,"","",,,,,,,S96190496,"",,,,"Seen fly catching in low brush, and honeysuckle thicket next to property tree line. See photo.",Vireo griseus,whevir,Species,18966,,5.00,13,,1347,2021
322915661,Photo,White-eyed Vireo,Vireo griseus,,Frank Farese,2021-04-02,2021,4,2,1315,United States,US-TX-167,Texas,Galveston,"Galveston--Lafitte's Cove (UTC 068)",29.2169006,-94.9349016,"",,Unspecified,"","",,,,,,,S84645021,"",,,,,Vireo griseus,whevir,Species,18966,,4.93,14,,2154,2560
133165471,Photo,White-eyed Vireo,Vireo griseus,,Bruce Szczechowski,2019-01-04,2019,1,4,930,United States,US-MI-163,Michigan,Wayne,Westcroft Gardens,42.1495714,-83.1644108,"",,Unspecified,"","",,,,,,,S51322201,"",,,,White-eyed Vireo persists at Westcroft Gardens...Seen feeding on berries and insects.,Vireo griseus,whevir,Species,18966,,4.93,14,,3075,4550
625363251,Photo,White-eyed Vireo,Vireo griseus,,David Turgeon,2024-10-24,2024,10,24,1108,Canada,CA-QC-HC,Quebec,La Haute-Côte-Nord,Dunes de Tadoussac,48.1579631,-69.6649504,Immature – 1,,Unspecified,"","",,,,,,,S200096353,"",,,,"Découvert quelques minutes plus tôt par l'équipe de l'OOT près de la station de baguage, alors que je venais de quitter Tadoussac pour revenir vers Les Escoumins. Mon demi-tour à vive allure m'a permis d'arriver quelques secondes avant que l'oiseau plonge et disparaisse dans la coulée en face de la maison des dunes. Merci aux gens qui l'ont gardé en visuel le temps de mon arrivée ! Gros viréo aux flancs jaunes, dos vert, doubles barrea alaires blanches, tête grise, lunettes jaunes, iris brun clair.",Vireo griseus,whevir,Species,18966,,4.87,15,,1876,2816
327811931,Photo,White-eyed Vireo,Vireo griseus,,Marky Mutchler,2021-04-17,2021,4,17,844,United States,US-LA-051,Louisiana,Jefferson,Grand Isle--woods--Lafitte Woods Preserve--Grilletta Tract,29.2323136,-89.9955618,"",,Unspecified,"","",,,,,,,S85772525,"",,,,,Vireo griseus,whevir,Species,18966,,4.71,21,,3276,5362
611018824,Photo,White-eyed Vireo,Vireo griseus,,Lucien Lemay,2023-11-11,2023,11,11,913,Canada,CA-QC-RS,Quebec,Roussillon,RécréoParc (Côte-Ste-Catherine),45.4088164,-73.5745737,"",,Unspecified,"","",,,,,,,S154254929,"",,,,,Vireo griseus,whevir,Species,18966,,4.87,15,,1200,1800
614307680,Photo,White-eyed Vireo,Vireo griseus,,Kiah R. Jasper,2022-04-30,2022,4,30,602,Canada,CA-ON-ES,Ontario,Essex,Point Pelee National Park (general location),41.9553986,-82.5139999,"",,Unspecified,"","",,,,,,,S108551428,"",,,,"1 S of sparrow field, 6 on west beach footpath, all moving the opposite way we were walking so clearly different birds",Vireo griseus,whevir,Species,18966,,4.76,17,,1704,2560
443690511,Photo,White-eyed Vireo,Vireo griseus,,Michael McAllister,2022-05-01,2022,5,1,700,Canada,CA-ON-ES,Ontario,Essex,Point Pelee National Park (general location),41.9553986,-82.5139999,"",,Unspecified,"","",,,,,,,S108593860,"",,,,WBF,Vireo griseus,whevir,Species,18966,,5.00,12,,3033,4594
618853660,Photo,White-eyed Vireo,Vireo griseus,,Phillip Rogers,2024-05-11,2024,5,11,721,United States,US-PA-003,Pennsylvania,Allegheny,Sewickley Heights Borough Park,40.5717511,-80.1449203,"",,Unspecified,"","",,,,,,,S173556815,"",,,,,Vireo griseus,whevir,Species,18966,,4.92,13,,1801,2702
491730981,Photo,White-eyed Vireo,Vireo griseus,,Linda Ankerstjerne Olsen,2022-10-08,2022,10,8,1530,United States,US-CT-009,Connecticut,New Haven,"Milford Point, CT Audubon",41.1754303,-73.1032485,"",,Unspecified,"","",,,,,,,S120273951,"",,,,,Vireo griseus,whevir,Species,18966,,4.92,13,,1292,1245
128179841,Photo,White-eyed Vireo,Vireo griseus,,Lionel Xavier Horn,2018-12-12,2018,12,12,849,United States,US-GA-063,Georgia,Clayton,Clayton Co. Water Authority--Newman Wetlands Center,33.4724754,-84.3062496,"",,Unspecified,"","",,,,,,,S50615751,"",,,Crop.,"Seen and photographed well. A warbler sized bird with white eyes, yellow spectacles, and two yellow breast spots. Not a super crazy find all things considered this year. Something scared him and many other small passerines into hiding and producing alarm calls. It stayed still allowing me to get great shots.",Vireo griseus,whevir,Species,18966,,4.64,22,,2261,2973
448907691,Photo,White-eyed Vireo,Vireo griseus,,Matt Zuro,2022-05-13,2022,5,13,900,United States,US-IL-043,Illinois,DuPage,Centennial Trail--West of Route 83 (DuPage Co.),41.6877722,-87.9814202,"",,Unspecified,"","",,,,,,,S110231997,"",,,,,Vireo griseus,whevir,Species,18966,,4.86,14,,4005,6007
382425021,Photo,White-eyed Vireo,Vireo griseus,,Terry McBurnie,2021-10-24,2021,10,24,1600,Canada,CA-ON-TO,Ontario,Toronto,"Toronto--Ashbridge's Bay Park",43.6599861,-79.3093553,"",,Unspecified,"","",,,,,,,S96666344,"",,,,"Very active, foraging berries along the water's edge. Blue legs, yellow goggles, and white eyes.",Vireo griseus,whevir,Species,18966,,4.86,14,,960,1280
156968951,Photo,White-eyed Vireo,Vireo griseus,,Jackie Elmore,2019-04-26,2019,4,26,1630,United States,US-KY-227,Kentucky,Warren,"775 Sweeney Ln, Bowling Green US-KY (36.9667,-86.5028)",36.9667400,-86.5027650,Adult Male,,Unspecified,"","",,,,,,,S55449126,"",,,,,Vireo griseus,whevir,Species,18966,,4.86,14,,1470,2141
618100385,Photo,White-eyed Vireo,Vireo griseus,,Ryan Sanderson,2024-04-27,2024,4,27,623,United States,US-IN-097,Indiana,Marion,Eagle Creek Park,39.8751000,-86.3037000,Adult – 1,,Unspecified,"","",,,,,,,S170549883,"",,,,,Vireo griseus,whevir,Species,18966,,4.70,20,,2590,3884
449855791,Photo,White-eyed Vireo,Vireo griseus,,Rain Saulnier,2022-05-10,2022,5,10,517,Canada,CA-ON-ES,Ontario,Essex,Point Pelee National Park (general location),41.9553986,-82.5139999,"",,Unspecified,"","",,,,,,,S109874665,"",,,,"Vireo with white eye, photos",Vireo griseus,whevir,Species,18966,,4.71,17,,2891,4337
614619694,Photo,White-eyed Vireo,Vireo griseus,,Matt Felperin,2024-01-21,2024,1,21,803,United States,US-TX-061,Texas,Cameron,Resaca de la Palma SP WBC (Brownsville) (LTC 048),25.9965839,-97.5690513,"",,Unspecified,"","",,,,,,,S159467390,"",,,,,Vireo griseus,whevir,Species,18966,,5.00,11,,1777,2664
487861821,Photo,White-eyed Vireo,Vireo griseus,,Joshua Uffman,2022-09-26,2022,9,26,724,United States,US-MO-189,Missouri,St. Louis,Route 66 SP,38.5057287,-90.5985832,"",,Unspecified,"","",,,,,,,S119455610,"",,,,,Vireo griseus,whevir,Species,18966,,5.00,11,,1539,2300
486184531,Photo,White-eyed Vireo,Vireo griseus,,Brett Hoffman,2022-09-21,2022,9,21,825,United States,US-FL-103,Florida,Pinellas,Sawgrass Lake Park,27.8398000,-82.6705000,"",,Unspecified,"","",,,,,,,S119148275,"",,,,,Vireo griseus,whevir,Species,18966,,5.00,11,,1254,1881
444419701,Photo,White-eyed Vireo,Vireo griseus,,Sue Palmer,2022-05-05,2022,5,5,902,United States,US-RI-009,Rhode Island,Washington,Trustom Pond NWR,41.3721850,-71.5856300,"",,Unspecified,"","",,,,,,,S109008241,"",,,,,Vireo griseus,whevir,Species,18966,,5.00,11,,2954,4471
441733601,Photo,White-eyed Vireo,Vireo griseus,,Steve Wickliffe,2022-04-08,2022,4,8,730,United States,US-TX-061,Texas,Cameron,South Padre Is.--Valley Land Fund lots (LTC 036),26.0988053,-97.1678612,Adult – 1,,Unspecified,"","",,,,,,,S106749214,"",,,,,Vireo griseus,whevir,Species,18966,,5.00,11,,2300,3066
387876831,Photo,White-eyed Vireo,Vireo griseus,,Frédérick Lelièvre,2021-11-13,2021,11,13,1256,Canada,CA-QC-QU,Quebec,Québec,Base de plein air de Ste-Foy,46.7906725,-71.3303447,"",,Unspecified,"","",,,,,,,S97530240,"",,,,Trouvé ce matin par Philippe Jobin et France Carbonneau dans la tourbière.,Vireo griseus,whevir,Species,18966,,5.00,11,,2560,3840
388914821,Photo,White-eyed Vireo,Vireo griseus,,Jax Nasimok,2021-11-16,2021,11,16,1320,Canada,CA-ON-TO,Ontario,Toronto,Toronto--Staines Pond,43.8204863,-79.2185605,"",,Unspecified,"","",,,,,,,S97728068,"",,,,Continuing,Vireo griseus,whevir,Species,18966,,4.92,12,,2311,3467
374524051,Photo,White-eyed Vireo,Vireo griseus,,Andrea Webb,2021-10-02,2021,10,2,1111,Bermuda,BM-,Bermuda,,Spittal Pond NR,32.3114369,-64.7261238,"",,Unspecified,"","",,,,,,,S95485953,"",,,,,Vireo griseus,whevir,Species,18966,,4.85,13,,1175,1896
504599061,Photo,White-eyed Vireo,Vireo griseus,,Ian Jarvie,2022-11-17,2022,11,17,1006,Canada,CA-ON-WL,Ontario,Wellington,Guelph--Wastewater Treatment Plant/Speed River Area,43.5233014,-80.2630234,"",,Unspecified,"","",,,,,,,S122562081,"",,,,Previously reported by Jeff and many others.. Photos to come.,Vireo griseus,whevir,Species,18966,,4.65,17,,4000,6000
621617707,Photo,White-eyed Vireo,Vireo griseus,,Mason Maron,2023-12-26,2023,12,26,653,Mexico,MX-ROO-001,Quintana Roo,Benito Juárez,Reserva Toh - Plantación de Madera Dura y Vía de Acceso Poniente (Acceso restringido),20.8663838,-87.0870985,"",,Unspecified,"","",,,,,,,S157172758,"",,,,,Vireo griseus,whevir,Species,18966,,4.85,13,,3073,4609
578035781,Photo,White-eyed Vireo,Vireo griseus,,Matt Sadowski,2023-05-27,2023,5,27,815,United States,US-CA-073,California,San Diego,Lake Murray--northwest side,32.7901775,-117.0456053,"",,Unspecified,"","",,,,,,,S139471680,"",,,,"Photos and recordings. Singing bird moving all over the place on both E and W sides of the drainage N of San Carlos Bay. Original coords right at tee-off spot: 32.7970915, -117.0376147 Moved as far N as here on both sides of the dirt path: 32.7984390, -117.0372278 Moved SE as far as the upper tip of San Carlos Bay just E of main drainage and S of bike path: 32.7961688, -117.0373766 Could be in any of the Brazilian pepper thickets where impossible to find unless singing, which it did periodically. Sometimes hanging around a family group of HUVI.",Vireo griseus,whevir,Species,18966,,4.85,13,,1273,1909
73147321,Photo,White-eyed Vireo,Vireo griseus,,Sue Barth,2015-11-26,2015,11,26,1133,United States,US-NY-029,New York,Erie,Tifft Nature Preserve,42.8462509,-78.8594553,Adult,,Unspecified,"","",,,,,,,S26009969,"",,,,"Rare but regular - and a rather late record. Adult vireo with distinctive white iris surrounded by yellow spectacles/lores, white throat, yellow flanks, olive back with white wing bars. Photos.",Vireo griseus,whevir,Species,18966,,4.79,14,,1200,1800
184159061,Photo,White-eyed Vireo,Vireo griseus,,Robin Besançon,2019-10-25,2019,10,25,1605,Canada,CA-QC-QU,Quebec,Québec,Domaine de Maizerets,46.8376522,-71.2121549,"",,Unspecified,"","",,,,,,,S60921382,"",,,,Immature trouvé par Charles Vachon. Plusieurs observateurs présents.,Vireo griseus,whevir,Species,18966,,4.50,24,,3394,5036
61066971,Photo,White-eyed Vireo,Vireo griseus,,Luke Seitz,2011-10-03,2011,10,3,1145,United States,US-ME-031,Maine,York,Cape Neddick--Neighborhood,43.1668171,-70.5990672,"",,Unspecified,"","",,,,,,,S8897755,"",,,,"**Rare and high count, exceptional number of WEVI today between here and Fort Foster.  All birds in separate spots with separate flocks, so I believe this to be an accurate count.  Photos of 3 of the 4 birds.",Vireo griseus,whevir,Species,18966,,4.55,22,,1354,2174
500632851,Photo,White-eyed Vireo,Vireo griseus,,Owen Strickland,2022-11-04,2022,11,4,750,Canada,CA-ON-TO,Ontario,Toronto,Toronto--Toronto Islands,43.6165143,-79.3821734,"",,Unspecified,"","",,,,,,,S121861777,"",,,,"Good stuff, SW of Snake Island by the lakeside boardwalk with GCKI and RCKI.",Vireo griseus,whevir,Species,18966,,4.30,37,,2995,4492
486136201,Photo,White-eyed Vireo,Vireo griseus,,"Ronnie d'Entremont",2022-09-21,2022,9,21,750,Canada,CA-NS-YA,Nova Scotia,Yarmouth,"Cape Forchu--West (Thomas Rd, Markland, Caie Ln)",43.8069243,-66.1622109,"",,Unspecified,"","",,,,,,,S119136390,"",,,,Photos,Vireo griseus,whevir,Species,18966,,4.77,13,,3076,4304
185199141,Photo,White-eyed Vireo,Vireo griseus,,Jorge Eduardo Ruano,2019-10-13,2019,10,13,649,Belize,BZ-BZ,Belize,,Caye Caulker,17.7405050,-88.0255750,"",,Unspecified,"","",,,,,,,S60579188,"",,,,,Vireo griseus,whevir,Species,18966,,4.56,18,,1757,2636
88781931,Photo,White-eyed Vireo,Vireo griseus,,Scott Martin,2016-01-25,2016,1,25,730,United States,US-TX-061,Texas,Cameron,Resaca de la Palma SP WBC (Brownsville) (LTC 048),25.9965839,-97.5690513,"",,Unspecified,"","",,,,,,,S43458601,"",,,,,Vireo griseus,whevir,Species,18966,,4.83,12,,1375,2200
611169020,Photo,White-eyed Vireo,Vireo griseus,,Robert Trottier,2023-11-15,2023,11,15,1115,Canada,CA-QC-RS,Quebec,Roussillon,RécréoParc (Côte-Ste-Catherine),45.4088164,-73.5745737,"",,Unspecified,"","",,,,,,,S154522621,"",,,,"Présence connue. Fond de l'oeil blanc,  deux bandes alaires prononcées, flancs jaunes. voir photos",Vireo griseus,whevir,Species,18966,,4.91,11,,2211,3317
38057851,Photo,White-eyed Vireo,Vireo griseus,,"Simon d'Entremont",2016-10-23,2016,10,23,1030,Canada,CA-NS-HL,Nova Scotia,Halifax,Ketch Harbour--Sandy Cove Rd,44.4708015,-63.5586977,"",,Unspecified,"","",,,,,,,S32174408,"",,,Seemed to be traveling with Red-Breasted Nuthatches...at a minimum arrived with them.,,Vireo griseus,whevir,Species,18966,,4.91,11,,2371,3232
622770231,Photo,White-eyed Vireo,Vireo griseus,,Pramod Prabhu,2024-08-21,2024,8,21,800,United States,US-NC-119,North Carolina,Mecklenburg,Six Mile Creek Greenway,35.0111936,-80.8297420,"",,Unspecified,"","",,,,,,,S192259713,"",,,,,Vireo griseus,whevir,Species,18966,,5.00,10,,4226,6334
388787491,Photo,White-eyed Vireo,Vireo griseus,,Jian Mei,2021-11-17,2021,11,17,924,Canada,CA-ON-TO,Ontario,Toronto,Toronto--Staines Pond,43.8204863,-79.2185605,"",,Unspecified,"","",,,,,,,S97704329,"",,,,Continuing bird. Seen by many. Photos taken,Vireo griseus,whevir,Species,18966,,5.00,10,,1168,1749
184173421,Photo,White-eyed Vireo,Vireo griseus,,Josh  Houck,2019-10-25,2019,10,25,1145,United States,US-PA-071,Pennsylvania,Lancaster,East Petersburg Community Pool Complex,40.1073799,-76.3431814,"",,Unspecified,"","",,,,,,,S60915017,"",,,,"Nice late find with close looks. Moving with a Blue-headed Vireo.Yellow brow, white eye. Picture tbp.",Vireo griseus,whevir,Species,18966,,5.00,10,,2085,3128
91204771,Photo,White-eyed Vireo,Vireo griseus,,Mike Stewart,2018-03-24,2018,3,24,1530,United States,US-TX-029,Texas,Bexar,Crescent Bend Nature Park (Bexar Co.),29.5502272,-98.2325739,"",,Unspecified,"","",,,,,,,S43924392,"",,,,,Vireo griseus,whevir,Species,18966,,4.77,13,,889,1334
124583741,Photo,White-eyed Vireo,Vireo griseus,,Louis Lemay,2018-11-21,2018,11,21,823,Canada,CA-QC-MR,Quebec,Montréal,Jardin botanique de Montréal (accès restreint),45.5596562,-73.5626078,"",,Unspecified,"","",,,,,,,S50099259,"",,,,Boisé des Premières Nations (près des toilettes).,Vireo griseus,whevir,Species,18966,,4.53,19,,3195,4405
577702741,Photo,White-eyed Vireo,Vireo griseus,,Connor Cochrane,2023-05-26,2023,5,26,1839,United States,US-NC-135,North Carolina,Orange,Hyatt Chapel Hill,35.8816100,-79.0623670,"",,Unspecified,"","",,,,,,,S139379793,"",,,,,Vireo griseus,whevir,Species,18966,,4.75,12,,2516,3774
184967161,Photo,White-eyed Vireo,Vireo griseus,,Richard Poort,2019-10-29,2019,10,29,1340,Canada,CA-ON-HT,Ontario,Halton,Oakville--Sedgewick Forest Park,43.4137769,-79.6943092,"",,Unspecified,"","",,,,,,,S61032937,"",,,,"Continuing - timely call from David Pryor who refound it today Vireo that is grey and yellow, wing bars, pale eye.",Vireo griseus,whevir,Species,18966,,4.75,12,,3022,4533
592447321,Photo,White-eyed Vireo,Vireo griseus,,Ryan Sanderson,2023-07-03,2023,7,3,910,United States,US-IN-013,Indiana,Brown,Yellowwood SF--Lucas Hollow (HEE Unit 8),39.1051424,-86.3298563,Juvenile – 1,,Unspecified,"","",,,,,,,S143442329,"",,,,,Vireo griseus,whevir,Species,18966,,4.64,14,,2129,3784
578029911,Photo,White-eyed Vireo,Vireo griseus,,Nancy Christensen,2023-05-27,2023,5,27,1007,United States,US-CA-073,California,San Diego,Lake Murray--northwest side,32.7901775,-117.0456053,"",,Unspecified,"","",,,,,,,S139483356,"",,,,"Found by Matt S this morning. Very active, vocal vireo . Olive- green with yellow flanks. Pale gray below. White eye surrounded by yellow spectacles.",Vireo griseus,whevir,Species,18966,,4.64,14,,1506,2261
185199161,Photo,White-eyed Vireo,Vireo griseus,,Jorge Eduardo Ruano,2019-10-13,2019,10,13,649,Belize,BZ-BZ,Belize,,Caye Caulker,17.7405050,-88.0255750,"",,Unspecified,"","",,,,,,,S60579188,"",,,,,Vireo griseus,whevir,Species,18966,,4.64,14,,1837,2755
613137522,Photo,White-eyed Vireo,Vireo griseus,,Dan Mendenhall,2024-01-05,2024,1,5,1418,United States,US-PA-003,Pennsylvania,Allegheny,"1000 Adon Street, Pittsburgh, Pennsylvania, US (40.459, -80.059)",40.4587627,-80.0591378,"",,Unspecified,"","",,,,,,,S158169203,"",,,,First discovered by Amber Pertz. Dan will add photos.,Vireo griseus,whevir,Species,18966,,4.82,11,,2175,2719
184967171,Photo,White-eyed Vireo,Vireo griseus,,Richard Poort,2019-10-29,2019,10,29,1340,Canada,CA-ON-HT,Ontario,Halton,Oakville--Sedgewick Forest Park,43.4137769,-79.6943092,"",,Unspecified,"","",,,,,,,S61032937,"",,,,"Continuing - timely call from David Pryor who refound it today Vireo that is grey and yellow, wing bars, pale eye.",Vireo griseus,whevir,Species,18966,,4.44,18,,3153,4730
562347991,Photo,White-eyed Vireo,Vireo griseus,,Richard Rulander,2023-04-24,2023,4,24,658,United States,US-TX-201,Texas,Harris,Pine Brook Wetlands (Clear Lake),29.6057717,-95.1156964,"",,Unspecified,"","",,,,,,,S134891770,"",,,,,Vireo griseus,whevir,Species,18966,,4.90,10,,2034,3052
437399581,Photo,White-eyed Vireo,Vireo griseus,,Don Danko,2022-03-29,2022,3,29,1030,United States,US-FL-086,Florida,Miami-Dade,Everglades NP--Shark Valley: Tram Rd. & Observation Tower,25.7567969,-80.7660771,"",,Unspecified,"","",,,,,,,S107456212,"",,,,,Vireo griseus,whevir,Species,18966,,4.90,10,,1932,2897
388914861,Photo,White-eyed Vireo,Vireo griseus,,Jax Nasimok,2021-11-16,2021,11,16,1320,Canada,CA-ON-TO,Ontario,Toronto,Toronto--Staines Pond,43.8204863,-79.2185605,"",,Unspecified,"","",,,,,,,S97728068,"",,,,Continuing,Vireo griseus,whevir,Species,18966,,4.90,10,,3137,4706
388787471,Photo,White-eyed Vireo,Vireo griseus,,Jian Mei,2021-11-17,2021,11,17,924,Canada,CA-ON-TO,Ontario,Toronto,Toronto--Staines Pond,43.8204863,-79.2185605,"",,Unspecified,"","",,,,,,,S97704329,"",,,,Continuing bird. Seen by many. Photos taken,Vireo griseus,whevir,Species,18966,,4.90,10,,841,1262
101951681,Photo,White-eyed Vireo,Vireo griseus,,Luke Seitz,2018-05-23,2018,5,23,715,United States,US-ME-015,Maine,Lincoln,Monhegan Island,43.7657055,-69.3131265,"",,Unspecified,"","",,,,,,,S46019419,"",,,,,Vireo griseus,whevir,Species,18966,,4.90,10,,2699,3901
188068561,Photo,White-eyed Vireo,Vireo griseus,,Matthew Schenck,2019-11-13,2019,11,13,713,United States,US-RI-005,Rhode Island,Newport,Norman Bird Sanctuary,41.4994349,-71.2529254,"",,Unspecified,"","",,,,,,,S61413733,"",,,,Late* foraging along the southern edge of the woodcock field. Photos.,Vireo griseus,whevir,Species,18966,,4.75,12,,2512,3932
163290531,Photo,White-eyed Vireo,Vireo griseus,,Gracie  McMahon,2019-05-12,2019,5,12,600,United States,US-IL-201,Illinois,Winnebago,Sand Bluff Bird Observatory,42.4845043,-89.2476082,Adult,,Unspecified,"","",,,,,,,S57204019,"",,,This photo was taken by me.,Yellow-gray vireo with an olive boy and white iris. We catch these occasionally in the spring.,Vireo griseus,whevir,Species,18966,,4.75,12,,1472,1449
626244148,Photo,White-eyed Vireo,Vireo griseus,,Trish Snider,2024-11-13,2024,11,13,1315,Canada,CA-ON-EL,Ontario,Elgin,Hawk Cliff,42.6684580,-81.1699748,"",,Unspecified,"","",,,,,,,S202413788,"",,,,"Found by Maria & Michele yesterday. Record photo. Olive-grey head and back. White eye with yellow spectacles, white throat with yellow breast and flanks.",Vireo griseus,whevir,Species,18966,,5.00,9,,3098,3900
620088288,Photo,White-eyed Vireo,Vireo griseus,,Jim Merritt,2024-06-05,2024,6,5,1201,United States,US-CO-041,Colorado,El Paso,Rock Ledge Ranch,38.8731601,-104.8723555,"",,Unspecified,"","",,,,,,,S179595505,"",,,,Found earlier by Clark. Continuing north of the corrals behind the little house with a chimney.  Singing on and off.  Mostly standing low in bushes. Photos,Vireo griseus,whevir,Species,18966,,5.00,9,,1662,2048
616858828,Photo,White-eyed Vireo,Vireo griseus,,Todd Fibus,2024-04-03,2024,4,3,838,United States,US-GA-089,Georgia,DeKalb,Murphey Candler Park,33.9102079,-84.3223429,"",,Unspecified,"","",,,,,,,S167049098,"",,,,,Vireo griseus,whevir,Species,18966,,5.00,9,,1728,2160
611176969,Photo,White-eyed Vireo,Vireo griseus,,Michel Bourque,2023-11-15,2023,11,15,1000,Canada,CA-QC-RS,Quebec,Roussillon,RécréoParc (Côte-Ste-Catherine),45.4088164,-73.5745737,"",,Unspecified,"","",,,,,,,S154531991,"",,,,,Vireo griseus,whevir,Species,18966,,5.00,9,,3200,4800
611018868,Photo,White-eyed Vireo,Vireo griseus,,Lucien Lemay,2023-11-11,2023,11,11,913,Canada,CA-QC-RS,Quebec,Roussillon,RécréoParc (Côte-Ste-Catherine),45.4088164,-73.5745737,"",,Unspecified,"","",,,,,,,S154254929,"",,,,,Vireo griseus,whevir,Species,18966,,5.00,9,,1200,1800
608782359,Photo,White-eyed Vireo,Vireo griseus,,Jack Parlapiano,2023-09-12,2023,9,12,1518,United States,US-NM-051,New Mexico,Sierra,Las Palomas Marsh,33.0612990,-107.2815370,"",,Unspecified,"","",,,,,,,S149747963,"",,,,"Vireo with bright double wingbar, white eye, yellow spectacles, white underneath, gray head and neck, and yellow wash to sides. Pics.",Vireo griseus,whevir,Species,18966,,5.00,9,,2781,4121
590431491,Photo,White-eyed Vireo,Vireo griseus,,Michael Stubblefield,2023-04-29,2023,4,29,639,United States,US-NJ-009,New Jersey,Cape May,Cape Island--South Cape May Meadows (SCMM),38.9359287,-74.9434519,Adult Male – 1,Foraging or Eating,Unspecified,"","",,,,,,,S135385551,"",,,"White-eyed Vireo (Vireo griseus noveboracensis), White-eyed subspecies group, adult male foraging in South Cape May Meadows, Cape May, New Jersey.",,Vireo griseus,whevir,Species,18966,,5.00,9,"",2918,4379
579851821,Photo,White-eyed Vireo,Vireo griseus,,Haim Weizman,2023-05-31,2023,5,31,1405,United States,US-CA-073,California,San Diego,Lake Murray--northwest side,32.7901775,-117.0456053,"",,Unspecified,"","",,,,,,,S140066700,"",,,,"Continuing, found by Matt S. Singing on both sides of the bike path here (32.796463, -117.037725). Photos.",Vireo griseus,whevir,Species,18966,,5.00,9,,3256,4882
568694631,Photo,White-eyed Vireo,Vireo griseus,,Seth Konner,2023-05-07,2023,5,7,1630,United States,US-IL-031,Illinois,Cook,"Lincoln Park, Chicago--Caldwell Lilypool",41.9247517,-87.6338089,"",,Unspecified,"","",,,,,,,S136563687,"",,,,Felt like he moved quicker than warblers,Vireo griseus,whevir,Species,18966,,5.00,9,,4286,6426
530046361,Photo,White-eyed Vireo,Vireo griseus,,Peter F,2022-05-13,2022,5,13,637,United States,US-IN-097,Indiana,Marion,Eagle Creek Park,39.8751000,-86.3037000,"",,Unspecified,"","",,,,,,,S109886164,"",,,,,Vireo griseus,whevir,Species,18966,,5.00,9,,1621,2432
388603731,Photo,White-eyed Vireo,Vireo griseus,,Estela Quintero-Weldon,2021-11-16,2021,11,16,1000,Canada,CA-ON-TO,Ontario,Toronto,Toronto--Staines Pond,43.8204863,-79.2185605,"",,Unspecified,"","",,,,,,,S97678314,"",,,,"As described by other birders, bird feeding low, on berries on the side of the trail (towards the pond), and moving on cedar trees also.",Vireo griseus,whevir,Species,18966,,5.00,9,,1808,2482
380145621,Photo,White-eyed Vireo,Vireo griseus,,Kyle Shay,2021-10-16,2021,10,16,750,Canada,CA-NS-HL,Nova Scotia,Halifax,Hartlen Point,44.5938889,-63.4497222,"",,Unspecified,"","",,,,,,,S96218202,"",,,,"Grey head, white wing bars, yellow flanks , yellow around eye extending toward bill, white eye.",Vireo griseus,whevir,Species,18966,,5.00,9,,1697,2545
353864951,Photo,White-eyed Vireo,Vireo griseus,,Bryan Calk,2021-06-20,2021,6,20,633,United States,US-TX-041,Texas,Brazos,Lick Creek Park (PPW-W 008),30.5622240,-96.2135410,"",,Unspecified,"","",,,,,,,S90494149,"",,,,,Vireo griseus,whevir,Species,18966,,4.40,20,,1812,3221
276187051,Photo,White-eyed Vireo,Vireo griseus,,Jocelyn Dubé,2020-10-30,2020,10,30,1100,Canada,CA-QC-RS,Quebec,Roussillon,Parc pelletier,45.3916375,-73.7457039,"",,Unspecified,"","",,,,,,,S75615766,"",,,,Photo bientot,Vireo griseus,whevir,Species,18966,,4.42,19,,1333,2000
185199151,Photo,White-eyed Vireo,Vireo griseus,,Jorge Eduardo Ruano,2019-10-13,2019,10,13,649,Belize,BZ-BZ,Belize,,Caye Caulker,17.7405050,-88.0255750,"",,Unspecified,"","",,,,,,,S60579188,"",,,,,Vireo griseus,whevir,Species,18966,,4.53,17,,1956,2934
101951661,Photo,White-eyed Vireo,Vireo griseus,,Luke Seitz,2018-05-20,2018,5,20,1145,United States,US-ME-015,Maine,Lincoln,Monhegan Island,43.7657055,-69.3131265,"",,Unspecified,"","",,,,,,,S46019382,"",,,,,Vireo griseus,whevir,Species,18966,,4.73,11,,2774,4079
456113491,Photo,White-eyed Vireo,Vireo griseus,,Luke Seitz,2022-05-14,2022,5,14,554,United States,US-ME-015,Maine,Lincoln,Monhegan Island,43.7657055,-69.3131265,"",,Unspecified,"","",,,,,,,S111893909,"",,,,Lighthouse,Vireo griseus,whevir,Species,18966,,4.80,10,,2526,4170
442287751,Photo,White-eyed Vireo,Vireo griseus,,Cody Bassindale,2022-04-30,2022,4,30,1345,Canada,CA-ON-NF,Ontario,Norfolk,"Long Point--'New' Provincial Park",42.5806413,-80.3857613,"",,Unspecified,"","",,,,,,,S108541524,"",,,,,Vireo griseus,whevir,Species,18966,,4.80,10,,1910,2865
578591781,Photo,White-eyed Vireo,Vireo griseus,,Andrew Newmark,2023-05-28,2023,5,28,1011,United States,US-CA-073,California,San Diego,Chollas Creek--Euclid Ave to 54th St,32.7374791,-117.0874035,"",,Unspecified,"","",,,,,,,S139695241,"",,,,"Continuing vocalizing bird; white eye, yellow head and flanks, white bib",Vireo griseus,whevir,Species,18966,,4.73,11,,1210,1815
412260191,Photo,White-eyed Vireo,Vireo griseus,,LeShun Smith,2022-02-02,2022,2,2,942,Bermuda,BM-,Bermuda,,Astwood Park,32.2635114,-64.8002386,"",,Unspecified,"","",,,,,,,S101891216,"",,,,,Vireo griseus,whevir,Species,18966,,4.73,11,,1895,2842
136651491,Photo,White-eyed Vireo,Vireo griseus,,Ian Davies,2009-09-22,2009,9,22,630,United States,US-MA-023,Massachusetts,Plymouth,Manomet Conservation Sciences,41.9210050,-70.5442548,Immature,,Unspecified,"","",,,,,,,S5359783,"",,,,"*Uncommon. Another bird banded today, a different bird than yesterday, but also a hatch-year bird.",Vireo griseus,whevir,Species,18966,,4.73,11,,2598,4220
625507912,Photo,White-eyed Vireo,Vireo griseus,,Will Keller,2024-10-27,2024,10,27,843,United States,US-MI-033,Michigan,Chippewa,Whitefish Point,46.7706876,-84.9569493,"",,Unspecified,"","",,,,,,,S200501528,"",,,,"Vireo with two white wingbars, green back, yellow flanks, distinct facial pattern. Came into mob tape with chickadees near rope rd, stuck around for a minute before heading in towards the lake. Pics",Vireo griseus,whevir,Species,18966,,4.89,9,,1874,2811
613137780,Photo,White-eyed Vireo,Vireo griseus,,Dan Mendenhall,2024-01-05,2024,1,5,1418,United States,US-PA-003,Pennsylvania,Allegheny,"1000 Adon Street, Pittsburgh, Pennsylvania, US (40.459, -80.059)",40.4587627,-80.0591378,"",,Unspecified,"","",,,,,,,S158169203,"",,,,First discovered by Amber Pertz. Dan will add photos.,Vireo griseus,whevir,Species,18966,,4.89,9,,2445,3056
611611893,Photo,White-eyed Vireo,Vireo griseus,,Martin Forget,2023-11-26,2023,11,26,756,Canada,CA-QC-AN,Quebec,"L'Assomption","Parc de l'Île-Lebel",45.7361027,-73.4450197,"",Foraging or Eating,Unspecified,"","",,,,,,,S155251951,"",,,,Présence connue,Vireo griseus,whevir,Species,18966,,4.89,9,"",857,1200
608649936,Photo,White-eyed Vireo,Vireo griseus,,Matt Sadowski,2023-09-09,2023,9,9,717,United States,US-CA-073,California,San Diego,Lake Murray--northwest side,32.7901775,-117.0456053,"",,Unspecified,"","",,,,,,,S149471349,"",,,,"At 0730 singing uphill/west of 17th tee: 32.7969021, -117.0382722  At 0945 right at tee-off: 32.7970535, -117.0376754  I noticed in photos today that although head and body plumage is now fresh and complete it is still finishing growth of the outer-most few primaries, so not leaving just yet...",Vireo griseus,whevir,Species,18966,,4.89,9,,1134,1701
582453641,Photo,White-eyed Vireo,Vireo griseus,,Alicia Ambers,2023-05-05,2023,5,5,1522,United States,US-VA-800,Virginia,Suffolk,Great Dismal Swamp NWR--Railroad Ditch,36.6191100,-76.5273285,Adult Male – 1,,Unspecified,"","",,,,,,,S136962002,"",,,,,Vireo griseus,whevir,Species,18966,,4.89,9,,1711,2567
563963601,Photo,White-eyed Vireo,Vireo griseus,,Gale VerHague,2023-04-28,2023,4,28,907,United States,US-NY-013,New York,Chautauqua,Lake Erie SP,42.4220913,-79.4281205,"",,Unspecified,"","",,,,,,,S135285564,"",,,,Found by Tim Lenz.  Audio and photos attached.,Vireo griseus,whevir,Species,18966,,4.89,9,,1184,1851
561548871,Photo,White-eyed Vireo,Vireo griseus,,Dan Mendenhall,2023-04-21,2023,4,21,939,United States,US-PA-003,Pennsylvania,Allegheny,North Park--Mine Waste Field/Pine Creek Area,40.5864513,-79.9791598,"",,Unspecified,"","",,,,,,,S134461053,"",,,,,Vireo griseus,whevir,Species,18966,,4.89,9,,3309,3309
558102201,Photo,White-eyed Vireo,Vireo griseus,,Peter Hamner,2023-04-15,2023,4,15,846,United States,US-PA-101,Pennsylvania,Philadelphia,John Heinz NWR--impoundment (Philadelphia Co.),39.8893501,-75.2601457,"",,Unspecified,"","",,,,,,,S133834461,"",,,,,Vireo griseus,whevir,Species,18966,,4.89,9,,1325,1656
415905381,Photo,White-eyed Vireo,Vireo griseus,,Daniel S.,2022-02-13,2022,2,13,821,United States,US-FL-071,Florida,Lee,J. N. Ding Darling NWR--Indigo Trail,26.4510559,-82.1234035,Adult – 1,,Unspecified,"","",,,,,,,S102556884,"",,,,,Vireo griseus,whevir,Species,18966,,4.89,9,,2893,2524
404098911,Photo,White-eyed Vireo,Vireo griseus,,LeShun Smith,2022-01-09,2022,1,9,1206,Bermuda,BM-,Bermuda,,Mangrove Lake,32.3256536,-64.7075844,"",,Unspecified,"","",,,,,,,S100425378,"",,,,,Vireo griseus,whevir,Species,18966,,4.89,9,,2635,3952
402763331,Photo,White-eyed Vireo,Vireo griseus,,Donna Keller,2022-01-05,2022,1,5,830,United States,US-SC-013,South Carolina,Beaufort,Pinckney Island NWR,32.2338143,-80.7789678,"",,Unspecified,"","",,,,,,,S100194525,"",,,,4 birds seen in different locations throughout the refuge.,Vireo griseus,whevir,Species,18966,,4.89,9,,1363,2048
267281191,Photo,White-eyed Vireo,Vireo griseus,,Jack Adams,2020-10-01,2020,10,1,810,United States,US-DC-001,District of Columbia,District of Columbia,Rock Creek Park--Maintenance Yard,38.9554951,-77.0493486,"",,Unspecified,"","",,,,,,,S74282627,"",,,,,Vireo griseus,whevir,Species,18966,,4.89,9,,1277,1916
120827191,Photo,White-eyed Vireo,Vireo griseus,,Cristina Araya,2018-10-27,2018,10,27,900,Canada,CA-QC-MR,Quebec,Montréal,"Jardin botanique de Montréal, Montréal CA-QC (45,5592,-73,5604)",45.5592200,-73.5604350,"",,Unspecified,"","",,,,,,,S49501805,"",,,,Photo à venir,Vireo griseus,whevir,Species,18966,,4.89,9,,2696,4048
94628591,Photo,White-eyed Vireo,Vireo griseus,,William Higgins,2018-04-14,2018,4,14,720,United States,US-VA-059,Virginia,Fairfax,Accotink Bay Wildlife Refuge,38.6855823,-77.1548367,"",,Unspecified,"","",,,,,,,S44560857,"",,,,,Vireo griseus,whevir,Species,18966,,4.89,9,,2866,3866
619765206,Photo,White-eyed Vireo,Vireo griseus,,Ryan Shean,2024-05-26,2024,5,26,828,United States,US-IN-097,Indiana,Marion,Eagle Creek Park--North Loop,39.8792922,-86.2996754,"",,Unspecified,"","",,,,,,,S177260470,"",,,,,Vireo griseus,whevir,Species,18966,,4.80,10,,2048,3072
564714661,Photo,White-eyed Vireo,Vireo griseus,,Alex Busato,2023-04-29,2023,4,29,1500,United States,US-PA-051,Pennsylvania,Fayette,Jacobs Creek Wetlands,40.1353616,-79.5102465,"",,Unspecified,"","",,,,,,,S135463532,"",,,,,Vireo griseus,whevir,Species,18966,,4.50,16,,1365,2048
626189793,Photo,White-eyed Vireo,Vireo griseus,,Michele Carnerie,2024-11-12,2024,11,12,900,Canada,CA-ON-EL,Ontario,Elgin,Hawk Cliff,42.6684580,-81.1699748,Adult – 1,,Unspecified,"","",,,,,,,S202314687,"",,,,"Discovered with Maria Cohoon, heard the call first and bird eventually gave us great views. Head and back greenish, white underneath, yellow flanks. Two white wing bars, white eyes, yellow spectacles. (Recorded & photo's) Possible second bird.",Vireo griseus,whevir,Species,18966,,5.00,8,,1940,2910
624161761,Photo,White-eyed Vireo,Vireo griseus,,Todd Dixon,2024-09-10,2024,9,10,946,United States,US-VA-087,Virginia,Henrico,Tuckahoe Creek Park,37.6238174,-77.6499081,Adult – 1,Vocalizing,Unspecified,"","",,,,,,,S194642720,"",,,,,Vireo griseus,whevir,Species,18966,,5.00,8,"",3598,2878
620107878,Photo,White-eyed Vireo,Vireo griseus,,Jim Merritt,2024-06-05,2024,6,5,1201,United States,US-CO-041,Colorado,El Paso,Rock Ledge Ranch,38.8731601,-104.8723555,"",,Unspecified,"","",,,,,,,S179595505,"",,,,Found earlier by Clark. Continuing north of the corrals behind the little house with a chimney.  Singing on and off.  Mostly standing low in bushes. Photos,Vireo griseus,whevir,Species,18966,,5.00,8,,1497,2048
618210971,Photo,White-eyed Vireo,Vireo griseus,,Matthew Dolkart,2024-04-30,2024,4,30,517,United States,US-IL-031,Illinois,Cook,"Montrose Point Bird Sanctuary, Lincoln Park, Chicago",41.9633833,-87.6344204,"",,Unspecified,"","",,,,,,,S171112352,"",,,,,Vireo griseus,whevir,Species,18966,,5.00,8,,2002,3003
613424994,Photo,White-eyed Vireo,Vireo griseus,,Alan Phipps,2023-04-24,2023,4,24,1044,United States,US-VA-059,Virginia,Fairfax,**HUNTLEY MEADOWS PARK,38.7576451,-77.0984124,"",,Unspecified,"","",,,,,,,S134868797,"",,,,,Vireo griseus,whevir,Species,18966,,5.00,8,,2400,3000
609060902,Photo,White-eyed Vireo,Vireo griseus,,David Theobald,2023-09-20,2023,9,20,741,United States,US-CA-073,California,San Diego,Lake Murray--northwest side,32.7901775,-117.0456053,"",,Unspecified,"","",,,,,,,S150357768,"",,,,"Calling. White underparts, yellow flanks, grayish yellow upperparts, pale iris, yellow spectacles. Known location",Vireo griseus,whevir,Species,18966,,5.00,8,,1090,1937
596466371,Photo,White-eyed Vireo,Vireo griseus,,Janet Hix,2023-07-22,2023,7,22,650,United States,US-TX-439,Texas,Tarrant,Colleyville Nature Ctr. (PPW-W 082),32.8763434,-97.1664548,"",,Unspecified,"","",,,,,,,S145318315,"",,,,,Vireo griseus,whevir,Species,18966,,5.00,8,,2828,2828
594138321,Photo,White-eyed Vireo,Vireo griseus,,Matt Zuro,2023-07-13,2023,7,13,705,United States,US-IL-031,Illinois,Cook,McGinty Slough / John J. Duffy Grasslands,41.6588008,-87.9223180,"",,Unspecified,"","",,,,,,,S144576146,"",,,,Seen,Vireo griseus,whevir,Species,18966,,5.00,8,,3390,5085
573957241,Photo,White-eyed Vireo,Vireo griseus,,Cody Bassindale,2023-05-13,2023,5,13,532,Canada,CA-ON-ES,Ontario,Essex,Point Pelee National Park (general location),41.9553986,-82.5139999,"",,Unspecified,"","",,,,,,,S137493617,"",,,,,Vireo griseus,whevir,Species,18966,,5.00,8,,3448,5172
568694701,Photo,White-eyed Vireo,Vireo griseus,,Seth Konner,2023-05-07,2023,5,7,1630,United States,US-IL-031,Illinois,Cook,"Lincoln Park, Chicago--Caldwell Lilypool",41.9247517,-87.6338089,"",,Unspecified,"","",,,,,,,S136563687,"",,,,Felt like he moved quicker than warblers,Vireo griseus,whevir,Species,18966,,5.00,8,,3488,5229
494890611,Photo,White-eyed Vireo,Vireo griseus,,Denny Swaby,2022-10-17,2022,10,17,900,United States,US-FL-115,Florida,Sarasota,Pinecraft Park,27.3189746,-82.5037765,"",,Unspecified,"","",,,,,,,S120864144,"",,,,,Vireo griseus,whevir,Species,18966,,5.00,8,,1482,2300
463053471,Photo,White-eyed Vireo,Vireo griseus,,Stephen Hurst,2022-06-03,2022,6,3,521,United States,US-IL-111,Illinois,McHenry,Veteran Acres Park,42.2517744,-88.3133871,"",,Unspecified,"","",,,,,,,S112027684,"",,,,,Vireo griseus,whevir,Species,18966,,5.00,8,,1585,1585
442879531,Photo,White-eyed Vireo,Vireo griseus,,Jim Merritt,2022-04-04,2022,4,4,810,United States,US-TX-019,Texas,Bandera,Lost Maples SNA (HOTW 061),29.8155087,-99.5762582,"",,Unspecified,"","",,,,,,,S106340928,"",,,,,Vireo griseus,whevir,Species,18966,,5.00,8,,1263,1906
419861201,Photo,White-eyed Vireo,Vireo griseus,,Mark R Johnson,2012-05-03,2012,5,3,1728,United States,US-MD-025,Maryland,Harford,Susquehanna SP--Deer Creek Picnic Area,39.6193754,-76.1586857,"",,Unspecified,"","",,,,,,,S103704928,"",,,,,Vireo griseus,whevir,Species,18966,,5.00,8,,1515,2424
118380571,Photo,White-eyed Vireo,Vireo griseus,,Bryan Calk,2018-10-10,2018,10,10,745,United States,US-TX-271,Texas,Kinney,Fort Clark Springs (restricted access),29.3048877,-100.4185581,"",,Unspecified,"","",,,,,,,S49107761,"",,,,exact count - will adjust filter,Vireo griseus,whevir,Species,18966,,5.00,8,,2158,3235
94867251,Photo,White-eyed Vireo,Vireo griseus,,Bill Wood,2018-04-16,2018,4,16,1120,United States,US-VA-041,Virginia,Chesterfield,R. Garland Dodd Park at Point of Rocks,37.3215231,-77.3524189,Adult,,Unspecified,"","",,,,,,,S44642598,"",,,,,Vireo griseus,whevir,Species,18966,,5.00,8,,1012,1831
565536111,Photo,White-eyed Vireo,Vireo griseus,,Bill Thompson,2023-05-01,2023,5,1,635,United States,US-RI-009,Rhode Island,Washington,Trustom Pond NWR,41.3721850,-71.5856300,"",,Unspecified,"","",,,,,,,S135709943,"",,,,,Vireo griseus,whevir,Species,18966,,4.58,12,,1398,2048
586288301,Photo,White-eyed Vireo,Vireo griseus,,Paul Clifford,2023-06-19,2023,6,19,655,United States,US-IL-043,Illinois,DuPage,Greene Valley Forest Preserve,41.7385000,-88.0777000,"",,Unspecified,"","",,,,,,,S142080788,"",,,,,Vireo griseus,whevir,Species,18966,,4.70,10,,2371,4215
618561534,Photo,White-eyed Vireo,Vireo griseus,,Thilini Samarakoon,2024-05-06,2024,5,6,948,Canada,CA-ON-EL,Ontario,Elgin,Hawk Cliff,42.6684580,-81.1699748,"",,Unspecified,"","",,,,,,,S172403964,"",,,,Lifer. Continuing bird. First found by Trisha S.,Vireo griseus,whevir,Species,18966,,4.67,12,,2296,3055
561279271,Photo,White-eyed Vireo,Vireo griseus,,LeShun Smith,2023-04-22,2023,4,22,1536,Bermuda,BM-,Bermuda,,"Seymour's Pond NR",32.2522247,-64.8497200,"",,Unspecified,"","",,,,,,,S134631458,"",,,,,Vireo griseus,whevir,Species,18966,,4.64,11,,1767,2650
413311471,Photo,White-eyed Vireo (White-eyed),Vireo griseus [griseus Group],,Daniel S.,2022-02-05,2022,2,5,810,United States,US-FL-021,Florida,Collier,Audubon Corkscrew Swamp Sanctuary,26.3754420,-81.6040206,Adult – 1,,Unspecified,"","",,,,,,,S102055705,"",,,,,Vireo griseus,whevir1,Group,18967,,4.64,11,,1749,2186
273504251,Photo,White-eyed Vireo,Vireo griseus,,Mike Andersen,2020-10-22,2020,10,22,1000,United States,US-PA-029,Pennsylvania,Chester,Marsh Creek SP,40.0675599,-75.7199850,"",,Unspecified,"","",,,,,,,S75227353,"",,,,Very late. Photos.,Vireo griseus,whevir,Species,18966,,4.58,12,,1071,1500
451021961,Photo,White-eyed Vireo,Vireo griseus,,Caleb Crain,2022-05-19,2022,5,19,712,United States,US-TX-439,Texas,Tarrant,Village Creek Drying Beds (PPW-W 083),32.7842795,-97.1266181,"",,Unspecified,"","",,,,,,,S110719790,"",,,,,Vireo griseus,whevir,Species,18966,,4.78,9,,2333,3500
334771581,Photo,White-eyed Vireo,Vireo griseus,,Robert Bochenek,2021-05-05,2021,5,5,1429,United States,US-MI-125,Michigan,Oakland,Cranberry Lake Park,42.7909918,-83.1456256,"",,Unspecified,"","",,,,,,,S87204762,"",,,,"Continuing, vireo with yellow lores, white eye, and overall greenish/yellow coloration. Thanks to Mike O. for getting us on the bird. Sang loudly,  but went for long periods without showing or singing. Mostly staying around the parking lot area, but did cross the road once.",Vireo griseus,whevir,Species,18966,,4.64,11,,1105,1336
97401361,Photo,White-eyed Vireo,Vireo griseus,,Wayne Fidler,2017-09-21,2017,9,21,1555,United States,US-FL-019,Florida,Clay,Moccasin Slough Park,30.1209648,-81.7018622,"",,Unspecified,"","",,,,,,,S39325520,"",,,,,Vireo griseus,whevir,Species,18966,,4.70,10,,1508,1921
439416651,Photo,White-eyed Vireo,Vireo griseus,,Mel Green,2022-04-24,2022,4,24,653,United States,US-NC-135,North Carolina,Orange,Brumley Nature Preserve--North,36.0339100,-79.0419090,"",,Unspecified,"","",,,,,,,S107902381,"",,,,New nest in same location as last year. The old nest had disappeared over the winter.,Vireo griseus,whevir,Species,18966,,4.78,9,,2242,3363
94867271,Photo,White-eyed Vireo,Vireo griseus,,Bill Wood,2018-04-16,2018,4,16,1120,United States,US-VA-041,Virginia,Chesterfield,R. Garland Dodd Park at Point of Rocks,37.3215231,-77.3524189,Adult,,Unspecified,"","",,,,,,,S44642598,"",,,,,Vireo griseus,whevir,Species,18966,,4.78,9,,833,715
334757251,Photo,White-eyed Vireo,Vireo griseus,,Trey Weaver,2021-05-06,2021,5,6,1640,United States,US-MN-139,Minnesota,Scott,Spring Lake Regional Park,44.7172653,-93.4687701,"",,Unspecified,"","",,,,,,,S87289287,"",,,,"Refound by Doug Kieser at 44.705997, -93.474469  Thank you to Brad, Doug, and Frank Fabbro for the help.  Photos tba",Vireo griseus,whevir,Species,18966,,4.33,18,,3456,4608
80768141,Photo,White-eyed Vireo,Vireo griseus,,Jim Carroll,2017-11-21,2017,11,21,1129,Canada,CA-NB-SJ,New Brunswick,Saint John,Black Beach Road,45.1535240,-66.2070659,"",,Unspecified,"","",,,,,,,S41667854,"",,,1/500 sec at F8 ISO 360 500mm,Saw bird as I topped a small ridge for maybe 10 seconds. it was sitting in the sun in a leafless tree.It flew off to the east,Vireo griseus,whevir,Species,18966,,3.94,70,,790,944
626222429,Photo,White-eyed Vireo,Vireo griseus,,Stephen Taylor,2024-11-13,2024,11,13,1252,Canada,CA-ON-EL,Ontario,Elgin,Hawk Cliff,42.6684580,-81.1699748,"",,Unspecified,"","",,,,,,,S202401125,"",,,,"Found by Maria C & Michele C yesterday. A beauty for sure. Couldn't find it after quite some time of looking so I left.... but I returned after the ladies found the bird and Michele C called me. Thank you. It was still near the road when I arrived. Yellow and white chest, yellow spectacles and those cool white eyes Heard and seen. Got a record shot.",Vireo griseus,whevir,Species,18966,,4.88,8,,2656,3719
578035841,Photo,White-eyed Vireo,Vireo griseus,,Matt Sadowski,2023-05-27,2023,5,27,815,United States,US-CA-073,California,San Diego,Lake Murray--northwest side,32.7901775,-117.0456053,"",,Unspecified,"","",,,,,,,S139471680,"",,,,"Photos and recordings. Singing bird moving all over the place on both E and W sides of the drainage N of San Carlos Bay. Original coords right at tee-off spot: 32.7970915, -117.0376147 Moved as far N as here on both sides of the dirt path: 32.7984390, -117.0372278 Moved SE as far as the upper tip of San Carlos Bay just E of main drainage and S of bike path: 32.7961688, -117.0373766 Could be in any of the Brazilian pepper thickets where impossible to find unless singing, which it did periodically. Sometimes hanging around a family group of HUVI.",Vireo griseus,whevir,Species,18966,,4.88,8,,1967,2951
497287111,Photo,White-eyed Vireo,Vireo griseus,,Jared Clarke,2022-10-21,2022,10,21,1000,Canada,CA-NL-ON,Newfoundland and Labrador,"Avalon Peninsula-St. John's",NL--Cape Race,46.6600096,-53.0740224,"",,Unspecified,"","",,,,,,,S121090404,"",,,,Foraging in grass near the lighthouse. Photos.,Vireo griseus,whevir,Species,18966,,4.88,8,,1200,1500
435120071,Photo,White-eyed Vireo,Vireo griseus,,Mark R Johnson,2022-04-13,2022,4,13,903,United States,US-MD-025,Maryland,Harford,Swan Harbor Farm Park,39.5224820,-76.1144400,"",,Unspecified,"","",,,,,,,S106964991,"",,,,"FOY, both singing along the entrance road woods.",Vireo griseus,whevir,Species,18966,,4.88,8,,1079,1590
402763321,Photo,White-eyed Vireo,Vireo griseus,,Donna Keller,2022-01-05,2022,1,5,830,United States,US-SC-013,South Carolina,Beaufort,Pinckney Island NWR,32.2338143,-80.7789678,"",,Unspecified,"","",,,,,,,S100194525,"",,,,4 birds seen in different locations throughout the refuge.,Vireo griseus,whevir,Species,18966,,4.88,8,,1364,2048
388787521,Photo,White-eyed Vireo,Vireo griseus,,Jian Mei,2021-11-17,2021,11,17,924,Canada,CA-ON-TO,Ontario,Toronto,Toronto--Staines Pond,43.8204863,-79.2185605,"",,Unspecified,"","",,,,,,,S97704329,"",,,,Continuing bird. Seen by many. Photos taken,Vireo griseus,whevir,Species,18966,,4.88,8,,977,1467
327803441,Photo,White-eyed Vireo,Vireo griseus,,Eaton Ekarintaragun,2021-04-16,2021,4,16,1825,United States,US-MD-009,Maryland,Calvert,Fishing Creek - Powerline Trail,38.6594503,-76.5670676,Adult Male – 1,,Unspecified,"","",,,,,,,S85703752,"",,,,,Vireo griseus,whevir,Species,18966,,4.88,8,,3692,5682
623711283,Photo,White-eyed Vireo,Vireo griseus,,Demetri Miranthis,2024-03-30,2024,3,30,1620,Bermuda,BM-,Bermuda,,Spittal Pond NR,32.3114369,-64.7261238,"",,Unspecified,"","",,,,,,,S166698190,"",,,,,Vireo griseus,whevir,Species,18966,,5.00,7,,3238,5000
620088287,Photo,White-eyed Vireo,Vireo griseus,,Jim Merritt,2024-06-05,2024,6,5,1201,United States,US-CO-041,Colorado,El Paso,Rock Ledge Ranch,38.8731601,-104.8723555,"",,Unspecified,"","",,,,,,,S179595505,"",,,,Found earlier by Clark. Continuing north of the corrals behind the little house with a chimney.  Singing on and off.  Mostly standing low in bushes. Photos,Vireo griseus,whevir,Species,18966,,5.00,7,,1602,2048
613425813,Photo,White-eyed Vireo,Vireo griseus,,Alan Phipps,2022-08-30,2022,8,30,824,United States,US-VA-059,Virginia,Fairfax,**HUNTLEY MEADOWS PARK,38.7576451,-77.0984124,"",,Unspecified,"","",,,,,,,S117810883,"",,,,,Vireo griseus,whevir,Species,18966,,5.00,7,,2400,3000
590431441,Photo,White-eyed Vireo,Vireo griseus,,Michael Stubblefield,2023-04-29,2023,4,29,639,United States,US-NJ-009,New Jersey,Cape May,Cape Island--South Cape May Meadows (SCMM),38.9359287,-74.9434519,Adult Male – 1,"Foraging or Eating; Vocalizing",Unspecified,"","",,,,,,,S135385551,"",,,"White-eyed Vireo (Vireo griseus noveboracensis), White-eyed subspecies group, adult male foraging and singing in South Cape May Meadows, Cape May, New Jersey.",,Vireo griseus,whevir,Species,18966,,5.00,7,"",2420,3630
582453591,Photo,White-eyed Vireo,Vireo griseus,,Alicia Ambers,2023-05-05,2023,5,5,1522,United States,US-VA-800,Virginia,Suffolk,Great Dismal Swamp NWR--Railroad Ditch,36.6191100,-76.5273285,Adult Male – 1,,Unspecified,"","",,,,,,,S136962002,"",,,,,Vireo griseus,whevir,Species,18966,,5.00,7,,2265,3398
581240821,Photo,White-eyed Vireo (White-eyed),Vireo griseus [griseus Group],,Joachim Bertrands | Ornis Birding Expeditions,2023-06-03,2023,6,3,611,Canada,CA-BC-AC,British Columbia,Alberni-Clayoquot,"601–711 Rainforest Dr, Ucluelet CA-BC 48.93895, -125.55190",48.9389510,-125.5518990,"",,Unspecified,"","",,,,,,,S140334640,"",,,,"***MEGA - singing from alders and dense undergrowth here: 48.938118, -125.551904. Photos, recordings and more info forthcoming. 2nd for BC. Found while guiding a group for Eagle Eyes Tours, and actually looking for HUVI. Did not expect this, straight slap in the MOUFF.",Vireo griseus,whevir1,Group,18967,,5.00,7,,1636,2459
578088661,Photo,White-eyed Vireo,Vireo griseus,,Ryan Shean,2023-05-27,2023,5,27,716,United States,US-IN-081,Indiana,Johnson,Atterbury FWA,39.3894253,-86.0594273,"",,Unspecified,"","",,,,,,,S139500413,"",,,,,Vireo griseus,whevir,Species,18966,,5.00,7,,1933,2899
578035861,Photo,White-eyed Vireo,Vireo griseus,,Matt Sadowski,2023-05-27,2023,5,27,815,United States,US-CA-073,California,San Diego,Lake Murray--northwest side,32.7901775,-117.0456053,"",,Unspecified,"","",,,,,,,S139471680,"",,,,"Photos and recordings. Singing bird moving all over the place on both E and W sides of the drainage N of San Carlos Bay. Original coords right at tee-off spot: 32.7970915, -117.0376147 Moved as far N as here on both sides of the dirt path: 32.7984390, -117.0372278 Moved SE as far as the upper tip of San Carlos Bay just E of main drainage and S of bike path: 32.7961688, -117.0373766 Could be in any of the Brazilian pepper thickets where impossible to find unless singing, which it did periodically. Sometimes hanging around a family group of HUVI.",Vireo griseus,whevir,Species,18966,,5.00,7,,2170,3255
567769701,Photo,White-eyed Vireo,Vireo griseus,,Alison Davies,2023-05-06,2023,5,6,900,United States,US-SC-063,South Carolina,Lexington,Fourteen Mile Creek Trail,34.0026740,-81.2260530,"",Vocalizing,Unspecified,"","",,,,,,,S136323268,"",,,,,Vireo griseus,whevir,Species,18966,,5.00,7,"",2189,3663
567420431,Photo,White-eyed Vireo,Vireo griseus,,Josh Cooper,2023-05-05,2023,5,5,1354,United States,US-PA-091,Pennsylvania,Montgomery,Pennypack Ecological Restoration Trust,40.1422380,-75.0829010,"",,Unspecified,"","",,,,,,,S136182909,"",,,,,Vireo griseus,whevir,Species,18966,,5.00,7,,2001,2305
551168351,Photo,White-eyed Vireo,Vireo griseus,,Todd Fibus,2023-03-29,2023,3,29,833,United States,US-GA-089,Georgia,DeKalb,Constitution Lakes,33.6825503,-84.3445086,"",,Unspecified,"","",,,,,,,S132132287,"",,,,,Vireo griseus,whevir,Species,18966,,5.00,7,,1728,2160
550747101,Photo,White-eyed Vireo,Vireo griseus,,Michael Stubblefield,2016-04-24,2016,4,24,630,United States,US-NJ-009,New Jersey,Cape May,Cape Island--Higbee Beach WMA,38.9613889,-74.9608333,Adult Male – 1,"Foraging or Eating; Vocalizing",Unspecified,"","",,,,,,,S132080165,"",,,"White-eyed Vireo (Vireo griseus noveboracensis), White-eyed subspecies, adult male foraging and singing at dawn at Higbee Beach Wildlife Management Area in Cape May, New Jersey.",,Vireo griseus,whevir,Species,18966,,5.00,7,"",2625,3935
513556931,Photo,White-eyed Vireo,Vireo griseus,,Ezra J. Campanelli,2022-04-30,2022,4,30,602,Canada,CA-ON-ES,Ontario,Essex,Point Pelee National Park (general location),41.9553986,-82.5139999,"",,Unspecified,"","",,,,,,,S108551427,"",,,,"1 S of sparrow field, 6 on west beach footpath, all moving the opposite way we were walking so clearly different birds",Vireo griseus,whevir,Species,18966,,5.00,7,,1495,2243
442697531,Photo,White-eyed Vireo,Vireo griseus,,Peter Wilson,2022-05-01,2022,5,1,950,United States,US-IN-097,Indiana,Marion,Daubenspeck Community Nature Park,39.9186602,-86.1860466,"",,Unspecified,"","",,,,,,,S108600058,"",,,,,Vireo griseus,whevir,Species,18966,,5.00,7,,2590,3884
341657101,Photo,White-eyed Vireo,Vireo griseus,,Jim Emery,2021-05-13,2021,5,13,602,United States,US-VA-107,Virginia,Loudoun,Sweet Run State Park,39.2940000,-77.7246000,"",,Unspecified,"","",,,,,,,S87998043,"",,,,,Vireo griseus,whevir,Species,18966,,5.00,7,,1040,1518
337178591,Photo,White-eyed Vireo,Vireo griseus,,Bill Chan,2021-05-11,2021,5,11,1430,Canada,CA-ON-PT,Ontario,Perth,Stratford--TJ Dolan Natural Area,43.3693375,-81.0076904,"",,Unspecified,"","",,,,,,,S87873401,"",,,,sang like a machine. He hanged out with the b&w warbler and 2 chestnut sided warblers,Vireo griseus,whevir,Species,18966,,5.00,7,,2161,2400
278415751,Photo,White-eyed Vireo,Vireo griseus,,Michael Stubblefield,2020-05-02,2020,5,2,557,United States,US-NJ-025,New Jersey,Monmouth,Assunpink WMA,40.2186582,-74.5186533,Adult Male,Foraging or Eating,Unspecified,"","",,,,,,,S68245763,"",,,"White-eyed Vireo (Vireo griseus noveboracensis), White-eyed subspecies group, foraging at the Assunpink Wildlife Management Area, Allentown, New Jersey.",,Vireo griseus,whevir,Species,18966,,5.00,7,Habitat,2406,3608
176215071,Photo,White-eyed Vireo,Vireo griseus,,Brian Smith,2019-09-08,2019,9,8,735,United States,US-VA-153,Virginia,Prince William,Merrimac Farm WMA,38.6237776,-77.5353241,"",,Unspecified,"","",,,,,,,S59620118,"",,,,,Vireo griseus,whevir,Species,18966,,5.00,7,,1842,2579
128180061,Photo,White-eyed Vireo,Vireo griseus,,Lionel Xavier Horn,2018-12-12,2018,12,12,849,United States,US-GA-063,Georgia,Clayton,Clayton Co. Water Authority--Newman Wetlands Center,33.4724754,-84.3062496,"",,Unspecified,"","",,,,,,,S50615751,"",,,Full frame.,"Seen and photographed well. A warbler sized bird with white eyes, yellow spectacles, and two yellow breast spots. Not a super crazy find all things considered this year. Something scared him and many other small passerines into hiding and producing alarm calls. It stayed still allowing me to get great shots.",Vireo griseus,whevir,Species,18966,,5.00,7,,3456,5184
128180021,Photo,White-eyed Vireo,Vireo griseus,,Lionel Xavier Horn,2018-12-12,2018,12,12,849,United States,US-GA-063,Georgia,Clayton,Clayton Co. Water Authority--Newman Wetlands Center,33.4724754,-84.3062496,"",,Unspecified,"","",,,,,,,S50615751,"",,,Crop.,"Seen and photographed well. A warbler sized bird with white eyes, yellow spectacles, and two yellow breast spots. Not a super crazy find all things considered this year. Something scared him and many other small passerines into hiding and producing alarm calls. It stayed still allowing me to get great shots.",Vireo griseus,whevir,Species,18966,,5.00,7,,2155,2864
608649934,Photo,White-eyed Vireo,Vireo griseus,,Matt Sadowski,2023-09-09,2023,9,9,717,United States,US-CA-073,California,San Diego,Lake Murray--northwest side,32.7901775,-117.0456053,"",,Unspecified,"","",,,,,,,S149471349,"",,,,"At 0730 singing uphill/west of 17th tee: 32.7969021, -117.0382722  At 0945 right at tee-off: 32.7970535, -117.0376754  I noticed in photos today that although head and body plumage is now fresh and complete it is still finishing growth of the outer-most few primaries, so not leaving just yet...",Vireo griseus,whevir,Species,18966,,4.60,10,,2790,4186
578398941,Photo,White-eyed Vireo,Vireo griseus,,Nathan French,2023-05-28,2023,5,28,939,United States,US-CA-073,California,San Diego,Chollas Creek--Euclid Ave to 54th St,32.7374791,-117.0874035,"",,Unspecified,"","",,,,,,,S139645993,"",,,,"Continuing. Found yesterday by Lesley H. This morning it was singing on both sides of trail, visible only occasionally. First look was here: (32.7398913, -117.0857486) It went quiet for a bit and was refound here: (32.7388369, -117.0866280) After everyone else left I got my best views and photo here: (32.7383146, -117.0868326)",Vireo griseus,whevir,Species,18966,,4.46,13,,1476,2214
578040111,Photo,White-eyed Vireo,Vireo griseus,,Sally Veach,2023-05-27,2023,5,27,1258,United States,US-CA-073,California,San Diego,Lake Murray--northwest side,32.7901775,-117.0456053,"",,Unspecified,"","",,,,,,,S139511934,"",,,,"Continuing. Found by Matt S. this morning.  Very vocal in pepper trees. (32.7958602, -117.0373321).",Vireo griseus,whevir,Species,18966,,4.67,9,,1508,2039
446316801,Photo,White-eyed Vireo,Vireo griseus,,Tom Foley,2022-05-09,2022,5,9,1502,United States,US-ME-005,Maine,Cumberland,Capisic Pond Park,43.6657090,-70.3073291,"",,Unspecified,"","",,,,,,,S109484918,"",,,,Found earlier today (?). Sang several times before giving a visual. Very active. Got decent photos.,Vireo griseus,whevir,Species,18966,,4.67,9,,993,1490
337118801,Photo,White-eyed Vireo,Vireo griseus,,Brad Carlson,2021-05-10,2021,5,10,1122,United States,US-NY-009,New York,Cattaraugus,Gargoyle Park,42.0676801,-78.4691543,"",,Unspecified,"","",,,,,,,S87738596,"",,,,"Vireo with olive back yellow flanks, white belly, wing bars, yellow spectacles and white eye. Singing periodically.",Vireo griseus,whevir,Species,18966,,4.67,9,,3648,5472
96097331,Photo,White-eyed Vireo,Vireo griseus,,Brian Murphy,2018-04-23,2018,4,23,827,United States,US-NC-183,North Carolina,Wake,Neuse River Trail--Falls River,35.9288530,-78.5589530,"","",Unspecified,"","",,,,,,,S44863941,"",,,,,Vireo griseus,whevir,Species,18966,,4.13,23,Watermark,935,1400
96169331,Photo,White-eyed Vireo,Vireo griseus,,Jim Collins,2018-04-23,2018,4,23,810,United States,US-FL-081,Florida,Manatee,Magnolia Hill,27.3501031,-82.2487593,"","",Unspecified,"","",,,,,,,S44882176,"",,,,,Vireo griseus,whevir,Species,18966,,3.92,51,Habitat,858,1285
610865269,Photo,White-eyed Vireo,Vireo griseus,,Joe Donahue,2023-11-07,2023,11,7,722,United States,US-NC-081,North Carolina,Guilford,Guilford County Farm/Howerton Rd. (Guilford Co.),36.1376494,-79.5522702,Immature – 1,Foraging or Eating,Unspecified,"","",,,,,,,S153949586,"",,,,See joe’s picture to follow,Vireo griseus,whevir,Species,18966,,4.67,9,"",2792,3000
320617151,Photo,White-eyed Vireo,Vireo griseus,,Steve Wickliffe,2021-03-07,2021,3,7,645,United States,US-TX-215,Texas,Hidalgo,Estero Llano Grande SP WBC (LTC 054),26.1268335,-97.9578167,Adult – 1,Foraging or Eating,Unspecified,"","",,,,,,,S82990459,"",,,,,Vireo griseus,whevir,Species,18966,,4.67,9,Habitat,2402,3202
515154051,Photo,White-eyed Vireo,Vireo griseus,,Mike Moynihan,2022-12-20,2022,12,20,1430,Canada,CA-ON-MI,Ontario,Middlesex,West end of Springbank Park,42.9609751,-81.3282524,"",,Unspecified,"","",,,,,,,S124351617,"",,,,"Bright eye with brighter white chest. One on the bank, one on south side of walking trail, both with 30 m of the east end of the parking lot. Located at west end of Springbank Park. Photo to follow.i",Vireo griseus,whevir,Species,18966,,4.46,13,,2063,2578
387876931,Photo,White-eyed Vireo,Vireo griseus,,Frédérick Lelièvre,2021-11-13,2021,11,13,1256,Canada,CA-QC-QU,Quebec,Québec,Base de plein air de Ste-Foy,46.7906725,-71.3303447,"",,Unspecified,"","",,,,,,,S97530240,"",,,,Trouvé ce matin par Philippe Jobin et France Carbonneau dans la tourbière.,Vireo griseus,whevir,Species,18966,,4.75,8,,2560,3840
276122071,Photo,White-eyed Vireo,Vireo griseus,,Suzanne Labbé,2020-10-31,2020,10,31,854,Canada,CA-QC-RS,Quebec,Roussillon,"Rue Higgins, Châteauguay",45.3952870,-73.7490810,"",,Unspecified,"","",,,,,,,S75638548,"",,,,"Vers 10h40, Retrouvé par Suzanne sur la digue près du petit pont de métal au bout de la rue Pelletier. Photo à suivre. Se déplace ensuite vers le nord en suivant la digue. Très actif",Vireo griseus,whevir,Species,18966,,4.75,8,,1200,1800
231093571,Photo,White-eyed Vireo,Vireo griseus,,Daniel Irons,2020-04-24,2020,4,24,1139,United States,US-MD-039,Maryland,Somerset,Follow Ditch Road--Big woods,38.1296655,-75.6105216,"",,Unspecified,"","",,,,,,,S67818874,"",,,,,Vireo griseus,whevir,Species,18966,,4.75,8,,1415,2300
212038361,Photo,White-eyed Vireo,Vireo griseus,,Jonathan Irons,2019-04-24,2019,4,24,640,United States,US-MD-035,Maryland,"Queen Anne's",Big water farm (Private),38.8879430,-76.1964941,"",,Unspecified,"","",,,,,,,S55332447,"",,,,,Vireo griseus,whevir,Species,18966,,4.75,8,,2671,4003
271870971,Photo,White-eyed Vireo,Vireo griseus,,Bill Schneider,2020-10-17,2020,10,17,752,United States,US-TX-039,Texas,Brazoria,Quintana Neotropical Bird Sanctuary (UTC 121),28.9336226,-95.3087246,"",,Unspecified,"","",,,,,,,S74960750,"",,,,,Vireo griseus,whevir,Species,18966,,4.75,8,,2737,4106
618260075,Photo,White-eyed Vireo,Vireo griseus,,Trish Snider,2024-04-30,2024,4,30,1100,Canada,CA-ON-EL,Ontario,Elgin,Hawk Cliff,42.6684580,-81.1699748,"",,Unspecified,"","",,,,,,,S171224851,"",,,,"This is the second one I found in Elgin County this year, very nice to see.  He was singing at the entrance to the trail off the road as you are coming into hawks cliff.  Photos to be added.",Vireo griseus,whevir,Species,18966,,4.75,8,,1842,3150
59526841,Photo,White-eyed Vireo,Vireo griseus,,Suzanne Zuckerman,2017-05-27,2017,5,27,830,United States,US-FL-093,Florida,Okeechobee,"Kissimmee Prairie Preserve State Park, Okeechobee US-FL (27.5783,-81.0795)",27.5782710,-81.0794620,"",,Unspecified,"","",,,,,,,S37177645,"",,,,little one following adult and adult feeding it bugs,Vireo griseus,whevir,Species,18966,,4.09,23,,2233,2844
480979101,Photo,White-eyed Vireo,Vireo griseus,,Christopher Veale,2022-09-02,2022,9,2,815,United States,US-RI-009,Rhode Island,Washington,Trustom Pond NWR,41.3721850,-71.5856300,"",,Unspecified,"","",,,,,,,S117951360,"",,,,,Vireo griseus,whevir,Species,18966,,4.45,11,,1667,2497
616627437,Photo,White-eyed Vireo,Vireo griseus,,Pramod Prabhu,2024-03-29,2024,3,29,900,United States,US-NC-119,North Carolina,Mecklenburg,Six Mile Creek Greenway,35.0111936,-80.8297420,"",,Unspecified,"","",,,,,,,S166353513,"",,,,,Vireo griseus,whevir,Species,18966,,4.86,7,,6029,5182
608938323,Photo,White-eyed Vireo,Vireo griseus,,Evan Pannkuk,2023-09-17,2023,9,17,800,United States,US-VA-059,Virginia,Fairfax,Laurel Hill Equestrian Center,38.7010180,-77.2460620,"",,Unspecified,"","",,,,,,,S150110609,"",,,,,Vireo griseus,whevir,Species,18966,,4.86,7,,2350,3559
582453631,Photo,White-eyed Vireo,Vireo griseus,,Alicia Ambers,2023-05-05,2023,5,5,1522,United States,US-VA-800,Virginia,Suffolk,Great Dismal Swamp NWR--Railroad Ditch,36.6191100,-76.5273285,Adult Male – 1,,Unspecified,"","",,,,,,,S136962002,"",,,,,Vireo griseus,whevir,Species,18966,,4.86,7,,1711,2567
568694771,Photo,White-eyed Vireo,Vireo griseus,,Seth Konner,2023-05-07,2023,5,7,1630,United States,US-IL-031,Illinois,Cook,"Lincoln Park, Chicago--Caldwell Lilypool",41.9247517,-87.6338089,"",,Unspecified,"","",,,,,,,S136563687,"",,,,Felt like he moved quicker than warblers,Vireo griseus,whevir,Species,18966,,4.86,7,,3250,4873
563963611,Photo,White-eyed Vireo,Vireo griseus,,Gale VerHague,2023-04-28,2023,4,28,907,United States,US-NY-013,New York,Chautauqua,Lake Erie SP,42.4220913,-79.4281205,"",,Unspecified,"","",,,,,,,S135285564,"",,,,Found by Tim Lenz.  Audio and photos attached.,Vireo griseus,whevir,Species,18966,,4.86,7,,1435,2412
559474241,Photo,White-eyed Vireo,Vireo griseus,,Joe Donahue,2023-04-18,2023,4,18,657,United States,US-NC-037,North Carolina,Chatham,Old Bynum Bridge,35.7730400,-79.1435458,Adult Male – 1,Vocalizing,Unspecified,"","",,,,,,,S134186353,"",,,,,Vireo griseus,whevir,Species,18966,,4.86,7,"",3000,2746
452863051,Photo,White-eyed Vireo,Vireo griseus,,Gale VerHague,2022-05-24,2022,5,24,1108,United States,US-NC-119,North Carolina,Mecklenburg,"Cowan's Ford Wildlife Refuge",35.3714422,-80.9744294,"",,Unspecified,"","",,,,,,,S111171055,"",,,,,Vireo griseus,whevir,Species,18966,,4.86,7,,1316,2048
445800051,Photo,White-eyed Vireo,Vireo griseus,,Rick Wilhoit,2022-05-08,2022,5,8,1102,United States,US-MO-095,Missouri,Jackson,Blue Springs Lake--Fleming Park Wetland,39.0205174,-94.3396425,"",,Unspecified,"","",,,,,,,S109347753,"",,,,,Vireo griseus,whevir,Species,18966,,4.86,7,,1355,2032
73361251,Photo,White-eyed Vireo,Vireo griseus,,Mitch (Michel) Doucet,2017-10-28,2017,10,28,1400,Canada,CA-NB-CH,New Brunswick,Charlotte,CA-NB-Deer Island (Fairhaven Wharf Rd),44.9644230,-67.0067290,"",,Unspecified,"","",,,,,,,S40179636,"",,,,A different one then earlier today.,Vireo griseus,whevir,Species,18966,,4.86,7,,2307,3461
468181181,Photo,White-eyed Vireo,Vireo griseus,,Anonymous,2022-07-15,2022,7,15,657,United States,US-CT-001,Connecticut,Fairfield,Paine Open Space/Pond View Preserve (ALT),41.3139990,-73.3032060,"",,Unspecified,"","",,,,,,,S115100544,"",,,,"2 very vocal individuals, right off of the parking area. Calling with the ""spit! see if I care, spit!"" and catbird-type calls. Excellent views for photos video and audio, all captured. Thankfully birds were easy to find and with patience they approached fairly close. Striking white eyes. Quite happy with this encounter and thankful for the birder that posted some WEVI elsewhere on the grounds earlier in the week. Birds were present and active the entirety of the time I was here, in the same general location, likely breeders here. A possible 3rd bird, juvenile, might have been present but I couldn't confirm. Life-bird for me.",Vireo griseus,whevir,Species,18966,,4.86,7,,1419,2103
388524511,Photo,White-eyed Vireo,Vireo griseus,,Julie Bowen,2021-11-16,2021,11,16,935,Canada,CA-ON-TO,Ontario,Toronto,"Toronto--Ashbridge's Bay Park",43.6599861,-79.3093553,"",,Unspecified,"","",,,,,,,S97664663,"",,,,First found by Noam - thanks for the map!. thanks to Laura for refinding it. Photo,Vireo griseus,whevir,Species,18966,,4.86,7,,3648,4265
264723551,Photo,White-eyed Vireo,Vireo griseus,,Anonymous,2020-09-19,2020,9,19,741,United States,US-VA-540,Virginia,Charlottesville,Pen Park,38.0518338,-78.4511483,"",,Unspecified,"","",,,,,,,S73796326,"",,,,,Vireo griseus,whevir,Species,18966,,4.86,7,,2517,3775
146348851,Photo,White-eyed Vireo,Vireo griseus,,Janey Woodley,2019-03-16,2019,3,16,1031,United States,US-TX-039,Texas,Brazoria,Quintana Neotropical Bird Sanctuary (UTC 121),28.9336226,-95.3087246,"",,Unspecified,"","",,,,,,,S53900039,"",,,,,Vireo griseus,whevir,Species,18966,,4.86,7,,2658,1972
93994851,Photo,White-eyed Vireo,Vireo griseus,,Christian Fernandez,2018-04-07,2018,4,7,1045,United States,US-TX-029,Texas,Bexar,Salado Creek Greenway--Jack White Park,29.4523039,-98.4238985,"",,Unspecified,"","",,,,,,,S44470330,"",,,,,Vireo griseus,whevir,Species,18966,,4.86,7,,1476,2213
65782851,Photo,White-eyed Vireo,Vireo griseus,,Evan Lipton,2017-08-06,2017,8,6,655,United States,US-RI-001,Rhode Island,Bristol,Colt State Park,41.6806368,-71.3021922,Immature,,Unspecified,"","",,,,,,,S38505072,"",,,,,Vireo griseus,whevir,Species,18966,,4.86,7,,2796,4193
49909051,Photo,White-eyed Vireo,Vireo griseus,,Caroline Lambert,2017-02-17,2017,2,17,750,United States,US-TX-391,Texas,Refugio,Lions / Shelley Park (CTC 038) (CLOSED),28.2967102,-97.2804594,"",,Unspecified,"","",,,,,,,S34487561,"",,,,,Vireo griseus,whevir,Species,18966,,4.86,7,,1990,2521
59542761,Photo,White-eyed Vireo,Vireo griseus,,Jesse Amesbury,2017-05-05,2017,5,5,1614,United States,US-NJ-001,New Jersey,Atlantic,Estell Manor Park,39.3928591,-74.7387028,"",,Unspecified,"","",,,,,,,S36584387,"",,,,,Vireo griseus,whevir,Species,18966,,4.50,10,,2758,4137
609861114,Photo,White-eyed Vireo,Vireo griseus,,Monique Maynard,2023-10-12,2023,10,12,830,Canada,CA-QC-RS,Quebec,Roussillon,"RF Marguerite-D'Youville",45.3914585,-73.7611771,"",,Unspecified,"","",,,,,,,S152027982,"",,,une première pour  moi   !! Merci a Suzanne et Pierre  pour la confirmation,"observer près de la compo lette secteur le grillon près du balcon pour faire de l'observation photo a venir",Vireo griseus,whevir,Species,18966,,4.38,13,,1345,1976
572758411,Photo,White-eyed Vireo,Vireo griseus,,Brendan Montie,2023-05-13,2023,5,13,626,United States,US-MI-021,Michigan,Berrien,Warren Dunes SP--Floral Ln.,41.9215950,-86.5789749,"",,Unspecified,"","",,,,,,,S137348739,"",,,,"Continuing, seen and heard",Vireo griseus,whevir,Species,18966,,4.56,9,,4000,6000
561099791,Photo,White-eyed Vireo,Vireo griseus,,Kayann Cassidy,2023-04-22,2023,4,22,650,United States,US-PA-029,Pennsylvania,Chester,Schuylkill River Trail--Cromby/Phoenixville,40.1480119,-75.5288621,"",,Unspecified,"","",,,,,,,S134586616,"",,,,,Vireo griseus,whevir,Species,18966,,4.56,9,,681,1020
609024365,Photo,White-eyed Vireo,Vireo griseus,,Nancy Christensen,2023-09-19,2023,9,19,1259,United States,US-CA-073,California,San Diego,Lake Murray--northwest side,32.7901775,-117.0456053,"",,Unspecified,"","",,,,,,,S150296597,"",,,,Continuing. Noisy little dude!,Vireo griseus,whevir,Species,18966,,4.20,15,,1195,1794
504899111,Photo,White-eyed Vireo,Vireo griseus,,Mel Senac,2022-11-12,2022,11,12,1115,United States,US-TX-061,Texas,Cameron,South Padre Is.--WBC/Conv. Center/Laguna Madre Trail (LTC 035),26.1400912,-97.1748233,"",,Unspecified,"","",,,,,,,S122299997,"",,,,,Vireo griseus,whevir,Species,18966,,4.56,9,,1640,1997
337877671,Photo,White-eyed Vireo,Vireo griseus,,Ryan Schain,2021-05-13,2021,5,13,1349,United States,US-MA-001,Massachusetts,Barnstable,"Schain Yard, Chatham (private)",41.7025625,-69.9789673,"",,Unspecified,"","",,,,,,,S88002582,"",,,,"**Rare; First heard singing right above the driveway, then seen extremely well and photographed at close range. After we went back on the deck we heard its whiney chat-like call note a bunch of times; new all time bird for the Chatham yard",Vireo griseus,whevir,Species,18966,,4.56,9,,1896,2848
76029331,Photo,White-eyed Vireo,Vireo griseus,,Nathan Dubrow,2017-11-23,2017,11,23,1020,United States,US-MA-009,Massachusetts,Essex,Loblolly Cove,42.6402105,-70.5945458,Adult,,Unspecified,"","",,,,,,,S40683720,"",,,,Rare and late: Adult on Penzance rd. that eventually came out due to screech-owl calls. Likely the same individual that Sean Williams had five days ago.,Vireo griseus,whevir,Species,18966,,4.56,9,,1893,2649
625428638,Photo,White-eyed Vireo,Vireo griseus,,Stephen Hurst,2024-10-25,2024,10,25,1626,United States,US-IL-097,Illinois,Lake,Lakewood FP--Ivanhoe Rd. (SW),42.2551469,-88.1105747,"",,Unspecified,"","",,,,,,,S200256364,"",,,,"I had moved on from my efforts long before it turned up.  Popped up in a thicket on the NW side of Ivanhoe at 5:40pm while Blue Jays were mobbing something off to the West. Photos captured.",Vireo griseus,whevir,Species,18966,,5.00,6,,2933,4399
624924652,Photo,White-eyed Vireo,Vireo griseus,,Corby Amos,2024-10-12,2024,10,12,1310,United States,US-VA-800,Virginia,Suffolk,Riverview - The Neighbordhood,36.7363410,-76.5863240,"",,Unspecified,"","",,,,,,,S198567431,"",,,,,Vireo griseus,whevir,Species,18966,,5.00,6,,2219,1775
624643171,Photo,White-eyed Vireo,Vireo griseus,,Dan Burton,2024-10-07,2024,10,7,725,United States,US-MA-005,Massachusetts,Bristol,Borden Colony Conservation Land,41.9190440,-71.0638189,"",,Unspecified,"","",,,,,,,S197889214,"",,,,"Uncommon migrant; photos",Vireo griseus,whevir,Species,18966,,5.00,6,,2527,3364
624011897,Photo,White-eyed Vireo,Vireo griseus,,Christopher T,2024-09-21,2024,9,21,1630,United States,US-PA-003,Pennsylvania,Allegheny,Gravel road behind home,40.4393889,-79.8648122,"",,Unspecified,"","",,,,,,,S195995929,"",,,,,Vireo griseus,whevir,Species,18966,,5.00,6,,2471,3707
621099786,Photo,White-eyed Vireo,Vireo griseus,,Alva  Steury,2024-07-03,2024,7,3,1148,United States,US-IN-033,Indiana,DeKalb,~Private Hotspot~,41.3050006,-84.9778769,"",,Unspecified,"","",,,,,,,S185112171,"",,,,,Vireo griseus,whevir,Species,18966,,5.00,6,,2582,3871
620353181,Photo,White-eyed Vireo,Vireo griseus,,Paul Linton,2024-06-12,2024,6,12,1145,United States,US-VA-095,Virginia,James City,Jamestown Island,37.2031985,-76.7564106,"",,Unspecified,"","",,,,,,,S181093821,"",,,,,Vireo griseus,whevir,Species,18966,,5.00,6,,2103,2419
620088265,Photo,White-eyed Vireo,Vireo griseus,,Jim Merritt,2024-06-05,2024,6,5,1201,United States,US-CO-041,Colorado,El Paso,Rock Ledge Ranch,38.8731601,-104.8723555,"",,Unspecified,"","",,,,,,,S179595505,"",,,,Found earlier by Clark. Continuing north of the corrals behind the little house with a chimney.  Singing on and off.  Mostly standing low in bushes. Photos,Vireo griseus,whevir,Species,18966,,5.00,6,,1549,2048
619437631,Photo,White-eyed Vireo,Vireo griseus,,Cameron Johnson,2024-05-22,2024,5,22,617,United States,US-NH-017,New Hampshire,Strafford,Dover Community Trail--Transportation Center to Fisher St.,43.1970969,-70.8790255,"",,Unspecified,"","",,,,,,,S176319174,"",,,,"Vireo with titular white eye, found off the thickets at the end of Friesian Street (35 arch Street). Patch first and my first in NH this year. Photos",Vireo griseus,whevir,Species,18966,,5.00,6,,3352,5028
617578259,Photo,White-eyed Vireo,Vireo griseus,,Erica Heusser,2024-04-18,2024,4,18,823,United States,US-NJ-005,New Jersey,Burlington,Michael Huber Prairie Warbler Preserve,39.8674559,-74.6084976,"",,Unspecified,"","",,,,,,,S169189383,"",,,,,Vireo griseus,whevir,Species,18966,,5.00,6,,2223,3088
617044254,Photo,White-eyed Vireo,Vireo griseus,,Pramod Prabhu,2024-04-07,2024,4,7,820,United States,US-NC-119,North Carolina,Mecklenburg,McDowell Prairie,35.1192021,-81.0088652,"",,Unspecified,"","",,,,,,,S167576388,"",,,,,Vireo griseus,whevir,Species,18966,,5.00,6,,6600,4968
614098747,Photo,White-eyed Vireo,Vireo griseus,,Michael Stubblefield,2023-10-07,2023,10,7,732,United States,US-TX-215,Texas,Hidalgo,Santa Ana NWR (LTC 059),26.0813003,-98.1351399,Adult – 1,Foraging or Eating,Unspecified,"","",,,,,,,S151626228,"",,,"White-eyed Vireo (Vireo griseus griseus), White-eyed group, adult foraging at Santa Ana National Wildlife Refuge, near Alamo, Texas.",,Vireo griseus,whevir,Species,18966,,5.00,6,"",2715,4073
614098745,Photo,White-eyed Vireo,Vireo griseus,,Michael Stubblefield,2023-10-07,2023,10,7,732,United States,US-TX-215,Texas,Hidalgo,Santa Ana NWR (LTC 059),26.0813003,-98.1351399,Adult – 1,Foraging or Eating,Unspecified,"","",,,,,,,S151626228,"",,,"White-eyed Vireo (Vireo griseus griseus), White-eyed group, adult foraging at Santa Ana National Wildlife Refuge, near Alamo, Texas.",,Vireo griseus,whevir,Species,18966,,5.00,6,"",2725,4088
613431752,Photo,White-eyed Vireo,Vireo griseus,,Michael Stubblefield,2023-10-04,2023,10,4,1709,United States,US-TX-061,Texas,Cameron,Lincoln Park,25.8908090,-97.4828053,Immature – 1,Foraging or Eating,Unspecified,"","",,,,,,,S151441634,"",,,"White-eyed Vireo (Vireo griseus griseus), White-eyed group, immature foraging in Lincoln Park, Brownsville, Texas.",,Vireo griseus,whevir,Species,18966,,5.00,6,"",2509,3763
596389731,Photo,White-eyed Vireo,Vireo griseus,,Stephen Davies,2023-07-22,2023,7,22,539,United States,US-MD-031,Maryland,Montgomery,Blue Mash Nature Trail,39.1939588,-77.1060175,Adult – 1,,Unspecified,"","",,,,,,,S145273855,"",,,,,Vireo griseus,whevir,Species,18966,,5.00,6,,2366,3548
594138351,Photo,White-eyed Vireo,Vireo griseus,,Matt Zuro,2023-07-13,2023,7,13,705,United States,US-IL-031,Illinois,Cook,McGinty Slough / John J. Duffy Grasslands,41.6588008,-87.9223180,"",,Unspecified,"","",,,,,,,S144576146,"",,,,Seen,Vireo griseus,whevir,Species,18966,,5.00,6,,4750,7125
594138311,Photo,White-eyed Vireo,Vireo griseus,,Matt Zuro,2023-07-13,2023,7,13,705,United States,US-IL-031,Illinois,Cook,McGinty Slough / John J. Duffy Grasslands,41.6588008,-87.9223180,"",,Unspecified,"","",,,,,,,S144576146,"",,,,Seen,Vireo griseus,whevir,Species,18966,,5.00,6,,4247,6371
590431501,Photo,White-eyed Vireo,Vireo griseus,,Michael Stubblefield,2023-04-29,2023,4,29,639,United States,US-NJ-009,New Jersey,Cape May,Cape Island--South Cape May Meadows (SCMM),38.9359287,-74.9434519,Adult Male – 1,Foraging or Eating,Unspecified,"","",,,,,,,S135385551,"",,,"White-eyed Vireo (Vireo griseus noveboracensis), White-eyed subspecies group, adult male foraging in South Cape May Meadows, Cape May, New Jersey.",,Vireo griseus,whevir,Species,18966,,5.00,6,"",3771,5656
590431431,Photo,White-eyed Vireo,Vireo griseus,,Michael Stubblefield,2023-04-29,2023,4,29,639,United States,US-NJ-009,New Jersey,Cape May,Cape Island--South Cape May Meadows (SCMM),38.9359287,-74.9434519,Adult Male – 1,Foraging or Eating,Unspecified,"","",,,,,,,S135385551,"",,,"White-eyed Vireo (Vireo griseus noveboracensis), White-eyed subspecies group, adult male foraging in South Cape May Meadows, Cape May, New Jersey.",,Vireo griseus,whevir,Species,18966,,5.00,6,"",2354,3533
582453651,Photo,White-eyed Vireo,Vireo griseus,,Alicia Ambers,2023-05-05,2023,5,5,1522,United States,US-VA-800,Virginia,Suffolk,Great Dismal Swamp NWR--Railroad Ditch,36.6191100,-76.5273285,Adult Male – 1,,Unspecified,"","",,,,,,,S136962002,"",,,,,Vireo griseus,whevir,Species,18966,,5.00,6,,1711,2567
582453621,Photo,White-eyed Vireo,Vireo griseus,,Alicia Ambers,2023-05-05,2023,5,5,1522,United States,US-VA-800,Virginia,Suffolk,Great Dismal Swamp NWR--Railroad Ditch,36.6191100,-76.5273285,Adult Male – 1,,Unspecified,"","",,,,,,,S136962002,"",,,,,Vireo griseus,whevir,Species,18966,,5.00,6,,1631,2447
578997751,Photo,White-eyed Vireo,Vireo griseus,,Ryan Shean,2023-05-27,2023,5,27,716,United States,US-IN-081,Indiana,Johnson,Atterbury FWA,39.3894253,-86.0594273,"",,Unspecified,"","",,,,,,,S139500413,"",,,,,Vireo griseus,whevir,Species,18966,,5.00,6,,1707,2561
578088651,Photo,White-eyed Vireo,Vireo griseus,,Ryan Shean,2023-05-27,2023,5,27,716,United States,US-IN-081,Indiana,Johnson,Atterbury FWA,39.3894253,-86.0594273,"",,Unspecified,"","",,,,,,,S139500413,"",,,,,Vireo griseus,whevir,Species,18966,,5.00,6,,2004,3006
573957231,Photo,White-eyed Vireo,Vireo griseus,,Cody Bassindale,2023-05-13,2023,5,13,532,Canada,CA-ON-ES,Ontario,Essex,Point Pelee National Park (general location),41.9553986,-82.5139999,"",,Unspecified,"","",,,,,,,S137493617,"",,,,,Vireo griseus,whevir,Species,18966,,5.00,6,,3101,4652
566836911,Photo,White-eyed Vireo,Vireo griseus,,Mitchell Goldfarb,2023-05-04,2023,5,4,751,United States,US-NY-119,New York,Westchester,Georges Island Park,41.2407495,-73.9433420,"",,Unspecified,"","",,,,,,,S136044043,"",,,,,Vireo griseus,whevir,Species,18966,,5.00,6,,2157,3236
563133561,Photo,White-eyed Vireo (White-eyed),Vireo griseus [griseus Group],,John Manger,2023-04-26,2023,4,26,739,United States,US-MD-025,Maryland,Harford,"Constellation Energy- Chelsea road, Aberdeen, (Private).",39.4385815,-76.2213028,"",,Unspecified,"","",,,,,,,S135086593,"",,,,,Vireo griseus,whevir1,Group,18967,,5.00,6,,1257,1886
553841351,Photo,White-eyed Vireo,Vireo griseus,,Evan Brooks,2023-04-05,2023,4,5,1213,United States,US-PA-133,Pennsylvania,York,William H. Kain County Park--Lake Redman Boardwalk,39.8810829,-76.6873491,"",,Unspecified,"","",,,,,,,S132777065,"",,,,Yellow and green viero with white eye,Vireo griseus,whevir,Species,18966,,5.00,6,,2422,3781
537563531,Photo,White-eyed Vireo,Vireo griseus,,Brett Hoffman,2023-02-20,2023,2,20,1151,United States,US-FL-103,Florida,Pinellas,Brooker Creek Preserve & Surrounding Areas,28.1439001,-82.6609078,"",,Unspecified,"","",,,,,,,S129192558,"",,,,,Vireo griseus,whevir,Species,18966,,5.00,6,,1064,1595
520163561,Photo,White-eyed Vireo,Vireo griseus,,Miguel  Mejias,2022-10-27,2022,10,27,0,Bermuda,BM-,Bermuda,,"St. George's GC",32.3866842,-64.6770072,"",,Unspecified,"","",,,,,,,S125363769,"",,,,,Vireo griseus,whevir,Species,18966,,5.00,6,,3456,5184
486475381,Photo,White-eyed Vireo,Vireo griseus,,Mimi Mango,2022-09-22,2022,9,22,730,United States,US-VA-153,Virginia,Prince William,Occoquan Bay NWR,38.6455061,-77.2361183,"",,Unspecified,"","",,,,,,,S119201235,"",,,,,Vireo griseus,whevir,Species,18966,,5.00,6,,2507,2253
461289651,Photo,White-eyed Vireo,Vireo griseus,,Matt Zuro,2022-06-20,2022,6,20,1730,United States,US-IL-031,Illinois,Cook,McGinty Slough / John J. Duffy Grasslands,41.6588008,-87.9223180,"",,Unspecified,"","",,,,,,,S113407222,"",,,,"Likely more, can't confirm more than 2 however.",Vireo griseus,whevir,Species,18966,,5.00,6,,3873,5809
448328281,Photo,White-eyed Vireo,Vireo griseus,,Lila Theis,2022-05-14,2022,5,14,834,United States,US-TX-029,Texas,Bexar,North San Antonio Hills,29.4698560,-98.7153160,"",,Unspecified,"","",,,,,,,S110036210,"",,,,,Vireo griseus,whevir,Species,18966,,5.00,6,,1798,2697
353721531,Photo,White-eyed Vireo (White-eyed),Vireo griseus [griseus Group],,Jonathan Irons,2021-05-22,2021,5,22,649,United States,US-MD-023,Maryland,Garrett,Mt. Nebo WMA,39.4545860,-79.3854904,"",,Unspecified,"","",,,,,,,S88749005,"",,,,,Vireo griseus,whevir1,Group,18967,,5.00,6,,1699,2549
278415931,Photo,White-eyed Vireo,Vireo griseus,,Michael Stubblefield,2020-05-02,2020,5,2,557,United States,US-NJ-025,New Jersey,Monmouth,Assunpink WMA,40.2186582,-74.5186533,Adult Male,"Foraging or Eating; Vocalizing",Unspecified,"","",,,,,,,S68245763,"",,,"White-eyed Vireo (Vireo griseus noveboracensis), White-eyed subspecies group, foraging and singing at the Assunpink Wildlife Management Area, Allentown, New Jersey.",,Vireo griseus,whevir,Species,18966,,5.00,6,Habitat,2623,3934
97543541,Photo,White-eyed Vireo,Vireo griseus,,John Petruzzi,2018-05-01,2018,5,1,830,United States,US-OH-099,Ohio,Mahoning,Mill Creek Wildlife Sanctuary (restricted access),40.9738798,-80.6971765,"",,Unspecified,"","",,,,,,,S45152218,"",,,,,Vireo griseus,whevir,Species,18966,,5.00,6,,1595,2394
388603801,Photo,White-eyed Vireo,Vireo griseus,,Estela Quintero-Weldon,2021-11-16,2021,11,16,1000,Canada,CA-ON-TO,Ontario,Toronto,Toronto--Staines Pond,43.8204863,-79.2185605,"",,Unspecified,"","",,,,,,,S97678314,"",,,,"As described by other birders, bird feeding low, on berries on the side of the trail (towards the pond), and moving on cedar trees also.",Vireo griseus,whevir,Species,18966,,5.00,6,,2070,2523
369440321,Photo,White-eyed Vireo,Vireo griseus,,Brett Hoffman,2021-09-14,2021,9,14,829,United States,US-FL-103,Florida,Pinellas,Boyd Hill Nature Park & Lake Maggiore,27.7248069,-82.6501069,"",,Unspecified,"","",,,,,,,S94651897,"",,,,,Vireo griseus,whevir,Species,18966,,5.00,6,,2005,3007
330270001,Photo,White-eyed Vireo,Vireo griseus,,David Arrow,2021-04-25,2021,4,25,949,United States,US-PA-133,Pennsylvania,York,Gifford Pinchot SP--Campground,40.0646999,-76.8970693,"",,Unspecified,"","",,,,,,,S86338378,"",,,,,Vireo griseus,whevir,Species,18966,,5.00,6,,2604,3907
